{"type": "FeatureCollection", "features": [{"type": "Feature", "name": "Ballard", "county_FIPS": "21007", "state_name": "Kentucky", "state_FIPS": "21", "properties": {"missing": [], "unclaimed": [], "unidentified": [{"Case Number": "UP5270", "DBF": "5/21/2009", "Age From": "45.0", "Age To": "65.0", "City": "Wickliffe", "County": "Ballard", "State": "Kentucky", "Sex": "Male", "Race / Ethnicity": "White / Caucasian", "Date Modified": "9/16/2019", "State_FIPS": "21", "State_County": "21_Ballard", "County_FIPS": "21007"}, {"Case Number": "UP110", "DBF": "8/3/2003", "Age From": "25.0", "Age To": "50.0", "City": "nan", "County": "Ballard", "State": "Kentucky", "Sex": "Male", "Race / Ethnicity": "Uncertain", "Date Modified": "1/25/2019", "State_FIPS": "21", "State_County": "21_Ballard", "County_FIPS": "21007"}], "filtered": []}, "geometry": {"type": "Point", "coordinates": [-88.99926161, 37.05848887]}}, {"type": "Feature", "name": "Bourbon", "county_FIPS": "21017", "state_name": "Kentucky", "state_FIPS": "21", "properties": {"missing": [{"Case Number": "MP5175", "DLC": "9/9/2004", "Last Name": "Mitchell", "First Name": "Albert", "Missing Age": "65", "City": "Paris", "County": "Bourbon", "State": "Kentucky", "Sex": "Male", "Race / Ethnicity": "White / Caucasian", "Date Modified": "1/21/2020", "State_FIPS": "21", "State_County": "21_Bourbon", "County_FIPS": "21017"}], "unclaimed": [], "unidentified": [], "filtered": []}, "geometry": {"type": "Point", "coordinates": [-84.217155, 38.20674188]}}, {"type": "Feature", "name": "Butler", "county_FIPS": "21031", "state_name": "Kentucky", "state_FIPS": "21", "properties": {"missing": [], "unclaimed": [], "unidentified": [], "filtered": []}, "geometry": {"type": "Point", "coordinates": [-86.68162842, 37.20729155]}}, {"type": "Feature", "name": "Estill", "county_FIPS": "21065", "state_name": "Kentucky", "state_FIPS": "21", "properties": {"missing": [], "unclaimed": [], "unidentified": [], "filtered": []}, "geometry": {"type": "Point", "coordinates": [-83.96431553, 37.69245149]}}, {"type": "Feature", "name": "Fleming", "county_FIPS": "21069", "state_name": "Kentucky", "state_FIPS": "21", "properties": {"missing": [], "unclaimed": [], "unidentified": [{"Case Number": "UP10354", "DBF": "4/30/2012", "Age From": "17.0", "Age To": "25.0", "City": "nan", "County": "Fleming", "State": "Kentucky", "Sex": "Male", "Race / Ethnicity": "Hispanic / Latino", "Date Modified": "6/18/2014", "State_FIPS": "21", "State_County": "21_Fleming", "County_FIPS": "21069"}, {"Case Number": "UP10353", "DBF": "4/27/2012", "Age From": "20.0", "Age To": "35.0", "City": "nan", "County": "Fleming", "State": "Kentucky", "Sex": "Male", "Race / Ethnicity": "Hispanic / Latino", "Date Modified": "6/18/2014", "State_FIPS": "21", "State_County": "21_Fleming", "County_FIPS": "21069"}], "filtered": []}, "geometry": {"type": "Point", "coordinates": [-83.6966603, 38.37012559]}}]}