{"type":"FeatureCollection","features":[{"type":"Feature","properties":{"park":"Big_Bend_National_Park","id":"3274168371","title":"Euphorbia antisyphilitica","accuracy":16,"date_taken":"2007-10-12 06:21:51","date_granularity":"0"},"geometry":{"type":"Point","coordinates":[-103.068528,29.4305]}},{"type":"Feature","properties":{"park":"Big_Bend_National_Park","id":"3274158937","title":"Berberis trifoliolata","accuracy":16,"date_taken":"2007-10-12 05:38:45","date_granularity":"0"},"geometry":{"type":"Point","coordinates":[-103.048084,29.525444]}},{"type":"Feature","properties":{"park":"Big_Bend_National_Park","id":"3274145099","title":"Berberis trifoliolata","accuracy":16,"date_taken":"2007-10-12 05:36:47","date_granularity":"0"},"geometry":{"type":"Point","coordinates":[-103.047945,29.525499]}},{"type":"Feature","properties":{"park":"Big_Bend_National_Park","id":"3274142971","title":"Berberis trifoliolata","accuracy":16,"date_taken":"2007-10-12 05:36:36","date_granularity":"0"},"geometry":{"type":"Point","coordinates":[-103.047917,29.525499]}},{"type":"Feature","properties":{"park":"Big_Bend_National_Park","id":"3255466864","title":"Yucca elata fruit","accuracy":16,"date_taken":"2007-10-12 05:35:36","date_granularity":"0"},"geometry":{"type":"Point","coordinates":[-103.047862,29.525416]}},{"type":"Feature","properties":{"park":"Big_Bend_National_Park","id":"3255464540","title":"Yucca elata","accuracy":16,"date_taken":"2007-10-12 05:35:49","date_granularity":"0"},"geometry":{"type":"Point","coordinates":[-103.047834,29.525444]}},{"type":"Feature","properties":{"park":"Big_Bend_National_Park","id":"3226228164","title":"Black Peaks Channel outcrop, BBNP","accuracy":16,"date_taken":"2008-12-31 09:58:34","date_granularity":"0"},"geometry":{"type":"Point","coordinates":[-103.138607,29.432136]}},{"type":"Feature","properties":{"park":"Big_Bend_National_Park","id":"3222948642","title":"2008 03 21_BB_LMT_0573","accuracy":16,"date_taken":"2008-03-21 07:39:27","date_granularity":"0"},"geometry":{"type":"Point","coordinates":[-103.256834,29.334333]}},{"type":"Feature","properties":{"park":"Big_Bend_National_Park","id":"3222094377","title":"2008 03 21_BB_LMT_0572","accuracy":16,"date_taken":"2008-03-21 07:38:40","date_granularity":"0"},"geometry":{"type":"Point","coordinates":[-103.256834,29.334333]}},{"type":"Feature","properties":{"park":"Big_Bend_National_Park","id":"3169305694","title":"Star trails over the dirt road","accuracy":16,"date_taken":"2008-12-30 18:28:51","date_granularity":"0"},"geometry":{"type":"Point","coordinates":[-103.138993,29.614003]}},{"type":"Feature","properties":{"park":"Big_Bend_National_Park","id":"3169269792","title":"Dog Canyon at dusk","accuracy":16,"date_taken":"2008-12-30 15:26:40","date_granularity":"0"},"geometry":{"type":"Point","coordinates":[-103.141429,29.615794]}},{"type":"Feature","properties":{"park":"Big_Bend_National_Park","id":"3169262510","title":"Rock slide and Dog Canyon at dusk","accuracy":16,"date_taken":"2008-12-30 15:20:46","date_granularity":"0"},"geometry":{"type":"Point","coordinates":[-103.141429,29.615794]}},{"type":"Feature","properties":{"park":"Big_Bend_National_Park","id":"3169261954","title":"Twilight","accuracy":16,"date_taken":"2008-12-30 15:20:14","date_granularity":"0"},"geometry":{"type":"Point","coordinates":[-103.141429,29.615794]}},{"type":"Feature","properties":{"park":"Big_Bend_National_Park","id":"3168431725","title":"Persimmon Gap","accuracy":16,"date_taken":"2008-12-30 15:17:57","date_granularity":"0"},"geometry":{"type":"Point","coordinates":[-103.141429,29.615794]}},{"type":"Feature","properties":{"park":"Big_Bend_National_Park","id":"3168431297","title":"From above","accuracy":16,"date_taken":"2008-12-30 14:44:48","date_granularity":"0"},"geometry":{"type":"Point","coordinates":[-103.253856,29.572301]}},{"type":"Feature","properties":{"park":"Big_Bend_National_Park","id":"3168430285","title":"Kitchen","accuracy":16,"date_taken":"2008-12-30 14:33:22","date_granularity":"0"},"geometry":{"type":"Point","coordinates":[-103.253985,29.572525]}},{"type":"Feature","properties":{"park":"Big_Bend_National_Park","id":"3169259954","title":"House ruins","accuracy":16,"date_taken":"2008-12-30 14:30:02","date_granularity":"0"},"geometry":{"type":"Point","coordinates":[-103.253985,29.572525]}},{"type":"Feature","properties":{"park":"Big_Bend_National_Park","id":"3168429759","title":"Rosillos Mountains","accuracy":16,"date_taken":"2008-12-30 14:27:03","date_granularity":"0"},"geometry":{"type":"Point","coordinates":[-103.253728,29.571835]}},{"type":"Feature","properties":{"park":"Big_Bend_National_Park","id":"3168428577","title":"Ruins of an old horse barn","accuracy":16,"date_taken":"2008-12-30 14:22:27","date_granularity":"0"},"geometry":{"type":"Point","coordinates":[-103.253728,29.571835]}},{"type":"Feature","properties":{"park":"Big_Bend_National_Park","id":"3169258318","title":"Backpacker Jon","accuracy":16,"date_taken":"2008-12-30 14:21:28","date_granularity":"0"},"geometry":{"type":"Point","coordinates":[-103.253728,29.571835]}},{"type":"Feature","properties":{"park":"Big_Bend_National_Park","id":"3168428073","title":"Barbed wire","accuracy":16,"date_taken":"2008-12-30 14:11:31","date_granularity":"0"},"geometry":{"type":"Point","coordinates":[-103.254178,29.573692]}},{"type":"Feature","properties":{"park":"Big_Bend_National_Park","id":"3168424639","title":"Dog Canyon","accuracy":16,"date_taken":"2008-02-09 17:06:00","date_granularity":"0"},"geometry":{"type":"Point","coordinates":[-103.11306,29.623289]}},{"type":"Feature","properties":{"park":"Big_Bend_National_Park","id":"2925366429","title":"Eric breaks up the vulture party","accuracy":15,"date_taken":"2008-10-05 22:55:49","date_granularity":"0"},"geometry":{"type":"Point","coordinates":[-103.226809,29.365345]}},{"type":"Feature","properties":{"park":"Big_Bend_National_Park","id":"2925324741","title":"We are not two tents!","accuracy":16,"date_taken":"2008-10-04 04:32:07","date_granularity":"0"},"geometry":{"type":"Point","coordinates":[-103.221112,29.378005]}},{"type":"Feature","properties":{"park":"Big_Bend_National_Park","id":"2900642775","title":"mintues beafore the storm 2","accuracy":15,"date_taken":"2008-09-01 19:46:22","date_granularity":"0"},"geometry":{"type":"Point","coordinates":[-103.216627,29.386484]}},{"type":"Feature","properties":{"park":"Big_Bend_National_Park","id":"2900640873","title":"storm clouds","accuracy":15,"date_taken":"2008-09-01 19:29:58","date_granularity":"0"},"geometry":{"type":"Point","coordinates":[-103.216627,29.386484]}},{"type":"Feature","properties":{"park":"Big_Bend_National_Park","id":"2825363398","title":"Grapevine Hills","accuracy":16,"date_taken":"2008-08-31 15:46:03","date_granularity":"0"},"geometry":{"type":"Point","coordinates":[-103.202143,29.399922]}},{"type":"Feature","properties":{"park":"Big_Bend_National_Park","id":"2824526051","title":"Heart Rock","accuracy":16,"date_taken":"2008-08-31 15:33:09","date_granularity":"0"},"geometry":{"type":"Point","coordinates":[-103.202143,29.399922]}},{"type":"Feature","properties":{"park":"Big_Bend_National_Park","id":"2490893834","title":"IMG_8786","accuracy":15,"date_taken":"2007-09-29 10:47:17","date_granularity":"0"},"geometry":{"type":"Point","coordinates":[-103.048775,29.525763]}},{"type":"Feature","properties":{"park":"Big_Bend_National_Park","id":"2490075613","title":"IMG_8774","accuracy":15,"date_taken":"2007-09-29 10:41:24","date_granularity":"0"},"geometry":{"type":"Point","coordinates":[-103.048775,29.525763]}},{"type":"Feature","properties":{"park":"Big_Bend_National_Park","id":"2490892866","title":"IMG_8741","accuracy":15,"date_taken":"2007-09-29 09:35:41","date_granularity":"0"},"geometry":{"type":"Point","coordinates":[-103.048775,29.525763]}},{"type":"Feature","properties":{"park":"Big_Bend_National_Park","id":"2490892214","title":"IMG_8717","accuracy":15,"date_taken":"2007-09-29 08:22:19","date_granularity":"0"},"geometry":{"type":"Point","coordinates":[-103.048775,29.525763]}},{"type":"Feature","properties":{"park":"Big_Bend_National_Park","id":"2490073709","title":"IMG_8716","accuracy":15,"date_taken":"2007-09-29 08:21:24","date_granularity":"0"},"geometry":{"type":"Point","coordinates":[-103.048775,29.525763]}},{"type":"Feature","properties":{"park":"Big_Bend_National_Park","id":"2490073313","title":"IMG_8707","accuracy":15,"date_taken":"2007-09-29 08:15:57","date_granularity":"0"},"geometry":{"type":"Point","coordinates":[-103.048775,29.525763]}},{"type":"Feature","properties":{"park":"Big_Bend_National_Park","id":"2476861082","title":"0A6O3964","accuracy":15,"date_taken":"2008-04-20 07:03:30","date_granularity":"0"},"geometry":{"type":"Point","coordinates":[-103.052691,29.503934]}},{"type":"Feature","properties":{"park":"Big_Bend_National_Park","id":"2471013346","title":"0A6O3964","accuracy":15,"date_taken":"2008-04-20 07:03:30","date_granularity":"0"},"geometry":{"type":"Point","coordinates":[-103.052691,29.503934]}},{"type":"Feature","properties":{"park":"Big_Bend_National_Park","id":"2470188781","title":"0A6O3938","accuracy":15,"date_taken":"2008-04-20 07:30:18","date_granularity":"0"},"geometry":{"type":"Point","coordinates":[-103.052691,29.503934]}},{"type":"Feature","properties":{"park":"Big_Bend_National_Park","id":"2325198892","title":"Balanced Rock in the Grapevine Hills","accuracy":16,"date_taken":"2008-03-08 15:32:45","date_granularity":"0"},"geometry":{"type":"Point","coordinates":[-103.202047,29.402328]}},{"type":"Feature","properties":{"park":"Big_Bend_National_Park","id":"2325198436","title":"The Grapevine Hills","accuracy":16,"date_taken":"2008-03-08 15:19:38","date_granularity":"0"},"geometry":{"type":"Point","coordinates":[-103.204429,29.407049]}},{"type":"Feature","properties":{"park":"Big_Bend_National_Park","id":"2270516532","title":"Heliotropium greggii","accuracy":16,"date_taken":"2007-04-16 08:46:41","date_granularity":"0"},"geometry":{"type":"Point","coordinates":[-103.136714,29.622433]}},{"type":"Feature","properties":{"park":"Big_Bend_National_Park","id":"2270516418","title":"Gilia insignis","accuracy":16,"date_taken":"2007-04-16 08:33:56","date_granularity":"0"},"geometry":{"type":"Point","coordinates":[-103.136714,29.622433]}},{"type":"Feature","properties":{"park":"Big_Bend_National_Park","id":"2270516364","title":"Heliotropium glabriusculum","accuracy":16,"date_taken":"2007-04-16 08:25:57","date_granularity":"0"},"geometry":{"type":"Point","coordinates":[-103.136714,29.622433]}},{"type":"Feature","properties":{"park":"Big_Bend_National_Park","id":"2269724683","title":"Phacelia popei","accuracy":16,"date_taken":"2007-04-16 08:06:55","date_granularity":"0"},"geometry":{"type":"Point","coordinates":[-103.1427,29.622368]}},{"type":"Feature","properties":{"park":"Big_Bend_National_Park","id":"2269724641","title":"Hoffmannseggia glauca","accuracy":16,"date_taken":"2007-04-16 07:50:05","date_granularity":"0"},"geometry":{"type":"Point","coordinates":[-103.1427,29.622368]}},{"type":"Feature","properties":{"park":"Big_Bend_National_Park","id":"2148867065","title":"Ash flows","accuracy":15,"date_taken":"2007-03-17 10:38:45","date_granularity":"0"},"geometry":{"type":"Point","coordinates":[-103.256549,29.334653]}},{"type":"Feature","properties":{"park":"Big_Bend_National_Park","id":"2149641994","title":"Ash flows","accuracy":15,"date_taken":"2007-03-17 10:32:49","date_granularity":"0"},"geometry":{"type":"Point","coordinates":[-103.256549,29.334653]}},{"type":"Feature","properties":{"park":"Big_Bend_National_Park","id":"2148836931","title":"CAZ07_0549","accuracy":15,"date_taken":"2007-03-17 08:43:11","date_granularity":"0"},"geometry":{"type":"Point","coordinates":[-103.256549,29.334653]}},{"type":"Feature","properties":{"park":"Big_Bend_National_Park","id":"2149607822","title":"Feeling different","accuracy":15,"date_taken":"2009-03-02 00:24:03","date_granularity":"0"},"geometry":{"type":"Point","coordinates":[-103.256549,29.334653]}},{"type":"Feature","properties":{"park":"Big_Bend_National_Park","id":"2147312285","title":"Dikes in the valley","accuracy":15,"date_taken":"2007-03-16 19:26:47","date_granularity":"0"},"geometry":{"type":"Point","coordinates":[-103.256549,29.334653]}},{"type":"Feature","properties":{"park":"Big_Bend_National_Park","id":"2147269919","title":"Prickly pear flower","accuracy":15,"date_taken":"2007-03-16 17:01:05","date_granularity":"0"},"geometry":{"type":"Point","coordinates":[-103.256549,29.334653]}},{"type":"Feature","properties":{"park":"Big_Bend_National_Park","id":"2148058704","title":"Native Americans mortar holes","accuracy":15,"date_taken":"2007-03-16 16:55:33","date_granularity":"0"},"geometry":{"type":"Point","coordinates":[-103.256549,29.334653]}},{"type":"Feature","properties":{"park":"Big_Bend_National_Park","id":"2148050310","title":"CAZ07_0480","accuracy":15,"date_taken":"2007-03-16 15:34:46","date_granularity":"0"},"geometry":{"type":"Point","coordinates":[-103.256549,29.334653]}},{"type":"Feature","properties":{"park":"Big_Bend_National_Park","id":"2148042192","title":"Paleo-Indian petrogliphs","accuracy":15,"date_taken":"2007-03-16 15:22:46","date_granularity":"0"},"geometry":{"type":"Point","coordinates":[-103.256549,29.334653]}},{"type":"Feature","properties":{"park":"Big_Bend_National_Park","id":"2147208179","title":"Ash flows and volcanic rocks","accuracy":15,"date_taken":"2007-03-16 10:10:32","date_granularity":"0"},"geometry":{"type":"Point","coordinates":[-103.256549,29.334653]}},{"type":"Feature","properties":{"park":"Big_Bend_National_Park","id":"2147123477","title":"CAZ07_0465","accuracy":15,"date_taken":"2007-03-16 14:27:03","date_granularity":"0"},"geometry":{"type":"Point","coordinates":[-103.256549,29.334653]}},{"type":"Feature","properties":{"park":"Big_Bend_National_Park","id":"2147112673","title":"Javelina crossing the road","accuracy":15,"date_taken":"2007-03-16 13:42:10","date_granularity":"0"},"geometry":{"type":"Point","coordinates":[-103.256549,29.334653]}},{"type":"Feature","properties":{"park":"Big_Bend_National_Park","id":"2147888306","title":"Breakfast time","accuracy":15,"date_taken":"2007-03-16 09:28:03","date_granularity":"0"},"geometry":{"type":"Point","coordinates":[-103.256549,29.334653]}},{"type":"Feature","properties":{"park":"Big_Bend_National_Park","id":"2147881244","title":"Cottonwood campground","accuracy":15,"date_taken":"2007-03-16 09:08:52","date_granularity":"0"},"geometry":{"type":"Point","coordinates":[-103.256549,29.334653]}},{"type":"Feature","properties":{"park":"Big_Bend_National_Park","id":"2146824933","title":"View from the Window","accuracy":15,"date_taken":"2007-03-15 19:28:19","date_granularity":"0"},"geometry":{"type":"Point","coordinates":[-103.256549,29.334653]}},{"type":"Feature","properties":{"park":"Big_Bend_National_Park","id":"2147613740","title":"CAZ07_0398","accuracy":15,"date_taken":"2007-03-15 17:38:40","date_granularity":"0"},"geometry":{"type":"Point","coordinates":[-103.256549,29.334653]}},{"type":"Feature","properties":{"park":"Big_Bend_National_Park","id":"2146814209","title":"","accuracy":15,"date_taken":"2007-03-15 17:35:10","date_granularity":"0"},"geometry":{"type":"Point","coordinates":[-103.256549,29.334653]}},{"type":"Feature","properties":{"park":"Big_Bend_National_Park","id":"2147599334","title":"CAZ07_0392","accuracy":15,"date_taken":"2007-03-15 17:19:30","date_granularity":"0"},"geometry":{"type":"Point","coordinates":[-103.256549,29.334653]}},{"type":"Feature","properties":{"park":"Big_Bend_National_Park","id":"2147581882","title":"Rafting down the Rio Grande","accuracy":15,"date_taken":"2007-03-15 15:27:34","date_granularity":"0"},"geometry":{"type":"Point","coordinates":[-103.256549,29.334653]}},{"type":"Feature","properties":{"park":"Big_Bend_National_Park","id":"2147566090","title":"CAZ07_0366","accuracy":15,"date_taken":"2007-03-15 13:10:11","date_granularity":"0"},"geometry":{"type":"Point","coordinates":[-103.256549,29.334653]}},{"type":"Feature","properties":{"park":"Big_Bend_National_Park","id":"2147557210","title":"Big Bend National Park","accuracy":15,"date_taken":"2007-03-15 11:43:04","date_granularity":"0"},"geometry":{"type":"Point","coordinates":[-103.256549,29.334653]}},{"type":"Feature","properties":{"park":"Big_Bend_National_Park","id":"2146755441","title":"","accuracy":15,"date_taken":"2007-03-15 11:00:47","date_granularity":"0"},"geometry":{"type":"Point","coordinates":[-103.256549,29.334653]}},{"type":"Feature","properties":{"park":"Big_Bend_National_Park","id":"2147542310","title":"CAZ07_0355","accuracy":15,"date_taken":"2007-03-15 10:53:18","date_granularity":"0"},"geometry":{"type":"Point","coordinates":[-103.256549,29.334653]}},{"type":"Feature","properties":{"park":"Big_Bend_National_Park","id":"2146738613","title":"","accuracy":15,"date_taken":"2007-03-15 10:46:21","date_granularity":"0"},"geometry":{"type":"Point","coordinates":[-103.256549,29.334653]}},{"type":"Feature","properties":{"park":"Big_Bend_National_Park","id":"2146728691","title":"World largest Roadrunner...Beep beep!","accuracy":15,"date_taken":"2007-03-15 07:57:27","date_granularity":"0"},"geometry":{"type":"Point","coordinates":[-103.256549,29.334653]}},{"type":"Feature","properties":{"park":"Big_Bend_National_Park","id":"2051317050","title":"Big Bend Texas","accuracy":16,"date_taken":"2007-09-25 23:37:32","date_granularity":"0"},"geometry":{"type":"Point","coordinates":[-103.034688,29.353344]}},{"type":"Feature","properties":{"park":"Big_Bend_National_Park","id":"1943382669","title":"Prickly pear cactus flowers","accuracy":15,"date_taken":"2007-03-16 17:01:49","date_granularity":"0"},"geometry":{"type":"Point","coordinates":[-103.256549,29.334653]}},{"type":"Feature","properties":{"park":"Big_Bend_National_Park","id":"1943289963","title":"Big Bend National Park","accuracy":15,"date_taken":"2007-03-16 12:10:16","date_granularity":"0"},"geometry":{"type":"Point","coordinates":[-103.256549,29.334653]}},{"type":"Feature","properties":{"park":"Big_Bend_National_Park","id":"1387252713","title":"Chisos Ron 10-18-02","accuracy":16,"date_taken":"2002-10-18 16:10:49","date_granularity":"0"},"geometry":{"type":"Point","coordinates":[-103.302265,29.389765]}},{"type":"Feature","properties":{"park":"Big_Bend_National_Park","id":"1364526592","title":"","accuracy":15,"date_taken":"2009-03-02 00:28:56","date_granularity":"0"},"geometry":{"type":"Point","coordinates":[-103.256549,29.334653]}},{"type":"Feature","properties":{"park":"Big_Bend_National_Park","id":"1323111456","title":"Big Bend Panorama","accuracy":15,"date_taken":"2007-09-04 12:51:27","date_granularity":"0"},"geometry":{"type":"Point","coordinates":[-103.256549,29.334653]}},{"type":"Feature","properties":{"park":"Big_Bend_National_Park","id":"1323110462","title":"Big Bend Panorama","accuracy":15,"date_taken":"2007-03-17 08:15:09","date_granularity":"0"},"geometry":{"type":"Point","coordinates":[-103.256549,29.334653]}},{"type":"Feature","properties":{"park":"Big_Bend_National_Park","id":"1300367089","title":"Big Bend National Park","accuracy":15,"date_taken":"2007-03-17 09:02:14","date_granularity":"0"},"geometry":{"type":"Point","coordinates":[-103.256549,29.334653]}},{"type":"Feature","properties":{"park":"Big_Bend_National_Park","id":"1300346803","title":"Santa Helena canyon","accuracy":15,"date_taken":"2007-03-17 08:42:39","date_granularity":"0"},"geometry":{"type":"Point","coordinates":[-103.256549,29.334653]}},{"type":"Feature","properties":{"park":"Big_Bend_National_Park","id":"1301197384","title":"Big Bend National Park","accuracy":15,"date_taken":"2007-03-17 08:30:00","date_granularity":"0"},"geometry":{"type":"Point","coordinates":[-103.256549,29.334653]}},{"type":"Feature","properties":{"park":"Big_Bend_National_Park","id":"1301180230","title":"Sunrise behind Chisos Mountains","accuracy":15,"date_taken":"2007-03-17 08:15:03","date_granularity":"0"},"geometry":{"type":"Point","coordinates":[-103.256549,29.334653]}},{"type":"Feature","properties":{"park":"Big_Bend_National_Park","id":"1281259073","title":"Giant dagger yucca","accuracy":15,"date_taken":"2007-03-15 16:38:05","date_granularity":"0"},"geometry":{"type":"Point","coordinates":[-103.256549,29.334653]}},{"type":"Feature","properties":{"park":"Big_Bend_National_Park","id":"1152626580","title":"dsc_0015","accuracy":16,"date_taken":"2007-08-11 12:29:23","date_granularity":"0"},"geometry":{"type":"Point","coordinates":[-103.137422,29.418979]}},{"type":"Feature","properties":{"park":"Big_Bend_National_Park","id":"1152580054","title":"dsc_2992","accuracy":16,"date_taken":"2007-08-11 11:45:08","date_granularity":"0"},"geometry":{"type":"Point","coordinates":[-103.123249,29.504439]}},{"type":"Feature","properties":{"park":"Big_Bend_National_Park","id":"534008258","title":"The roadsters gather up for a tour of BBNP","accuracy":16,"date_taken":"2007-02-24 16:19:07","date_granularity":"0"},"geometry":{"type":"Point","coordinates":[-103.173189,29.659768]}},{"type":"Feature","properties":{"park":"Big_Bend_National_Park","id":"480403053","title":"DSC01027","accuracy":16,"date_taken":"2007-04-04 12:38:35","date_granularity":"0"},"geometry":{"type":"Point","coordinates":[-103.049902,29.52708]}},{"type":"Feature","properties":{"park":"Big_Bend_National_Park","id":"480402983","title":"DSC01025","accuracy":16,"date_taken":"2007-04-04 12:34:47","date_granularity":"0"},"geometry":{"type":"Point","coordinates":[-103.043616,29.52975]}},{"type":"Feature","properties":{"park":"Big_Bend_National_Park","id":"438383894","title":"Sprig","accuracy":16,"date_taken":"2007-03-10 16:29:41","date_granularity":"0"},"geometry":{"type":"Point","coordinates":[-103.202594,29.401366]}},{"type":"Feature","properties":{"park":"Big_Bend_National_Park","id":"297502090","title":"Sunset at Big Bend","accuracy":16,"date_taken":"2006-03-09 18:43:54","date_granularity":"0"},"geometry":{"type":"Point","coordinates":[-103.221391,29.37794]}},{"type":"Feature","properties":{"park":"Big_Bend_National_Park","id":"238208847","title":"Big Bend National Park!","accuracy":16,"date_taken":"2006-07-06 08:42:39","date_granularity":"0"},"geometry":{"type":"Point","coordinates":[-103.167693,29.68026]}},{"type":"Feature","properties":{"park":"Big_Bend_National_Park","id":"158418683","title":"Claret Cup","accuracy":16,"date_taken":"2006-05-30 09:50:27","date_granularity":"0"},"geometry":{"type":"Point","coordinates":[-103.199687,29.341518]}},{"type":"Feature","properties":{"park":"Big_Bend_National_Park","id":"158418650","title":"Bug","accuracy":16,"date_taken":"2006-05-30 09:42:12","date_granularity":"0"},"geometry":{"type":"Point","coordinates":[-103.184108,29.358426]}},{"type":"Feature","properties":{"park":"Big_Bend_National_Park","id":"158418452","title":"Prickly Pear Flower","accuracy":16,"date_taken":"2006-05-30 09:32:52","date_granularity":"0"},"geometry":{"type":"Point","coordinates":[-103.185052,29.358482]}},{"type":"Feature","properties":{"park":"Big_Bend_National_Park","id":"158418393","title":"Gathering pollen","accuracy":16,"date_taken":"2006-05-30 09:32:43","date_granularity":"0"},"geometry":{"type":"Point","coordinates":[-103.185009,29.358613]}},{"type":"Feature","properties":{"park":"Big_Bend_National_Park","id":"123999426","title":"Grapevine Hills Desolation","accuracy":16,"date_taken":"2006-03-09 15:34:35","date_granularity":"0"},"geometry":{"type":"Point","coordinates":[-103.206832,29.410292]}},{"type":"Feature","properties":{"park":"Big_Bend_National_Park","id":"121564662","title":"Grapevine Hills Horizon","accuracy":16,"date_taken":"2006-03-09 15:44:54","date_granularity":"0"},"geometry":{"type":"Point","coordinates":[-103.206832,29.410292]}},{"type":"Feature","properties":{"park":"Big_Bend_National_Park","id":"120041070","title":"Grapevine Hills Moon","accuracy":16,"date_taken":"2006-03-09 16:21:39","date_granularity":"0"},"geometry":{"type":"Point","coordinates":[-103.206832,29.410292]}},{"type":"Feature","properties":{"park":"Big_Bend_National_Park","id":"120040451","title":"Grapevine Hills Canyon","accuracy":16,"date_taken":"2006-03-09 16:17:32","date_granularity":"0"},"geometry":{"type":"Point","coordinates":[-103.206832,29.410292]}},{"type":"Feature","properties":{"park":"Big_Bend_National_Park","id":"120039876","title":"Grapevine Hills Stone Arch","accuracy":16,"date_taken":"2006-03-09 15:42:27","date_granularity":"0"},"geometry":{"type":"Point","coordinates":[-103.206832,29.410292]}},{"type":"Feature","properties":{"park":"Big_Bend_National_Park","id":"120039393","title":"Grapevine Hills Boulder","accuracy":16,"date_taken":"2006-03-09 15:15:38","date_granularity":"0"},"geometry":{"type":"Point","coordinates":[-103.206832,29.410292]}},{"type":"Feature","properties":{"park":"Big_Bend_National_Park","id":"119689123","title":"Grapevine Hills Lichen","accuracy":16,"date_taken":"2006-03-09 15:15:07","date_granularity":"0"},"geometry":{"type":"Point","coordinates":[-103.206832,29.410292]}},{"type":"Feature","properties":{"park":"Big_Bend_National_Park","id":"70749575","title":"Ken and Alicia, Welcome to Big Bend National Park, Texas","accuracy":15,"date_taken":"2004-03-15 22:56:53","date_granularity":"0"},"geometry":{"type":"Point","coordinates":[-103.167243,29.680372]}},{"type":"Feature","properties":{"park":"Big_Bend_National_Park","id":"66296080","title":"Morning over Big Bend National Park, Texas","accuracy":15,"date_taken":"2004-03-16 19:05:10","date_granularity":"0"},"geometry":{"type":"Point","coordinates":[-103.125185,29.539598]}},{"type":"Feature","properties":{"park":"Big_Bend_National_Park","id":"50582919","title":"Chisos Mountains","accuracy":16,"date_taken":"2005-10-08 22:44:26","date_granularity":0},"geometry":{"type":"Point","coordinates":[-103.145657,29.394066]}},{"type":"Feature","properties":{"park":"Big_Bend_National_Park","id":"29950128","title":"Big Bend National Park","accuracy":16,"date_taken":"2004-10-15 10:00:06","date_granularity":"0"},"geometry":{"type":"Point","coordinates":[-103.137331,29.418965]}},{"type":"Feature","properties":{"park":"Big_Bend_National_Park","id":"29949957","title":"Big Bend National Park","accuracy":16,"date_taken":"2004-10-15 10:00:05","date_granularity":"0"},"geometry":{"type":"Point","coordinates":[-103.137288,29.418928]}},{"type":"Feature","properties":{"park":"Big_Bend_National_Park","id":"29949875","title":"Big Bend National Park","accuracy":16,"date_taken":"2004-10-15 10:00:02","date_granularity":"0"},"geometry":{"type":"Point","coordinates":[-103.137331,29.41889]}},{"type":"Feature","properties":{"park":"Big_Bend_National_Park","id":"3274985040","title":"Leucophyllum frutescens","accuracy":16,"date_taken":"2007-10-12 06:20:10","date_granularity":"0"},"geometry":{"type":"Point","coordinates":[-103.06825,29.430611]}},{"type":"Feature","properties":{"park":"Big_Bend_National_Park","id":"3254638841","title":"Leucophyllum frutescens","accuracy":16,"date_taken":"2007-10-12 06:20:18","date_granularity":"0"},"geometry":{"type":"Point","coordinates":[-103.06825,29.430583]}},{"type":"Feature","properties":{"park":"Big_Bend_National_Park","id":"34289515650","title":"Hiking Big Bend Texas 2017","accuracy":16,"date_taken":"2017-03-25 10:59:10","date_granularity":"0"},"geometry":{"type":"Point","coordinates":[-103.202789,29.399086]}},{"type":"Feature","properties":{"park":"Big_Bend_National_Park","id":"34451739045","title":"IMG_6096","accuracy":16,"date_taken":"2017-04-28 16:12:35","date_granularity":"0"},"geometry":{"type":"Point","coordinates":[-103.167345,29.679858]}},{"type":"Feature","properties":{"park":"Big_Bend_National_Park","id":"33471505193","title":"The Window","accuracy":16,"date_taken":"2017-04-05 07:50:31","date_granularity":"0"},"geometry":{"type":"Point","coordinates":[-103.189537,29.404142]}},{"type":"Feature","properties":{"park":"Big_Bend_National_Park","id":"34232816116","title":"Yucca Plants - Grapevine Hills - Big Bend NP","accuracy":16,"date_taken":"2017-03-27 08:27:40","date_granularity":"0"},"geometry":{"type":"Point","coordinates":[-103.20285,29.399061]}},{"type":"Feature","properties":{"park":"Big_Bend_National_Park","id":"33454188743","title":"Sheltered","accuracy":16,"date_taken":"2017-03-27 08:23:17","date_granularity":"0"},"geometry":{"type":"Point","coordinates":[-103.20292,29.399044]}},{"type":"Feature","properties":{"park":"Big_Bend_National_Park","id":"33345836244","title":"Big Bend 2016.","accuracy":16,"date_taken":"2016-07-20 12:58:22","date_granularity":"0"},"geometry":{"type":"Point","coordinates":[-103.260514,29.362208]}},{"type":"Feature","properties":{"park":"Big_Bend_National_Park","id":"33323443234","title":"Big Bend 2016.","accuracy":16,"date_taken":"2016-07-18 11:43:59","date_granularity":"0"},"geometry":{"type":"Point","coordinates":[-103.294456,29.356427]}},{"type":"Feature","properties":{"park":"Big_Bend_National_Park","id":"34035057631","title":"Big Bend 2016.","accuracy":16,"date_taken":"2016-07-18 11:03:21","date_granularity":"0"},"geometry":{"type":"Point","coordinates":[-103.275825,29.349286]}},{"type":"Feature","properties":{"park":"Big_Bend_National_Park","id":"33350555183","title":"Balance Rock - Grapevine Hills - Big Bend National Park","accuracy":16,"date_taken":"2017-03-27 08:12:07","date_granularity":"0"},"geometry":{"type":"Point","coordinates":[-103.202873,29.398766]}},{"type":"Feature","properties":{"park":"Big_Bend_National_Park","id":"34090378786","title":"Cactus","accuracy":16,"date_taken":"2013-08-30 12:21:58","date_granularity":"0"},"geometry":{"type":"Point","coordinates":[-103.113792,29.495716]}},{"type":"Feature","properties":{"park":"Big_Bend_National_Park","id":"33275749624","title":"The Window - Balanced Rock - Grapevine Hills - BBNP","accuracy":16,"date_taken":"2017-03-27 08:06:48","date_granularity":"0"},"geometry":{"type":"Point","coordinates":[-103.202728,29.398661]}},{"type":"Feature","properties":{"park":"Big_Bend_National_Park","id":"33306749313","title":"The Window - Balanced Rock - Grapevine Hills - BBNP","accuracy":16,"date_taken":"2017-03-27 08:04:29","date_granularity":"0"},"geometry":{"type":"Point","coordinates":[-103.202889,29.398744]}},{"type":"Feature","properties":{"park":"Big_Bend_National_Park","id":"33888053971","title":"Desert views","accuracy":16,"date_taken":"2017-04-10 15:36:48","date_granularity":"0"},"geometry":{"type":"Point","coordinates":[-103.148064,29.630644]}},{"type":"Feature","properties":{"park":"Big_Bend_National_Park","id":"33920882926","title":"Big Bend NP Grapevine Hills Night Sky","accuracy":16,"date_taken":"2017-03-29 02:51:05","date_granularity":"0"},"geometry":{"type":"Point","coordinates":[-103.202848,29.398963]}},{"type":"Feature","properties":{"park":"Big_Bend_National_Park","id":"33888565305","title":"US 385 Entry Sign","accuracy":16,"date_taken":"2015-10-06 09:44:54","date_granularity":"0"},"geometry":{"type":"Point","coordinates":[-103.167371,29.67999]}},{"type":"Feature","properties":{"park":"Big_Bend_National_Park","id":"32983054784","title":"Hiking Big Bend Texas 2017","accuracy":16,"date_taken":"2017-03-24 10:18:59","date_granularity":"0"},"geometry":{"type":"Point","coordinates":[-103.141092,29.420416]}},{"type":"Feature","properties":{"park":"Big_Bend_National_Park","id":"32971625484","title":"Good morning, Monday!","accuracy":16,"date_taken":"2017-02-19 06:40:03","date_granularity":"0"},"geometry":{"type":"Point","coordinates":[-103.202894,29.39915]}},{"type":"Feature","properties":{"park":"Big_Bend_National_Park","id":"33739188366","title":"Hiking Big Bend Texas 2017","accuracy":16,"date_taken":"2017-03-25 10:26:29","date_granularity":"0"},"geometry":{"type":"Point","coordinates":[-103.204598,29.403808]}},{"type":"Feature","properties":{"park":"Big_Bend_National_Park","id":"33671328086","title":"Hiking Big Bend Texas 2017","accuracy":16,"date_taken":"2017-03-25 10:58:33","date_granularity":"0"},"geometry":{"type":"Point","coordinates":[-103.202873,29.399]}},{"type":"Feature","properties":{"park":"Big_Bend_National_Park","id":"33671327826","title":"Hiking Big Bend Texas 2017","accuracy":16,"date_taken":"2017-03-25 10:39:14","date_granularity":"0"},"geometry":{"type":"Point","coordinates":[-103.201912,29.399588]}},{"type":"Feature","properties":{"park":"Big_Bend_National_Park","id":"33327981320","title":"Hiking Big Bend Texas 2017","accuracy":16,"date_taken":"2017-03-25 10:22:19","date_granularity":"0"},"geometry":{"type":"Point","coordinates":[-103.204856,29.406186]}},{"type":"Feature","properties":{"park":"Big_Bend_National_Park","id":"33702403285","title":"Hiking Big Bend Texas 2017","accuracy":16,"date_taken":"2017-03-25 10:58:33","date_granularity":"0"},"geometry":{"type":"Point","coordinates":[-103.202873,29.399]}},{"type":"Feature","properties":{"park":"Big_Bend_National_Park","id":"33546153592","title":"Hiking Big Bend Texas 2017","accuracy":16,"date_taken":"2017-03-25 10:39:14","date_granularity":"0"},"geometry":{"type":"Point","coordinates":[-103.201912,29.399588]}},{"type":"Feature","properties":{"park":"Big_Bend_National_Park","id":"32889025043","title":"Hiking Big Bend Texas 2017","accuracy":16,"date_taken":"2017-03-25 10:22:19","date_granularity":"0"},"geometry":{"type":"Point","coordinates":[-103.204856,29.406186]}},{"type":"Feature","properties":{"park":"Big_Bend_National_Park","id":"33546135702","title":"Hiking Big Bend Texas 2017","accuracy":16,"date_taken":"2017-03-25 10:46:22","date_granularity":"0"},"geometry":{"type":"Point","coordinates":[-103.202348,29.399302]}},{"type":"Feature","properties":{"park":"Big_Bend_National_Park","id":"33316076450","title":"Hiking Big Bend Texas 2017","accuracy":16,"date_taken":"2017-03-25 10:22:17","date_granularity":"0"},"geometry":{"type":"Point","coordinates":[-103.204856,29.406186]}},{"type":"Feature","properties":{"park":"Big_Bend_National_Park","id":"33543769852","title":"Hiking Big Bend Texas 2017","accuracy":16,"date_taken":"2017-03-25 10:58:02","date_granularity":"0"},"geometry":{"type":"Point","coordinates":[-103.202903,29.398991]}},{"type":"Feature","properties":{"park":"Big_Bend_National_Park","id":"33659107156","title":"Hiking Big Bend Texas 2017","accuracy":16,"date_taken":"2017-03-25 10:43:51","date_granularity":"0"},"geometry":{"type":"Point","coordinates":[-103.202156,29.399449]}},{"type":"Feature","properties":{"park":"Big_Bend_National_Park","id":"32857496554","title":"Hiking Big Bend Texas 2017","accuracy":16,"date_taken":"2017-03-25 10:55:27","date_granularity":"0"},"geometry":{"type":"Point","coordinates":[-103.202881,29.399008]}},{"type":"Feature","properties":{"park":"Big_Bend_National_Park","id":"33659106896","title":"Hiking Big Bend Texas 2017","accuracy":16,"date_taken":"2017-03-25 10:28:28","date_granularity":"0"},"geometry":{"type":"Point","coordinates":[-103.204492,29.403161]}},{"type":"Feature","properties":{"park":"Big_Bend_National_Park","id":"32992820272","title":"Big Nose","accuracy":16,"date_taken":"2017-02-19 07:13:06","date_granularity":"0"},"geometry":{"type":"Point","coordinates":[-103.202894,29.39915]}},{"type":"Feature","properties":{"park":"Big_Bend_National_Park","id":"33039394226","title":"Brewster County_February 18, 2017_74620.jpg","accuracy":16,"date_taken":"2017-02-18 12:45:50","date_granularity":"0"},"geometry":{"type":"Point","coordinates":[-103.137437,29.419125]}},{"type":"Feature","properties":{"park":"Big_Bend_National_Park","id":"32925029212","title":"Brewster County_February 18, 2017_74622.jpg","accuracy":16,"date_taken":"2017-02-18 12:46:51","date_granularity":"0"},"geometry":{"type":"Point","coordinates":[-103.137437,29.419125]}},{"type":"Feature","properties":{"park":"Big_Bend_National_Park","id":"32954259711","title":"Brewster County_February 18, 2017_74627.jpg","accuracy":16,"date_taken":"2017-02-18 12:47:25","date_granularity":"0"},"geometry":{"type":"Point","coordinates":[-103.137437,29.419125]}},{"type":"Feature","properties":{"park":"Big_Bend_National_Park","id":"32954209661","title":"Brewster County_February 18, 2017_74658-Edit.jpg","accuracy":16,"date_taken":"2017-02-18 13:09:32","date_granularity":"0"},"geometry":{"type":"Point","coordinates":[-103.137437,29.419125]}},{"type":"Feature","properties":{"park":"Big_Bend_National_Park","id":"32954148151","title":"Brewster County_February 18, 2017_74663-Edit.jpg","accuracy":16,"date_taken":"2017-02-18 13:12:51","date_granularity":"0"},"geometry":{"type":"Point","coordinates":[-103.137437,29.419125]}},{"type":"Feature","properties":{"park":"Big_Bend_National_Park","id":"32235303284","title":"Brewster County_February 18, 2017_74667.jpg","accuracy":16,"date_taken":"2017-02-18 13:13:36","date_granularity":"0"},"geometry":{"type":"Point","coordinates":[-103.137437,29.419125]}},{"type":"Feature","properties":{"park":"Big_Bend_National_Park","id":"32924831772","title":"Brewster County_February 18, 2017_74681-Edit.jpg","accuracy":16,"date_taken":"2017-02-18 13:24:03","date_granularity":"0"},"geometry":{"type":"Point","coordinates":[-103.137437,29.419125]}},{"type":"Feature","properties":{"park":"Big_Bend_National_Park","id":"32887199862","title":"IMG_20170221_173251192_HDR","accuracy":16,"date_taken":"2017-02-21 17:32:52","date_granularity":"0"},"geometry":{"type":"Point","coordinates":[-103.137303,29.419225]}},{"type":"Feature","properties":{"park":"Big_Bend_National_Park","id":"32193077454","title":"FB_IMG_1487701946291","accuracy":16,"date_taken":"2017-02-21 12:32:42","date_granularity":"0"},"geometry":{"type":"Point","coordinates":[-103.048073,29.525413]}},{"type":"Feature","properties":{"park":"Big_Bend_National_Park","id":"32907287421","title":"Balanced Rock and the moon","accuracy":16,"date_taken":"2017-02-19 06:31:03","date_granularity":"0"},"geometry":{"type":"Point","coordinates":[-103.202894,29.39915]}},{"type":"Feature","properties":{"park":"Big_Bend_National_Park","id":"32205822333","title":"IMG_4914.jpg","accuracy":16,"date_taken":"2017-01-23 13:29:31","date_granularity":"0"},"geometry":{"type":"Point","coordinates":[-103.16812,29.369169]}},{"type":"Feature","properties":{"park":"Big_Bend_National_Park","id":"32205817673","title":"IMG_4910.jpg","accuracy":16,"date_taken":"2017-01-23 13:26:56","date_granularity":"0"},"geometry":{"type":"Point","coordinates":[-103.167453,29.369397]}},{"type":"Feature","properties":{"park":"Big_Bend_National_Park","id":"32205814993","title":"IMG_4909.jpg","accuracy":16,"date_taken":"2017-01-23 13:26:40","date_granularity":"0"},"geometry":{"type":"Point","coordinates":[-103.167495,29.369377]}},{"type":"Feature","properties":{"park":"Big_Bend_National_Park","id":"32205812193","title":"IMG_4908.jpg","accuracy":16,"date_taken":"2017-01-23 13:24:42","date_granularity":"0"},"geometry":{"type":"Point","coordinates":[-103.168112,29.369144]}},{"type":"Feature","properties":{"park":"Big_Bend_National_Park","id":"32205810433","title":"IMG_4906.jpg","accuracy":16,"date_taken":"2017-01-23 13:23:57","date_granularity":"0"},"geometry":{"type":"Point","coordinates":[-103.168323,29.369358]}},{"type":"Feature","properties":{"park":"Big_Bend_National_Park","id":"32205808893","title":"IMG_4901.jpg","accuracy":16,"date_taken":"2017-01-23 13:05:09","date_granularity":"0"},"geometry":{"type":"Point","coordinates":[-103.137681,29.419111]}},{"type":"Feature","properties":{"park":"Big_Bend_National_Park","id":"32205807273","title":"IMG_4899.jpg","accuracy":16,"date_taken":"2017-01-23 12:47:09","date_granularity":"0"},"geometry":{"type":"Point","coordinates":[-103.140881,29.422172]}},{"type":"Feature","properties":{"park":"Big_Bend_National_Park","id":"32205805473","title":"IMG_4897.jpg","accuracy":16,"date_taken":"2017-01-23 12:44:33","date_granularity":"0"},"geometry":{"type":"Point","coordinates":[-103.138548,29.433519]}},{"type":"Feature","properties":{"park":"Big_Bend_National_Park","id":"32979449756","title":"IMG_4895.jpg","accuracy":16,"date_taken":"2017-01-23 12:40:09","date_granularity":"0"},"geometry":{"type":"Point","coordinates":[-103.137831,29.467822]}},{"type":"Feature","properties":{"park":"Big_Bend_National_Park","id":"32894803551","title":"IMG_4892.jpg","accuracy":16,"date_taken":"2017-01-23 12:07:54","date_granularity":"0"},"geometry":{"type":"Point","coordinates":[-103.053303,29.505577]}},{"type":"Feature","properties":{"park":"Big_Bend_National_Park","id":"32205799673","title":"IMG_4890.jpg","accuracy":16,"date_taken":"2017-01-23 12:00:38","date_granularity":"0"},"geometry":{"type":"Point","coordinates":[-103.048412,29.520047]}},{"type":"Feature","properties":{"park":"Big_Bend_National_Park","id":"32894799101","title":"IMG_4887.jpg","accuracy":16,"date_taken":"2017-01-23 12:00:00","date_granularity":"0"},"geometry":{"type":"Point","coordinates":[-103.048403,29.520094]}},{"type":"Feature","properties":{"park":"Big_Bend_National_Park","id":"33021127655","title":"IMG_4886.jpg","accuracy":16,"date_taken":"2017-01-23 11:51:27","date_granularity":"0"},"geometry":{"type":"Point","coordinates":[-103.049148,29.524961]}},{"type":"Feature","properties":{"park":"Big_Bend_National_Park","id":"33021125535","title":"IMG_4885.jpg","accuracy":16,"date_taken":"2017-01-23 11:51:15","date_granularity":"0"},"geometry":{"type":"Point","coordinates":[-103.049148,29.524961]}},{"type":"Feature","properties":{"park":"Big_Bend_National_Park","id":"33021120155","title":"IMG_4876.jpg","accuracy":16,"date_taken":"2017-01-23 11:44:09","date_granularity":"0"},"geometry":{"type":"Point","coordinates":[-103.04797,29.525405]}},{"type":"Feature","properties":{"park":"Big_Bend_National_Park","id":"33021116275","title":"IMG_4875.jpg","accuracy":16,"date_taken":"2017-01-23 11:36:40","date_granularity":"0"},"geometry":{"type":"Point","coordinates":[-103.05257,29.504027]}},{"type":"Feature","properties":{"park":"Big_Bend_National_Park","id":"33021113205","title":"IMG_4871.jpg","accuracy":16,"date_taken":"2017-01-23 11:12:51","date_granularity":"0"},"geometry":{"type":"Point","coordinates":[-103.129814,29.489216]}},{"type":"Feature","properties":{"park":"Big_Bend_National_Park","id":"33021110275","title":"IMG_4867.jpg","accuracy":16,"date_taken":"2017-01-23 11:10:46","date_granularity":"0"},"geometry":{"type":"Point","coordinates":[-103.129814,29.489216]}},{"type":"Feature","properties":{"park":"Big_Bend_National_Park","id":"33021107765","title":"IMG_4865.jpg","accuracy":16,"date_taken":"2017-01-23 11:09:47","date_granularity":"0"},"geometry":{"type":"Point","coordinates":[-103.129814,29.489216]}},{"type":"Feature","properties":{"park":"Big_Bend_National_Park","id":"33021105785","title":"IMG_4860.jpg","accuracy":16,"date_taken":"2017-01-23 10:49:47","date_granularity":"0"},"geometry":{"type":"Point","coordinates":[-103.143012,29.622627]}},{"type":"Feature","properties":{"park":"Big_Bend_National_Park","id":"32908070355","title":"IMG_2939","accuracy":16,"date_taken":"2014-11-14 14:09:31","date_granularity":"0"},"geometry":{"type":"Point","coordinates":[-103.116045,29.623213]}},{"type":"Feature","properties":{"park":"Big_Bend_National_Park","id":"32784083051","title":"IMG_2945-crop","accuracy":16,"date_taken":"2014-11-14 15:19:39","date_granularity":"0"},"geometry":{"type":"Point","coordinates":[-103.108262,29.6243]}},{"type":"Feature","properties":{"park":"Big_Bend_National_Park","id":"32754401952","title":"IMG_2943","accuracy":16,"date_taken":"2014-11-14 14:19:15","date_granularity":"0"},"geometry":{"type":"Point","coordinates":[-103.110275,29.624888]}},{"type":"Feature","properties":{"park":"Big_Bend_National_Park","id":"32476406751","title":"Entrance, Big Bend National Park, Texas","accuracy":16,"date_taken":"2017-01-29 18:23:56","date_granularity":0},"geometry":{"type":"Point","coordinates":[-103.173476,29.660609]}},{"type":"Feature","properties":{"park":"Big_Bend_National_Park","id":"32339232112","title":"Big Bend NP Old Ore Rd","accuracy":16,"date_taken":"2016-11-10 11:50:45","date_granularity":"0"},"geometry":{"type":"Point","coordinates":[-103.055512,29.368475]}},{"type":"Feature","properties":{"park":"Big_Bend_National_Park","id":"32490878705","title":"Big Bend NP Old Ore Rd","accuracy":16,"date_taken":"2016-11-10 11:57:15","date_granularity":"0"},"geometry":{"type":"Point","coordinates":[-103.044589,29.361786]}},{"type":"Feature","properties":{"park":"Big_Bend_National_Park","id":"32369252691","title":"Big Bend NP Old Ore Rd","accuracy":16,"date_taken":"2016-11-10 12:04:12","date_granularity":"0"},"geometry":{"type":"Point","coordinates":[-103.034128,29.350863]}},{"type":"Feature","properties":{"park":"Big_Bend_National_Park","id":"31679304283","title":"Big Bend NP Old Ore Rd","accuracy":16,"date_taken":"2016-11-10 12:05:00","date_granularity":"0"},"geometry":{"type":"Point","coordinates":[-103.034281,29.351277]}},{"type":"Feature","properties":{"park":"Big_Bend_National_Park","id":"32369250111","title":"Big Bend NP Old Ore Rd","accuracy":16,"date_taken":"2016-11-10 12:05:19","date_granularity":"0"},"geometry":{"type":"Point","coordinates":[-103.034287,29.351252]}},{"type":"Feature","properties":{"park":"Big_Bend_National_Park","id":"32369247801","title":"Big Bend NP Old Ore Rd","accuracy":16,"date_taken":"2016-11-10 12:10:26","date_granularity":"0"},"geometry":{"type":"Point","coordinates":[-103.030398,29.344116]}},{"type":"Feature","properties":{"park":"Big_Bend_National_Park","id":"32008223040","title":"Fossil Discovery Exhibit - Opening Ceremony","accuracy":16,"date_taken":"2017-01-14 11:58:08","date_granularity":"0"},"geometry":{"type":"Point","coordinates":[-103.154411,29.375322]}},{"type":"Feature","properties":{"park":"Big_Bend_National_Park","id":"32265508611","title":"Fossil Discovery Exhibit - Opening Ceremony","accuracy":16,"date_taken":"2017-01-14 10:55:24","date_granularity":"0"},"geometry":{"type":"Point","coordinates":[-103.154411,29.375322]}},{"type":"Feature","properties":{"park":"Big_Bend_National_Park","id":"32270101286","title":"Chihuahuan Desert Landscape (Big Bend National Park, Texas)","accuracy":16,"date_taken":"2016-12-26 11:05:15","date_granularity":"0"},"geometry":{"type":"Point","coordinates":[-103.137373,29.419077]}},{"type":"Feature","properties":{"park":"Big_Bend_National_Park","id":"32309433305","title":"Fossil Bone Exhibit Marker (Big Bend National Park, Texas)","accuracy":16,"date_taken":"2016-12-26 11:02:56","date_granularity":"0"},"geometry":{"type":"Point","coordinates":[-103.137373,29.419077]}},{"type":"Feature","properties":{"park":"Big_Bend_National_Park","id":"31498495483","title":"Fossil Bone Exhibit (Big Bend National Park, Texas)","accuracy":16,"date_taken":"2016-12-26 11:06:13","date_granularity":"0"},"geometry":{"type":"Point","coordinates":[-103.137373,29.419077]}},{"type":"Feature","properties":{"park":"Big_Bend_National_Park","id":"32159717312","title":"Fossil Bone Exhibit (Big Bend National Park, Texas)","accuracy":16,"date_taken":"2016-12-26 11:10:51","date_granularity":"0"},"geometry":{"type":"Point","coordinates":[-103.137373,29.419077]}},{"type":"Feature","properties":{"park":"Big_Bend_National_Park","id":"32270091926","title":"Chihuahuan Desert Landscape (Big Bend National Park, Texas)","accuracy":16,"date_taken":"2016-12-26 11:10:57","date_granularity":"0"},"geometry":{"type":"Point","coordinates":[-103.137373,29.419077]}},{"type":"Feature","properties":{"park":"Big_Bend_National_Park","id":"32309422855","title":"Chihuahuan Desert Landscape (Big Bend National Park, Texas)","accuracy":16,"date_taken":"2016-12-26 11:11:02","date_granularity":"0"},"geometry":{"type":"Point","coordinates":[-103.137373,29.419077]}},{"type":"Feature","properties":{"park":"Big_Bend_National_Park","id":"32097825411","title":"Big Bend NP - EST - Rio Grande Village, TX","accuracy":16,"date_taken":"2013-04-12 19:56:57","date_granularity":"0"},"geometry":{"type":"Point","coordinates":[-103.136935,29.41805]}},{"type":"Feature","properties":{"park":"Big_Bend_National_Park","id":"31034677642","title":"Balancing Rock in Big Bend","accuracy":16,"date_taken":"2016-11-21 11:57:14","date_granularity":"0"},"geometry":{"type":"Point","coordinates":[-103.202934,29.399102]}},{"type":"Feature","properties":{"park":"Big_Bend_National_Park","id":"30219226994","title":"Brewester County TX-52.jpg","accuracy":16,"date_taken":"2016-10-22 12:10:04","date_granularity":"0"},"geometry":{"type":"Point","coordinates":[-103.136517,29.568397]}},{"type":"Feature","properties":{"park":"Big_Bend_National_Park","id":"30219219224","title":"Brewester County TX-45.jpg","accuracy":16,"date_taken":"2016-10-22 12:10:03","date_granularity":"0"},"geometry":{"type":"Point","coordinates":[-103.136517,29.568397]}},{"type":"Feature","properties":{"park":"Big_Bend_National_Park","id":"29923467454","title":"Big Bend National Park 2016","accuracy":16,"date_taken":"2016-10-21 15:47:16","date_granularity":"0"},"geometry":{"type":"Point","coordinates":[-103.256645,29.334447]}},{"type":"Feature","properties":{"park":"Big_Bend_National_Park","id":"30405619532","title":"Big Bend-9","accuracy":16,"date_taken":"2016-10-19 08:41:03","date_granularity":"0"},"geometry":{"type":"Point","coordinates":[-103.189741,29.358445]}},{"type":"Feature","properties":{"park":"Big_Bend_National_Park","id":"30521803405","title":"Big Bend Senic Vista","accuracy":16,"date_taken":"2016-10-19 09:17:49","date_granularity":"0"},"geometry":{"type":"Point","coordinates":[-103.189741,29.358445]}},{"type":"Feature","properties":{"park":"Big_Bend_National_Park","id":"30283068432","title":"DSC03519.JPG","accuracy":16,"date_taken":"2016-01-02 16:21:17","date_granularity":"0"},"geometry":{"type":"Point","coordinates":[-103.033728,29.366755]}},{"type":"Feature","properties":{"park":"Big_Bend_National_Park","id":"30363453226","title":"FZJ80 and UZN215","accuracy":16,"date_taken":"2016-01-02 16:01:08","date_granularity":"0"},"geometry":{"type":"Point","coordinates":[-103.042168,29.367636]}},{"type":"Feature","properties":{"park":"Big_Bend_National_Park","id":"29769146034","title":"DSC03511.JPG","accuracy":16,"date_taken":"2016-01-02 16:00:27","date_granularity":"0"},"geometry":{"type":"Point","coordinates":[-103.042425,29.367562]}},{"type":"Feature","properties":{"park":"Big_Bend_National_Park","id":"30363347096","title":"DSC03485.JPG","accuracy":16,"date_taken":"2016-01-02 14:24:27","date_granularity":"0"},"geometry":{"type":"Point","coordinates":[-103.090565,29.406152]}},{"type":"Feature","properties":{"park":"Big_Bend_National_Park","id":"30102307420","title":"DSC03479.JPG","accuracy":16,"date_taken":"2016-01-02 13:52:28","date_granularity":"0"},"geometry":{"type":"Point","coordinates":[-103.068229,29.443228]}},{"type":"Feature","properties":{"park":"Big_Bend_National_Park","id":"30112407062","title":"Big Bend Nature Fest_73772.jpg","accuracy":16,"date_taken":"2016-08-27 17:25:35","date_granularity":"0"},"geometry":{"type":"Point","coordinates":[-103.256481,29.334608]}},{"type":"Feature","properties":{"park":"Big_Bend_National_Park","id":"30139177321","title":"Brewster County_TX_October 08, 20160176-122.jpg","accuracy":16,"date_taken":"2016-10-08 09:59:14","date_granularity":"0"},"geometry":{"type":"Point","coordinates":[-103.138403,29.406833]}},{"type":"Feature","properties":{"park":"Big_Bend_National_Park","id":"29928187680","title":"Brewster County_TX_October 08, 20160176-102.jpg","accuracy":16,"date_taken":"2016-10-08 09:56:16","date_granularity":"0"},"geometry":{"type":"Point","coordinates":[-103.138403,29.406833]}},{"type":"Feature","properties":{"park":"Big_Bend_National_Park","id":"30109523702","title":"Brewster County_TX_October 08, 20160176-111.jpg","accuracy":16,"date_taken":"2016-10-08 09:57:22","date_granularity":"0"},"geometry":{"type":"Point","coordinates":[-103.138403,29.406833]}},{"type":"Feature","properties":{"park":"Big_Bend_National_Park","id":"30189485466","title":"Brewster County_TX_October 08, 20160176-98.jpg","accuracy":16,"date_taken":"2016-10-08 09:55:09","date_granularity":"0"},"geometry":{"type":"Point","coordinates":[-103.138403,29.406833]}},{"type":"Feature","properties":{"park":"Big_Bend_National_Park","id":"29594189433","title":"Brewster County_TX_October 08, 20160176-93.jpg","accuracy":16,"date_taken":"2016-10-08 09:52:37","date_granularity":"0"},"geometry":{"type":"Point","coordinates":[-103.00265,29.424775]}},{"type":"Feature","properties":{"park":"Big_Bend_National_Park","id":"30138304391","title":"Brewster County_TX_October 08, 20160176-68-Pano.jpg","accuracy":16,"date_taken":"2016-10-08 09:32:14","date_granularity":"0"},"geometry":{"type":"Point","coordinates":[-103.002778,29.424722]}},{"type":"Feature","properties":{"park":"Big_Bend_National_Park","id":"30218365935","title":"Brewster County_TX_October 08, 20160176-59.jpg","accuracy":16,"date_taken":"2016-10-08 09:30:27","date_granularity":"0"},"geometry":{"type":"Point","coordinates":[-103.00265,29.424775]}},{"type":"Feature","properties":{"park":"Big_Bend_National_Park","id":"29453211751","title":"Agave sunset in #bigbendnationalpark a few weekends ago as we dodged the rain. #photoworkshop #nature #bigbend #bigbendnps #agave #sunset","accuracy":16,"date_taken":"2016-09-07 22:06:29","date_granularity":0},"geometry":{"type":"Point","coordinates":[-103.24402,29.57963]}},{"type":"Feature","properties":{"park":"Big_Bend_National_Park","id":"29279373545","title":"","accuracy":16,"date_taken":"2016-08-27 08:04:16","date_granularity":"0"},"geometry":{"type":"Point","coordinates":[-103.203025,29.3991]}},{"type":"Feature","properties":{"park":"Big_Bend_National_Park","id":"28266193724","title":"Star Shower","accuracy":16,"date_taken":"2015-08-11 00:05:56","date_granularity":"0"},"geometry":{"type":"Point","coordinates":[-103.141545,29.399027]}},{"type":"Feature","properties":{"park":"Big_Bend_National_Park","id":"28056699476","title":"#BestBuddies  AX  & Buddha at #bigbendnationalpark","accuracy":16,"date_taken":"2016-07-04 17:20:26","date_granularity":0},"geometry":{"type":"Point","coordinates":[-103.2848,29.347069]}},{"type":"Feature","properties":{"park":"Big_Bend_National_Park","id":"26502300513","title":"chisos #setlife #onlocation #bigbend","accuracy":16,"date_taken":"2016-05-18 23:05:28","date_granularity":0},"geometry":{"type":"Point","coordinates":[-103.2848,29.347069]}},{"type":"Feature","properties":{"park":"Big_Bend_National_Park","id":"26199780293","title":"025","accuracy":16,"date_taken":"2016-04-30 08:25:03","date_granularity":"0"},"geometry":{"type":"Point","coordinates":[-103.137803,29.467522]}},{"type":"Feature","properties":{"park":"Big_Bend_National_Park","id":"26199770043","title":"020","accuracy":16,"date_taken":"2016-05-03 21:20:51","date_granularity":0},"geometry":{"type":"Point","coordinates":[-103.167373,29.679866]}},{"type":"Feature","properties":{"park":"Big_Bend_National_Park","id":"26672240815","title":"P1020926","accuracy":16,"date_taken":"2016-04-15 19:37:25","date_granularity":"0"},"geometry":{"type":"Point","coordinates":[-103.308091,29.347092]}},{"type":"Feature","properties":{"park":"Big_Bend_National_Park","id":"26428069971","title":"P1020946","accuracy":15,"date_taken":"2016-04-16 10:01:11","date_granularity":"0"},"geometry":{"type":"Point","coordinates":[-103.126537,29.542435]}},{"type":"Feature","properties":{"park":"Big_Bend_National_Park","id":"25889289684","title":"P1020947","accuracy":15,"date_taken":"2016-04-16 10:01:48","date_granularity":"0"},"geometry":{"type":"Point","coordinates":[-103.126537,29.542435]}},{"type":"Feature","properties":{"park":"Big_Bend_National_Park","id":"25642379600","title":"Desert Shadows","accuracy":16,"date_taken":"2016-03-11 17:18:24","date_granularity":"0"},"geometry":{"type":"Point","coordinates":[-103.309145,29.346347]}},{"type":"Feature","properties":{"park":"Big_Bend_National_Park","id":"25120961144","title":"Towers and Cliffs, Big Bend Nationakl Park, Terlingua, Texas, Chisos Mountain Star Trails Old Ore Road - Filename: XR6A2359 - 30.0 sec at f/22 ISO 50","accuracy":16,"date_taken":"2016-03-06 13:17:14","date_granularity":"0"},"geometry":{"type":"Point","coordinates":[-103.030493,29.344205]}},{"type":"Feature","properties":{"park":"Big_Bend_National_Park","id":"25751396035","title":"Cactus III, Big Bend Nationakl Park, Terlingua, Texas, Chisos Mountain Star Trails Old Ore Road - Filename: XR6A2343 - 1/30 sec at f/18 ISO 100","accuracy":16,"date_taken":"2016-03-06 12:54:18","date_granularity":"0"},"geometry":{"type":"Point","coordinates":[-103.029536,29.34468]}},{"type":"Feature","properties":{"park":"Big_Bend_National_Park","id":"25124777483","title":"Cactus II, Big Bend Nationakl Park, Terlingua, Texas, Chisos Mountain Star Trails - Filename: XR6A2342 - 1/40 sec at f/18 ISO 100","accuracy":16,"date_taken":"2016-03-06 12:53:28","date_granularity":"0"},"geometry":{"type":"Point","coordinates":[-103.029536,29.34468]}},{"type":"Feature","properties":{"park":"Big_Bend_National_Park","id":"25630394432","title":"Bonnets Blue, McKiney Springs Big Bend National Park, Texas - Filename: XR6A2329 - 1/1000 sec at f/2.8 ISO 100","accuracy":16,"date_taken":"2016-03-06 11:27:52","date_granularity":"0"},"geometry":{"type":"Point","coordinates":[-103.087943,29.40804]}},{"type":"Feature","properties":{"park":"Big_Bend_National_Park","id":"25124764573","title":"McKiney Springs, Big Bend Nationakl Park, Terlingua, Texas, Chisos Mountain Star Trails - Filename: XR6A2325-Edit - 1/40 sec at f/18 ISO 100","accuracy":16,"date_taken":"2016-03-06 11:24:31","date_granularity":"0"},"geometry":{"type":"Point","coordinates":[-103.087943,29.40804]}},{"type":"Feature","properties":{"park":"Big_Bend_National_Park","id":"25635265656","title":"Grapevine Hills","accuracy":16,"date_taken":"2015-07-03 13:17:08","date_granularity":"0"},"geometry":{"type":"Point","coordinates":[-103.20224,29.400674]}},{"type":"Feature","properties":{"park":"Big_Bend_National_Park","id":"25661363705","title":"Grapevine Hills","accuracy":16,"date_taken":"2015-07-03 13:18:55","date_granularity":"0"},"geometry":{"type":"Point","coordinates":[-103.203109,29.401749]}},{"type":"Feature","properties":{"park":"Big_Bend_National_Park","id":"25034507303","title":"Grapevine Hills","accuracy":16,"date_taken":"2015-07-03 12:36:50","date_granularity":"0"},"geometry":{"type":"Point","coordinates":[-103.202723,29.398973]}},{"type":"Feature","properties":{"park":"Big_Bend_National_Park","id":"25635009246","title":"Grapevine Hills Trailhead","accuracy":16,"date_taken":"2015-07-03 11:57:04","date_granularity":"0"},"geometry":{"type":"Point","coordinates":[-103.207486,29.41018]}},{"type":"Feature","properties":{"park":"Big_Bend_National_Park","id":"25296487940","title":"Big Bend Bluebonnet #macro #momentlens #photography #bigbend #bigbendbluebonnet #bigbendnationalpark #nationalparks #texas #roadtrip #chisosmountains #BellusPhoto.com #deepintheheartoftexas #momentlens #lupinushavardii","accuracy":16,"date_taken":"2016-03-07 12:08:07","date_granularity":0},"geometry":{"type":"Point","coordinates":[-103.148831,29.384281]}},{"type":"Feature","properties":{"park":"Big_Bend_National_Park","id":"25533304245","title":"Lucky Luke","accuracy":16,"date_taken":"2015-12-12 11:45:16","date_granularity":0},"geometry":{"type":"Point","coordinates":[-103.136839,29.418372]}},{"type":"Feature","properties":{"park":"Big_Bend_National_Park","id":"25439802981","title":"Rock Wren","accuracy":16,"date_taken":"2015-03-22 11:07:58","date_granularity":"0"},"geometry":{"type":"Point","coordinates":[-103.137459,29.418944]}},{"type":"Feature","properties":{"park":"Big_Bend_National_Park","id":"24725529983","title":"Road trip! #bigbendnationalpark #nationalparks #bigbend #lego #legome #legoselfportrait #sky #makemoments #momentlens #asphaltphotography #texas","accuracy":16,"date_taken":"2016-02-28 12:42:26","date_granularity":0},"geometry":{"type":"Point","coordinates":[-103.148831,29.384281]}},{"type":"Feature","properties":{"park":"Big_Bend_National_Park","id":"24464402839","title":"I Heard it Through the Grapevine Hills","accuracy":16,"date_taken":"2016-02-05 06:39:20","date_granularity":0},"geometry":{"type":"Point","coordinates":[-103.202222,29.399722]}},{"type":"Feature","properties":{"park":"Big_Bend_National_Park","id":"24343429281","title":"Scott's Oriole","accuracy":16,"date_taken":"2015-07-03 13:47:44","date_granularity":"0"},"geometry":{"type":"Point","coordinates":[-103.194484,29.410374]}},{"type":"Feature","properties":{"park":"Big_Bend_National_Park","id":"24281586656","title":"Old Maverick road - Big Bend #adventureisoutthere #exploreeverything  #exploretexas #texasphotography #nofilterneeded #hiking #hikingadventures #iphoneography #texasroadtrip #texasparksandwildlife #texasparks #bigbendnationalpark #adventure #adventureawai","accuracy":16,"date_taken":"2016-01-10 20:19:29","date_granularity":0},"geometry":{"type":"Point","coordinates":[-103.143669,29.624456]}},{"type":"Feature","properties":{"park":"Big_Bend_National_Park","id":"23551316529","title":"20151203Big Bend110027-2","accuracy":16,"date_taken":"2015-12-03 11:00:27","date_granularity":"0"},"geometry":{"type":"Point","coordinates":[-103.205578,29.407766]}},{"type":"Feature","properties":{"park":"Big_Bend_National_Park","id":"23637984056","title":"","accuracy":16,"date_taken":"2015-12-10 11:26:33","date_granularity":"0"},"geometry":{"type":"Point","coordinates":[-103.138581,29.433702]}},{"type":"Feature","properties":{"park":"Big_Bend_National_Park","id":"23253709171","title":"Grapevine Hills - Big Bend National Park","accuracy":16,"date_taken":"2014-07-09 17:33:38","date_granularity":"0"},"geometry":{"type":"Point","coordinates":[-103.193551,29.405841]}},{"type":"Feature","properties":{"park":"Big_Bend_National_Park","id":"22707861914","title":"Grapevine Hills  - Big Bend National Park","accuracy":16,"date_taken":"2014-07-09 17:33:52","date_granularity":"0"},"geometry":{"type":"Point","coordinates":[-103.196651,29.404823]}},{"type":"Feature","properties":{"park":"Big_Bend_National_Park","id":"22564152923","title":"Striations in Grapevine Hills","accuracy":15,"date_taken":"2015-07-03 12:55:29","date_granularity":"0"},"geometry":{"type":"Point","coordinates":[-103.202328,29.399652]}},{"type":"Feature","properties":{"park":"Big_Bend_National_Park","id":"23165028996","title":"Striations in Grapevine Hills","accuracy":15,"date_taken":"2015-07-03 13:12:37","date_granularity":"0"},"geometry":{"type":"Point","coordinates":[-103.202328,29.399652]}},{"type":"Feature","properties":{"park":"Big_Bend_National_Park","id":"22562551534","title":"Striations in Grapevine Hills","accuracy":15,"date_taken":"2015-07-03 12:55:07","date_granularity":"0"},"geometry":{"type":"Point","coordinates":[-103.202328,29.399652]}},{"type":"Feature","properties":{"park":"Big_Bend_National_Park","id":"22582718229","title":"i kept waiting for the boulders to come alive and become giant stone people #bigbendnationalpark #grapevinehills","accuracy":16,"date_taken":"2015-11-12 19:36:26","date_granularity":0},"geometry":{"type":"Point","coordinates":[-103.191809,29.407989]}},{"type":"Feature","properties":{"park":"Big_Bend_National_Park","id":"22310652624","title":"Big Bend National Park, Texas","accuracy":16,"date_taken":"2015-11-10 13:02:19","date_granularity":"0"},"geometry":{"type":"Point","coordinates":[-103.167222,29.68]}},{"type":"Feature","properties":{"park":"Big_Bend_National_Park","id":"22855528155","title":"IMG_2157","accuracy":16,"date_taken":"2012-02-04 01:00:57","date_granularity":"0"},"geometry":{"type":"Point","coordinates":[-103.207667,29.4105]}},{"type":"Feature","properties":{"park":"Big_Bend_National_Park","id":"22667525390","title":"IMG_2158","accuracy":16,"date_taken":"2012-02-04 01:15:42","date_granularity":"0"},"geometry":{"type":"Point","coordinates":[-103.207667,29.4105]}},{"type":"Feature","properties":{"park":"Big_Bend_National_Park","id":"22437169497","title":"IMG_2162","accuracy":16,"date_taken":"2012-02-04 01:21:06","date_granularity":"0"},"geometry":{"type":"Point","coordinates":[-103.207667,29.4105]}},{"type":"Feature","properties":{"park":"Big_Bend_National_Park","id":"22829524336","title":"IMG_2165","accuracy":16,"date_taken":"2012-02-04 01:25:27","date_granularity":"0"},"geometry":{"type":"Point","coordinates":[-103.207667,29.4105]}},{"type":"Feature","properties":{"park":"Big_Bend_National_Park","id":"22463367739","title":"IMG_2166","accuracy":16,"date_taken":"2012-02-04 01:25:34","date_granularity":"0"},"geometry":{"type":"Point","coordinates":[-103.207667,29.4105]}},{"type":"Feature","properties":{"park":"Big_Bend_National_Park","id":"22437165687","title":"IMG_2168","accuracy":16,"date_taken":"2012-02-04 01:34:05","date_granularity":"0"},"geometry":{"type":"Point","coordinates":[-103.207667,29.4105]}},{"type":"Feature","properties":{"park":"Big_Bend_National_Park","id":"22463365129","title":"IMG_2169","accuracy":16,"date_taken":"2012-02-04 01:38:11","date_granularity":"0"},"geometry":{"type":"Point","coordinates":[-103.207667,29.4105]}},{"type":"Feature","properties":{"park":"Big_Bend_National_Park","id":"22823904176","title":"IMG_3800","accuracy":16,"date_taken":"2009-12-05 03:25:37","date_granularity":"0"},"geometry":{"type":"Point","coordinates":[-103.2075,29.41]}},{"type":"Feature","properties":{"park":"Big_Bend_National_Park","id":"22457740009","title":"IMG_3812","accuracy":16,"date_taken":"2009-12-05 03:36:34","date_granularity":"0"},"geometry":{"type":"Point","coordinates":[-103.202,29.399666]}},{"type":"Feature","properties":{"park":"Big_Bend_National_Park","id":"22431553788","title":"IMG_3830","accuracy":16,"date_taken":"2009-12-05 03:51:15","date_granularity":"0"},"geometry":{"type":"Point","coordinates":[-103.207667,29.4105]}},{"type":"Feature","properties":{"park":"Big_Bend_National_Park","id":"22228760013","title":"IMG_3840","accuracy":16,"date_taken":"2009-12-05 05:05:48","date_granularity":"0"},"geometry":{"type":"Point","coordinates":[-103.207667,29.4105]}},{"type":"Feature","properties":{"park":"Big_Bend_National_Park","id":"22097132266","title":"Scott's Oriole","accuracy":16,"date_taken":"2015-07-03 13:48:26","date_granularity":"0"},"geometry":{"type":"Point","coordinates":[-103.194312,29.4103]}},{"type":"Feature","properties":{"park":"Big_Bend_National_Park","id":"21874791490","title":"TTV","accuracy":16,"date_taken":"2015-10-09 21:08:07","date_granularity":0},"geometry":{"type":"Point","coordinates":[-103.191809,29.407989]}},{"type":"Feature","properties":{"park":"Big_Bend_National_Park","id":"22036754706","title":"upload","accuracy":16,"date_taken":"2015-10-09 21:06:03","date_granularity":0},"geometry":{"type":"Point","coordinates":[-103.191809,29.407989]}},{"type":"Feature","properties":{"park":"Big_Bend_National_Park","id":"21440089424","title":"upload","accuracy":16,"date_taken":"2015-10-09 21:05:08","date_granularity":0},"geometry":{"type":"Point","coordinates":[-103.191809,29.407989]}},{"type":"Feature","properties":{"park":"Big_Bend_National_Park","id":"22062902575","title":"upload","accuracy":16,"date_taken":"2015-10-09 21:02:44","date_granularity":0},"geometry":{"type":"Point","coordinates":[-103.191809,29.407989]}},{"type":"Feature","properties":{"park":"Big_Bend_National_Park","id":"22072827391","title":"upload","accuracy":16,"date_taken":"2015-10-09 20:59:55","date_granularity":0},"geometry":{"type":"Point","coordinates":[-103.191809,29.407989]}},{"type":"Feature","properties":{"park":"Big_Bend_National_Park","id":"21875953939","title":"upload","accuracy":16,"date_taken":"2015-10-09 20:58:33","date_granularity":0},"geometry":{"type":"Point","coordinates":[-103.191809,29.407989]}},{"type":"Feature","properties":{"park":"Big_Bend_National_Park","id":"22054526811","title":"Presidio Canyon Lizard","accuracy":16,"date_taken":"2015-07-03 13:01:24","date_granularity":"0"},"geometry":{"type":"Point","coordinates":[-103.202659,29.399102]}},{"type":"Feature","properties":{"park":"Big_Bend_National_Park","id":"21794481269","title":"Red-tailed Hawk","accuracy":15,"date_taken":"2015-07-03 11:20:07","date_granularity":"0"},"geometry":{"type":"Point","coordinates":[-103.230287,29.356066]}},{"type":"Feature","properties":{"park":"Big_Bend_National_Park","id":"21358536164","title":"Red-tailed Hawk","accuracy":15,"date_taken":"2015-07-03 11:20:04","date_granularity":"0"},"geometry":{"type":"Point","coordinates":[-103.230287,29.356066]}},{"type":"Feature","properties":{"park":"Big_Bend_National_Park","id":"20544357874","title":"Grapevine Hills","accuracy":15,"date_taken":"2015-07-03 13:14:21","date_granularity":"0"},"geometry":{"type":"Point","coordinates":[-103.202328,29.399652]}},{"type":"Feature","properties":{"park":"Big_Bend_National_Park","id":"20966382169","title":"2015 West Texas Trip_45_67436-Edit.jpg","accuracy":16,"date_taken":"2015-06-14 18:47:46","date_granularity":"0"},"geometry":{"type":"Point","coordinates":[-103.140142,29.411583]}},{"type":"Feature","properties":{"park":"Big_Bend_National_Park","id":"20444338120","title":"Greater Earless Lizard","accuracy":16,"date_taken":"2015-07-03 12:05:31","date_granularity":"0"},"geometry":{"type":"Point","coordinates":[-103.195943,29.405215]}},{"type":"Feature","properties":{"park":"Big_Bend_National_Park","id":"20494718032","title":"Greater Earless Lizard","accuracy":16,"date_taken":"2015-07-03 12:12:30","date_granularity":"0"},"geometry":{"type":"Point","coordinates":[-103.196704,29.404843]}},{"type":"Feature","properties":{"park":"Big_Bend_National_Park","id":"19880808494","title":"Greater Earless Lizard","accuracy":16,"date_taken":"2015-07-03 12:12:01","date_granularity":"0"},"geometry":{"type":"Point","coordinates":[-103.19724,29.404235]}},{"type":"Feature","properties":{"park":"Big_Bend_National_Park","id":"19845078563","title":"Took a short trip down to Big Bend National Park yesterday with @toolyman just to get away for a drive. Always worth it.","accuracy":16,"date_taken":"2015-08-10 14:33:42","date_granularity":0},"geometry":{"type":"Point","coordinates":[-103.173507,29.66006]}},{"type":"Feature","properties":{"park":"Big_Bend_National_Park","id":"19843361654","title":"Took a short trip down to Big Bend National Park yesterday with @toolyman just to get away for a drive. Always worth it.","accuracy":16,"date_taken":"2015-08-10 14:33:28","date_granularity":0},"geometry":{"type":"Point","coordinates":[-103.173507,29.66006]}},{"type":"Feature","properties":{"park":"Big_Bend_National_Park","id":"20124838330","title":"Balanced Rock Trail","accuracy":16,"date_taken":"2015-07-03 12:36:53","date_granularity":"0"},"geometry":{"type":"Point","coordinates":[-103.202659,29.399102]}},{"type":"Feature","properties":{"park":"Big_Bend_National_Park","id":"20124724078","title":"Balanced Rock Trail","accuracy":16,"date_taken":"2015-07-03 12:37:15","date_granularity":"0"},"geometry":{"type":"Point","coordinates":[-103.202659,29.399102]}},{"type":"Feature","properties":{"park":"Big_Bend_National_Park","id":"20137380992","title":"2015 West Texas Trip_45_67504-Edit.jpg","accuracy":16,"date_taken":"2015-06-14 19:18:24","date_granularity":"0"},"geometry":{"type":"Point","coordinates":[-103.137773,29.460369]}},{"type":"Feature","properties":{"park":"Big_Bend_National_Park","id":"19735241369","title":"2015 West Texas Trip_45_67523.jpg","accuracy":16,"date_taken":"2015-06-14 19:24:11","date_granularity":"0"},"geometry":{"type":"Point","coordinates":[-103.137773,29.460369]}},{"type":"Feature","properties":{"park":"Big_Bend_National_Park","id":"19641812558","title":"2015 West Texas Trip_45_67671.jpg","accuracy":16,"date_taken":"2015-06-14 19:42:44","date_granularity":"0"},"geometry":{"type":"Point","coordinates":[-103.137773,29.460369]}},{"type":"Feature","properties":{"park":"Big_Bend_National_Park","id":"19834674531","title":"2015 West Texas Trip_45_67683.jpg","accuracy":16,"date_taken":"2015-06-14 19:49:09","date_granularity":"0"},"geometry":{"type":"Point","coordinates":[-103.137773,29.460369]}},{"type":"Feature","properties":{"park":"Big_Bend_National_Park","id":"19192019513","title":"2015 West Texas Trip_45_67534.jpg","accuracy":16,"date_taken":"2015-06-14 19:26:17","date_granularity":"0"},"geometry":{"type":"Point","coordinates":[-103.137773,29.460369]}},{"type":"Feature","properties":{"park":"Big_Bend_National_Park","id":"19817658501","title":"2015 West Texas Trip_45_67515.jpg","accuracy":16,"date_taken":"2015-06-14 19:20:11","date_granularity":"0"},"geometry":{"type":"Point","coordinates":[-103.137773,29.460369]}},{"type":"Feature","properties":{"park":"Big_Bend_National_Park","id":"19624776408","title":"2015 West Texas Trip_45_67493.jpg","accuracy":16,"date_taken":"2015-06-14 19:10:34","date_granularity":"0"},"geometry":{"type":"Point","coordinates":[-103.137698,29.459408]}},{"type":"Feature","properties":{"park":"Big_Bend_National_Park","id":"19392263880","title":"Red-tailed Hawk","accuracy":16,"date_taken":"2015-07-03 11:20:02","date_granularity":"0"},"geometry":{"type":"Point","coordinates":[-103.237936,29.352346]}},{"type":"Feature","properties":{"park":"Big_Bend_National_Park","id":"19556623372","title":"Frozen Big Bend, Big Bend National Park, Texas","accuracy":16,"date_taken":"2013-11-25 08:01:18","date_granularity":"0"},"geometry":{"type":"Point","coordinates":[-103.297006,29.354769]}},{"type":"Feature","properties":{"park":"Big_Bend_National_Park","id":"19556488412","title":"Ice on bushes, Big Bend National Park, Texas","accuracy":16,"date_taken":"2013-11-24 08:36:54","date_granularity":"0"},"geometry":{"type":"Point","coordinates":[-103.286806,29.358836]}},{"type":"Feature","properties":{"park":"Big_Bend_National_Park","id":"19556484242","title":"Ice on bushes, Big Bend National Park, Texas","accuracy":16,"date_taken":"2013-11-24 08:36:17","date_granularity":"0"},"geometry":{"type":"Point","coordinates":[-103.286806,29.358836]}},{"type":"Feature","properties":{"park":"Big_Bend_National_Park","id":"19567567751","title":"Ice on bushes, Big Bend National Park, Texas","accuracy":16,"date_taken":"2013-11-24 08:36:04","date_granularity":"0"},"geometry":{"type":"Point","coordinates":[-103.286806,29.358836]}},{"type":"Feature","properties":{"park":"Big_Bend_National_Park","id":"18928671324","title":"2015 West Texas Trip_45_67678.jpg","accuracy":16,"date_taken":"2015-06-14 19:46:03","date_granularity":"0"},"geometry":{"type":"Point","coordinates":[-103.137773,29.460369]}},{"type":"Feature","properties":{"park":"Big_Bend_National_Park","id":"19525018366","title":"2015 West Texas Trip_45_67583.jpg","accuracy":16,"date_taken":"2015-06-14 19:31:45","date_granularity":"0"},"geometry":{"type":"Point","coordinates":[-103.137773,29.460369]}},{"type":"Feature","properties":{"park":"Big_Bend_National_Park","id":"19364616449","title":"2015 West Texas Trip_45_67551.jpg","accuracy":16,"date_taken":"2015-06-14 19:28:29","date_granularity":"0"},"geometry":{"type":"Point","coordinates":[-103.137773,29.460369]}},{"type":"Feature","properties":{"park":"Big_Bend_National_Park","id":"19363082070","title":"2015 West Texas Trip_45_67500.jpg","accuracy":16,"date_taken":"2015-06-14 19:13:25","date_granularity":"0"},"geometry":{"type":"Point","coordinates":[-103.137698,29.459408]}},{"type":"Feature","properties":{"park":"Big_Bend_National_Park","id":"18930122003","title":"2015 West Texas Trip_45_67491.jpg","accuracy":16,"date_taken":"2015-06-14 19:08:55","date_granularity":"0"},"geometry":{"type":"Point","coordinates":[-103.137698,29.459408]}},{"type":"Feature","properties":{"park":"Big_Bend_National_Park","id":"19524878816","title":"2015 West Texas Trip_45_67443.jpg","accuracy":16,"date_taken":"2015-06-14 18:48:44","date_granularity":"0"},"geometry":{"type":"Point","coordinates":[-103.140142,29.411583]}},{"type":"Feature","properties":{"park":"Big_Bend_National_Park","id":"18295760965","title":"","accuracy":16,"date_taken":"2014-03-30 11:32:06","date_granularity":"0"},"geometry":{"type":"Point","coordinates":[-103.203262,29.398627]}},{"type":"Feature","properties":{"park":"Big_Bend_National_Park","id":"18284099952","title":"Sandcastle","accuracy":15,"date_taken":"2015-05-23 02:04:23","date_granularity":"0"},"geometry":{"type":"Point","coordinates":[-103.276226,29.350459]}},{"type":"Feature","properties":{"park":"Big_Bend_National_Park","id":"18132216181","title":"Big Bend National Park, Texas","accuracy":16,"date_taken":"2015-04-13 15:51:57","date_granularity":"0"},"geometry":{"type":"Point","coordinates":[-103.139787,29.40685]}},{"type":"Feature","properties":{"park":"Big_Bend_National_Park","id":"18132193531","title":"Big Bend National Park, Texas","accuracy":16,"date_taken":"2015-04-13 15:19:37","date_granularity":"0"},"geometry":{"type":"Point","coordinates":[-103.139023,29.465958]}},{"type":"Feature","properties":{"park":"Big_Bend_National_Park","id":"18127628552","title":"Big Bend National Park, Texas","accuracy":16,"date_taken":"2015-04-13 15:19:03","date_granularity":"0"},"geometry":{"type":"Point","coordinates":[-103.138948,29.466061]}},{"type":"Feature","properties":{"park":"Big_Bend_National_Park","id":"18132172601","title":"Big Bend National Park, Texas","accuracy":16,"date_taken":"2015-04-13 14:11:49","date_granularity":"0"},"geometry":{"type":"Point","coordinates":[-103.136712,29.417288]}},{"type":"Feature","properties":{"park":"Big_Bend_National_Park","id":"17943179068","title":"Big Bend National Park, Texas","accuracy":16,"date_taken":"2015-04-13 14:49:16","date_granularity":"0"},"geometry":{"type":"Point","coordinates":[-103.13907,29.419086]}},{"type":"Feature","properties":{"park":"Big_Bend_National_Park","id":"17944792279","title":"Big Bend National Park, Texas","accuracy":16,"date_taken":"2015-04-13 14:08:15","date_granularity":"0"},"geometry":{"type":"Point","coordinates":[-103.136948,29.418355]}},{"type":"Feature","properties":{"park":"Big_Bend_National_Park","id":"17407392363","title":"Color in the Desert_150550","accuracy":16,"date_taken":"2015-04-25 15:05:50","date_granularity":"0"},"geometry":{"type":"Point","coordinates":[-103.25612,29.333624]}},{"type":"Feature","properties":{"park":"Big_Bend_National_Park","id":"17821527172","title":"Big Bend National Park, West Texas","accuracy":16,"date_taken":"2015-05-16 09:22:43","date_granularity":"0"},"geometry":{"type":"Point","coordinates":[-103.274262,29.347688]}},{"type":"Feature","properties":{"park":"Big_Bend_National_Park","id":"17270438282","title":"Peaks of the Chisos Mountains (Black & White)","accuracy":16,"date_taken":"2014-04-09 00:00:00","date_granularity":"0"},"geometry":{"type":"Point","coordinates":[-103.258445,29.336363]}},{"type":"Feature","properties":{"park":"Big_Bend_National_Park","id":"17156653706","title":"Peltula richardsii (Richards' peltula lichen)","accuracy":16,"date_taken":"2014-09-02 12:54:08","date_granularity":"0"},"geometry":{"type":"Point","coordinates":[-103.136459,29.62475]}},{"type":"Feature","properties":{"park":"Big_Bend_National_Park","id":"17014031182","title":"Cylindropuntia leptocaulis (Desert Christmas cactus)","accuracy":16,"date_taken":"2014-09-02 20:08:49","date_granularity":"0"},"geometry":{"type":"Point","coordinates":[-103.303364,29.388944]}},{"type":"Feature","properties":{"park":"Big_Bend_National_Park","id":"17008900391","title":"Clematis drummondii (Drummond's clematis)","accuracy":16,"date_taken":"2014-09-02 11:01:19","date_granularity":"0"},"geometry":{"type":"Point","coordinates":[-103.131028,29.622047]}},{"type":"Feature","properties":{"park":"Big_Bend_National_Park","id":"17008357812","title":"Clematis drummondii (Drummond's clematis)","accuracy":16,"date_taken":"2014-09-02 11:01:47","date_granularity":"0"},"geometry":{"type":"Point","coordinates":[-103.130987,29.622044]}},{"type":"Feature","properties":{"park":"Big_Bend_National_Park","id":"17008354012","title":"Diospyros texana (Texas persimmon)","accuracy":16,"date_taken":"2014-09-02 11:26:08","date_granularity":"0"},"geometry":{"type":"Point","coordinates":[-103.117339,29.623547]}},{"type":"Feature","properties":{"park":"Big_Bend_National_Park","id":"16823558939","title":"Eysenhardtia texana (Texas kidneywood)","accuracy":16,"date_taken":"2014-09-02 11:32:56","date_granularity":"0"},"geometry":{"type":"Point","coordinates":[-103.114178,29.623413]}},{"type":"Feature","properties":{"park":"Big_Bend_National_Park","id":"17008338882","title":"Ratibida columnifera (Upright prairie coneflower)","accuracy":16,"date_taken":"2014-09-02 11:53:04","date_granularity":"0"},"geometry":{"type":"Point","coordinates":[-103.111925,29.624252]}},{"type":"Feature","properties":{"park":"Big_Bend_National_Park","id":"16822249320","title":"Ratibida columnifera (Upright prairie coneflower)","accuracy":16,"date_taken":"2014-09-02 11:53:28","date_granularity":"0"},"geometry":{"type":"Point","coordinates":[-103.112014,29.624247]}},{"type":"Feature","properties":{"park":"Big_Bend_National_Park","id":"16983774406","title":"Echinocactus texensis (Horse crippler)","accuracy":16,"date_taken":"2014-09-02 12:50:33","date_granularity":"0"},"geometry":{"type":"Point","coordinates":[-103.135492,29.624813]}},{"type":"Feature","properties":{"park":"Big_Bend_National_Park","id":"16817605638","title":"Big Bend National Park, TX-Chisos Mountain Range","accuracy":16,"date_taken":"2015-03-16 14:22:12","date_granularity":"0"},"geometry":{"type":"Point","coordinates":[-103.136909,29.418313]}},{"type":"Feature","properties":{"park":"Big_Bend_National_Park","id":"16817598018","title":"Big Bend National Park, TX-Persimmon Gap Entrance Sign-Fossil Bone Exhibit","accuracy":16,"date_taken":"2015-03-16 14:17:09","date_granularity":"0"},"geometry":{"type":"Point","coordinates":[-103.136909,29.418311]}},{"type":"Feature","properties":{"park":"Big_Bend_National_Park","id":"17004449141","title":"Big Bend National Park, TX-Persimmon Gap Entrance Sign","accuracy":16,"date_taken":"2015-03-16 13:18:42","date_granularity":"0"},"geometry":{"type":"Point","coordinates":[-103.167378,29.67985]}},{"type":"Feature","properties":{"park":"Big_Bend_National_Park","id":"16780346069","title":"PG_Lupinus_sp2","accuracy":16,"date_taken":"2015-03-14 12:03:06","date_granularity":"0"},"geometry":{"type":"Point","coordinates":[-103.173548,29.660202]}},{"type":"Feature","properties":{"park":"Big_Bend_National_Park","id":"16780245539","title":"PG_Leucophyllum_sp2","accuracy":16,"date_taken":"2015-03-14 12:03:48","date_granularity":"0"},"geometry":{"type":"Point","coordinates":[-103.173387,29.660349]}},{"type":"Feature","properties":{"park":"Big_Bend_National_Park","id":"16965060192","title":"PG_L_tridentata2","accuracy":16,"date_taken":"2015-03-14 12:03:16","date_granularity":"0"},"geometry":{"type":"Point","coordinates":[-103.173531,29.660197]}},{"type":"Feature","properties":{"park":"Big_Bend_National_Park","id":"15735332484","title":"Bluffs, Jagged Peaks and Hilltops of the Chisos Mountains (Big Bend National Park)","accuracy":16,"date_taken":"2014-04-07 00:00:00","date_granularity":"0"},"geometry":{"type":"Point","coordinates":[-103.296989,29.354747]}},{"type":"Feature","properties":{"park":"Big_Bend_National_Park","id":"16040762298","title":"IMG_1623","accuracy":16,"date_taken":"2014-12-27 13:05:57","date_granularity":"0"},"geometry":{"type":"Point","coordinates":[-103.173434,29.660072]}},{"type":"Feature","properties":{"park":"Big_Bend_National_Park","id":"15608415803","title":"IMG_1875","accuracy":16,"date_taken":"2014-12-28 14:15:33","date_granularity":"0"},"geometry":{"type":"Point","coordinates":[-103.20355,29.402294]}},{"type":"Feature","properties":{"park":"Big_Bend_National_Park","id":"16227466652","title":"IMG_1884","accuracy":16,"date_taken":"2014-12-28 14:33:46","date_granularity":"0"},"geometry":{"type":"Point","coordinates":[-103.202728,29.399122]}},{"type":"Feature","properties":{"park":"Big_Bend_National_Park","id":"16228264995","title":"IMG_1891","accuracy":16,"date_taken":"2014-12-28 14:36:30","date_granularity":"0"},"geometry":{"type":"Point","coordinates":[-103.202764,29.399058]}},{"type":"Feature","properties":{"park":"Big_Bend_National_Park","id":"15899234951","title":"driving into Big Bend","accuracy":16,"date_taken":"2014-11-22 15:33:29","date_granularity":"0"},"geometry":{"type":"Point","coordinates":[-103.195695,29.345186]}},{"type":"Feature","properties":{"park":"Big_Bend_National_Park","id":"15705430469","title":"2011_West Texas_Big Bend NP_1","accuracy":16,"date_taken":"2011-12-29 15:37:06","date_granularity":"0"},"geometry":{"type":"Point","coordinates":[-103.173379,29.660227]}},{"type":"Feature","properties":{"park":"Big_Bend_National_Park","id":"15705695317","title":"2011_West Texas_Big Bend NP_2","accuracy":16,"date_taken":"2011-12-29 15:37:22","date_granularity":"0"},"geometry":{"type":"Point","coordinates":[-103.173379,29.660227]}},{"type":"Feature","properties":{"park":"Big_Bend_National_Park","id":"15704169170","title":"2011_West Texas_Big Bend NP_3","accuracy":16,"date_taken":"2011-12-29 15:37:59","date_granularity":"0"},"geometry":{"type":"Point","coordinates":[-103.173379,29.660227]}},{"type":"Feature","properties":{"park":"Big_Bend_National_Park","id":"15614306448","title":"DSC_1180.jpg","accuracy":16,"date_taken":"2014-11-08 18:50:48","date_granularity":"0"},"geometry":{"type":"Point","coordinates":[-103.302778,29.388333]}},{"type":"Feature","properties":{"park":"Big_Bend_National_Park","id":"15801289552","title":"DSC_1174.jpg","accuracy":16,"date_taken":"2014-11-08 18:29:06","date_granularity":"0"},"geometry":{"type":"Point","coordinates":[-103.302778,29.388333]}},{"type":"Feature","properties":{"park":"Big_Bend_National_Park","id":"15614880760","title":"DSC_1158.jpg","accuracy":16,"date_taken":"2014-11-08 18:08:35","date_granularity":"0"},"geometry":{"type":"Point","coordinates":[-103.302778,29.388333]}},{"type":"Feature","properties":{"park":"Big_Bend_National_Park","id":"15801284772","title":"DSC_1147.jpg","accuracy":16,"date_taken":"2014-11-08 17:57:42","date_granularity":"0"},"geometry":{"type":"Point","coordinates":[-103.302778,29.388333]}},{"type":"Feature","properties":{"park":"Big_Bend_National_Park","id":"15801282112","title":"IMG_1957.jpg","accuracy":16,"date_taken":"2014-11-08 13:13:36","date_granularity":"0"},"geometry":{"type":"Point","coordinates":[-103.302628,29.388541]}},{"type":"Feature","properties":{"park":"Big_Bend_National_Park","id":"15180272223","title":"IMG_1955.jpg","accuracy":16,"date_taken":"2014-11-08 12:52:52","date_granularity":"0"},"geometry":{"type":"Point","coordinates":[-103.302812,29.388408]}},{"type":"Feature","properties":{"park":"Big_Bend_National_Park","id":"15599893780","title":"Pulliam Peak (Big Bend National Park)","accuracy":16,"date_taken":"2014-04-06 00:00:00","date_granularity":"0"},"geometry":{"type":"Point","coordinates":[-103.176195,29.366713]}},{"type":"Feature","properties":{"park":"Big_Bend_National_Park","id":"33330032564","title":"Persimmon Gap Visitor Center","accuracy":16,"date_taken":"2015-10-06 09:57:06","date_granularity":"0"},"geometry":{"type":"Point","coordinates":[-103.173369,29.660133]}},{"type":"Feature","properties":{"park":"Big_Bend_National_Park","id":"24071963215","title":"Robberfly species","accuracy":16,"date_taken":"2015-12-24 12:03:35","date_granularity":"0"},"geometry":{"type":"Point","coordinates":[-103.164721,29.661989]}},{"type":"Feature","properties":{"park":"Big_Bend_National_Park","id":"18930144013","title":"2015 West Texas Trip_45_67503.jpg","accuracy":16,"date_taken":"2015-06-14 19:18:18","date_granularity":"0"},"geometry":{"type":"Point","coordinates":[-103.137773,29.460369]}},{"type":"Feature","properties":{"park":"Big_Bend_National_Park","id":"17097596030","title":"A Grand Vista of Casa Grande and Pulliam Bluff (Big Bend National Park)","accuracy":16,"date_taken":"2014-04-09 00:00:00","date_granularity":"0"},"geometry":{"type":"Point","coordinates":[-103.258453,29.336397]}},{"type":"Feature","properties":{"park":"Big_Bend_National_Park","id":"17234873216","title":"A Wednesday Morning View of the Chisos Mountains (Big Bend National Park)","accuracy":16,"date_taken":"2014-04-09 00:00:00","date_granularity":"0"},"geometry":{"type":"Point","coordinates":[-103.258287,29.336258]}},{"type":"Feature","properties":{"park":"Big_Bend_National_Park","id":"8607272218","title":"Road to Paint Gap in Big Bend NP","accuracy":16,"date_taken":"2013-03-26 17:33:37","date_granularity":"0"},"geometry":{"type":"Point","coordinates":[-103.303603,29.389433]}},{"type":"Feature","properties":{"park":"Big_Bend_National_Park","id":"8606895744","title":"Big Bend National Park, TX","accuracy":16,"date_taken":"2013-03-23 12:19:14","date_granularity":"0"},"geometry":{"type":"Point","coordinates":[-103.167323,29.679955]}},{"type":"Feature","properties":{"park":"Big_Bend_National_Park","id":"8588485964","title":"Big Bend National Park","accuracy":16,"date_taken":"2013-03-17 16:59:19","date_granularity":"0"},"geometry":{"type":"Point","coordinates":[-103.19565,29.349925]}},{"type":"Feature","properties":{"park":"Big_Bend_National_Park","id":"8588485498","title":"Big Bend National Park","accuracy":16,"date_taken":"2013-03-17 16:59:29","date_granularity":"0"},"geometry":{"type":"Point","coordinates":[-103.195653,29.349916]}},{"type":"Feature","properties":{"park":"Big_Bend_National_Park","id":"8587384143","title":"Big Bend National Park","accuracy":16,"date_taken":"2013-03-17 17:15:15","date_granularity":"0"},"geometry":{"type":"Point","coordinates":[-103.141112,29.420052]}},{"type":"Feature","properties":{"park":"Big_Bend_National_Park","id":"8588484408","title":"Big Bend National Park","accuracy":16,"date_taken":"2013-03-17 17:15:21","date_granularity":"0"},"geometry":{"type":"Point","coordinates":[-103.141114,29.420052]}},{"type":"Feature","properties":{"park":"Big_Bend_National_Park","id":"8588483872","title":"Big Bend National Park","accuracy":16,"date_taken":"2013-03-17 17:21:47","date_granularity":"0"},"geometry":{"type":"Point","coordinates":[-103.127553,29.494566]}},{"type":"Feature","properties":{"park":"Big_Bend_National_Park","id":"8574036686","title":"corkscrew","accuracy":16,"date_taken":"2013-03-04 18:47:27","date_granularity":"0"},"geometry":{"type":"Point","coordinates":[-103.2345,29.383333]}},{"type":"Feature","properties":{"park":"Big_Bend_National_Park","id":"8513039571","title":"Balanced Rock","accuracy":16,"date_taken":"2012-04-05 09:03:54","date_granularity":"0"},"geometry":{"type":"Point","coordinates":[-103.202906,29.39898]}},{"type":"Feature","properties":{"park":"Big_Bend_National_Park","id":"8491511440","title":"","accuracy":16,"date_taken":"2013-02-16 10:38:30","date_granularity":"0"},"geometry":{"type":"Point","coordinates":[-103.176399,29.336]}},{"type":"Feature","properties":{"park":"Big_Bend_National_Park","id":"8443606960","title":"Hiking Grapeine Hills - Big Bend National Park, Texas","accuracy":16,"date_taken":"2011-05-05 11:25:26","date_granularity":"0"},"geometry":{"type":"Point","coordinates":[-103.205072,29.406647]}},{"type":"Feature","properties":{"park":"Big_Bend_National_Park","id":"8215681826","title":"","accuracy":16,"date_taken":"2012-11-19 10:59:07","date_granularity":"0"},"geometry":{"type":"Point","coordinates":[-103.1764,29.336]}},{"type":"Feature","properties":{"park":"Big_Bend_National_Park","id":"8214587725","title":"","accuracy":16,"date_taken":"2012-11-19 09:07:42","date_granularity":"0"},"geometry":{"type":"Point","coordinates":[-103.1764,29.336]}},{"type":"Feature","properties":{"park":"Big_Bend_National_Park","id":"8214587519","title":"","accuracy":16,"date_taken":"2012-11-19 09:07:37","date_granularity":"0"},"geometry":{"type":"Point","coordinates":[-103.1764,29.336]}},{"type":"Feature","properties":{"park":"Big_Bend_National_Park","id":"8215672704","title":"","accuracy":16,"date_taken":"2012-11-19 09:04:17","date_granularity":"0"},"geometry":{"type":"Point","coordinates":[-103.1764,29.336]}},{"type":"Feature","properties":{"park":"Big_Bend_National_Park","id":"8214582819","title":"","accuracy":16,"date_taken":"2012-11-19 08:00:45","date_granularity":"0"},"geometry":{"type":"Point","coordinates":[-103.1764,29.336]}},{"type":"Feature","properties":{"park":"Big_Bend_National_Park","id":"8214582603","title":"","accuracy":16,"date_taken":"2012-11-19 08:00:40","date_granularity":"0"},"geometry":{"type":"Point","coordinates":[-103.1764,29.336]}},{"type":"Feature","properties":{"park":"Big_Bend_National_Park","id":"8215666874","title":"","accuracy":16,"date_taken":"2012-11-19 07:38:18","date_granularity":"0"},"geometry":{"type":"Point","coordinates":[-103.1764,29.336]}},{"type":"Feature","properties":{"park":"Big_Bend_National_Park","id":"8214578951","title":"","accuracy":16,"date_taken":"2012-11-18 18:05:19","date_granularity":"0"},"geometry":{"type":"Point","coordinates":[-103.1764,29.336]}},{"type":"Feature","properties":{"park":"Big_Bend_National_Park","id":"8214576199","title":"","accuracy":16,"date_taken":"2012-11-18 16:01:03","date_granularity":"0"},"geometry":{"type":"Point","coordinates":[-103.1764,29.336]}},{"type":"Feature","properties":{"park":"Big_Bend_National_Park","id":"8215657860","title":"","accuracy":16,"date_taken":"2012-11-18 13:26:38","date_granularity":"0"},"geometry":{"type":"Point","coordinates":[-103.1764,29.336]}},{"type":"Feature","properties":{"park":"Big_Bend_National_Park","id":"8214566149","title":"","accuracy":16,"date_taken":"2012-11-18 11:42:00","date_granularity":"0"},"geometry":{"type":"Point","coordinates":[-103.1764,29.336]}},{"type":"Feature","properties":{"park":"Big_Bend_National_Park","id":"8187221674","title":"Looking, looking","accuracy":16,"date_taken":"2012-10-10 08:54:41","date_granularity":"0"},"geometry":{"type":"Point","coordinates":[-103.202916,29.398861]}},{"type":"Feature","properties":{"park":"Big_Bend_National_Park","id":"8187219168","title":"Gateway to Big Bend Nat'l Park","accuracy":16,"date_taken":"2012-10-10 05:48:43","date_granularity":"0"},"geometry":{"type":"Point","coordinates":[-103.167403,29.679906]}},{"type":"Feature","properties":{"park":"Big_Bend_National_Park","id":"8177177976","title":"Under the Balanced Rock","accuracy":16,"date_taken":"2012-10-10 08:37:28","date_granularity":"0"},"geometry":{"type":"Point","coordinates":[-103.202916,29.398861]}},{"type":"Feature","properties":{"park":"Big_Bend_National_Park","id":"8177139005","title":"Begin of rock boulders to climb","accuracy":16,"date_taken":"2012-10-10 08:31:35","date_granularity":"0"},"geometry":{"type":"Point","coordinates":[-103.202251,29.399926]}},{"type":"Feature","properties":{"park":"Big_Bend_National_Park","id":"8177164624","title":"Chisos Mountains","accuracy":16,"date_taken":"2012-10-10 07:30:23","date_granularity":"0"},"geometry":{"type":"Point","coordinates":[-103.22933,29.333213]}},{"type":"Feature","properties":{"park":"Big_Bend_National_Park","id":"8177008602","title":"Dog Canyon trailhead","accuracy":16,"date_taken":"2012-10-10 06:13:25","date_granularity":"0"},"geometry":{"type":"Point","coordinates":[-103.142083,29.619906]}},{"type":"Feature","properties":{"park":"Big_Bend_National_Park","id":"8176971811","title":"Gateway to Big Bend!","accuracy":16,"date_taken":"2012-10-10 05:44:43","date_granularity":"0"},"geometry":{"type":"Point","coordinates":[-103.167403,29.679906]}},{"type":"Feature","properties":{"park":"Big_Bend_National_Park","id":"8122377178","title":"2012 Big Bend National Park","accuracy":16,"date_taken":"2012-10-20 09:20:58","date_granularity":"0"},"geometry":{"type":"Point","coordinates":[-103.202475,29.39873]}},{"type":"Feature","properties":{"park":"Big_Bend_National_Park","id":"8122375438","title":"2012 Big Bend National Park","accuracy":16,"date_taken":"2012-10-20 09:30:55","date_granularity":"0"},"geometry":{"type":"Point","coordinates":[-103.201945,29.400313]}},{"type":"Feature","properties":{"park":"Big_Bend_National_Park","id":"8122356307","title":"2012 Big Bend National Park","accuracy":16,"date_taken":"2012-10-20 09:50:10","date_granularity":"0"},"geometry":{"type":"Point","coordinates":[-103.206631,29.408402]}},{"type":"Feature","properties":{"park":"Big_Bend_National_Park","id":"8122371670","title":"2012 Big Bend National Park","accuracy":16,"date_taken":"2012-10-20 10:01:53","date_granularity":"0"},"geometry":{"type":"Point","coordinates":[-103.218887,29.396969]}},{"type":"Feature","properties":{"park":"Big_Bend_National_Park","id":"7978306125","title":"first glimpse of the Chisos Mountains upon entering the park","accuracy":16,"date_taken":"2012-03-29 17:44:12","date_granularity":"0"},"geometry":{"type":"Point","coordinates":[-103.141193,29.415376]}},{"type":"Feature","properties":{"park":"Big_Bend_National_Park","id":"7915719070","title":"2012_06_20_228.jpg","accuracy":16,"date_taken":"2012-06-20 21:49:38","date_granularity":"0"},"geometry":{"type":"Point","coordinates":[-103.196994,29.341011]}},{"type":"Feature","properties":{"park":"Big_Bend_National_Park","id":"7752375080","title":"Red Rock","accuracy":16,"date_taken":"2012-07-25 06:50:35","date_granularity":"0"},"geometry":{"type":"Point","coordinates":[-103.20239,29.400235]}},{"type":"Feature","properties":{"park":"Big_Bend_National_Park","id":"7745676160","title":"Desert Pastel","accuracy":16,"date_taken":"2012-07-25 06:38:00","date_granularity":"0"},"geometry":{"type":"Point","coordinates":[-103.204278,29.403562]}},{"type":"Feature","properties":{"park":"Big_Bend_National_Park","id":"7738967188","title":"Grapevine Tee","accuracy":16,"date_taken":"2012-07-25 07:08:40","date_granularity":"0"},"geometry":{"type":"Point","coordinates":[-103.202776,29.399244]}},{"type":"Feature","properties":{"park":"Big_Bend_National_Park","id":"7656094286","title":"Balanced Rock","accuracy":16,"date_taken":"2012-07-25 07:07:07","date_granularity":"0"},"geometry":{"type":"Point","coordinates":[-103.202776,29.399244]}},{"type":"Feature","properties":{"park":"Big_Bend_National_Park","id":"7346593790","title":"Almost There - Grapevine Hills in Big Bend National Park","accuracy":16,"date_taken":"2011-05-05 12:19:43","date_granularity":"0"},"geometry":{"type":"Point","coordinates":[-103.204429,29.398875]}},{"type":"Feature","properties":{"park":"Big_Bend_National_Park","id":"7236864060","title":"Sunrise on Dagger Flats","accuracy":16,"date_taken":"2012-04-06 07:26:02","date_granularity":"0"},"geometry":{"type":"Point","coordinates":[-103.131705,29.483965]}},{"type":"Feature","properties":{"park":"Big_Bend_National_Park","id":"7198854420","title":"Ocotillo in Big Bend","accuracy":15,"date_taken":"2012-04-20 13:42:35","date_granularity":"0"},"geometry":{"type":"Point","coordinates":[-103.163251,29.370993]}},{"type":"Feature","properties":{"park":"Big_Bend_National_Park","id":"7198845724","title":"Ocotillo in Big Bend","accuracy":15,"date_taken":"2012-04-20 13:42:04","date_granularity":"0"},"geometry":{"type":"Point","coordinates":[-103.163251,29.370993]}},{"type":"Feature","properties":{"park":"Big_Bend_National_Park","id":"7187859432","title":"Grapevine Hills Area","accuracy":16,"date_taken":"2012-04-05 07:44:24","date_granularity":"0"},"geometry":{"type":"Point","coordinates":[-103.219508,29.383385]}},{"type":"Feature","properties":{"park":"Big_Bend_National_Park","id":"6949570902","title":"Let's fix your shoe","accuracy":16,"date_taken":"2012-03-25 14:34:13","date_granularity":"0"},"geometry":{"type":"Point","coordinates":[-103.173434,29.660233]}},{"type":"Feature","properties":{"park":"Big_Bend_National_Park","id":"6949570684","title":"What is it?","accuracy":16,"date_taken":"2012-03-25 14:34:04","date_granularity":"0"},"geometry":{"type":"Point","coordinates":[-103.173445,29.66023]}},{"type":"Feature","properties":{"park":"Big_Bend_National_Park","id":"6949570440","title":"Andrew's first ocotillo","accuracy":16,"date_taken":"2012-03-25 14:31:10","date_granularity":"0"},"geometry":{"type":"Point","coordinates":[-103.173473,29.660222]}},{"type":"Feature","properties":{"park":"Big_Bend_National_Park","id":"7075456535","title":"Grapevine Hills","accuracy":16,"date_taken":"2012-04-05 08:09:09","date_granularity":"0"},