{"type":"FeatureCollection","features":[{"type":"Feature","properties":{"park":"Channel_Islands_National_Park","id":"31883922778","title":"Back bearing training","accuracy":16,"date_taken":"2018-11-06 00:23:51","date_granularity":"0"},"geometry":{"type":"Point","coordinates":[-119.032023,33.451069]}},{"type":"Feature","properties":{"park":"Channel_Islands_National_Park","id":"44375194931","title":"Where guano comes from","accuracy":16,"date_taken":"2018-08-29 12:15:02","date_granularity":"0"},"geometry":{"type":"Point","coordinates":[-119.049959,33.465655]}},{"type":"Feature","properties":{"park":"Channel_Islands_National_Park","id":"29439177897","title":"Are you looking at me?","accuracy":16,"date_taken":"2018-08-29 12:15:58","date_granularity":"0"},"geometry":{"type":"Point","coordinates":[-119.049959,33.465655]}},{"type":"Feature","properties":{"park":"Channel_Islands_National_Park","id":"38488338425","title":"0923-153714","accuracy":16,"date_taken":"2012-09-23 15:37:14","date_granularity":"0"},"geometry":{"type":"Point","coordinates":[-119.049862,33.459494]}},{"type":"Feature","properties":{"park":"Channel_Islands_National_Park","id":"38657905464","title":"0923-153627a","accuracy":16,"date_taken":"2012-09-23 15:36:27","date_granularity":"0"},"geometry":{"type":"Point","coordinates":[-119.045039,33.45888]}},{"type":"Feature","properties":{"park":"Channel_Islands_National_Park","id":"39365687831","title":"0923-153320a","accuracy":16,"date_taken":"2012-09-23 15:33:20","date_granularity":"0"},"geometry":{"type":"Point","coordinates":[-119.027842,33.462786]}},{"type":"Feature","properties":{"park":"Channel_Islands_National_Park","id":"38488283915","title":"0923-145221","accuracy":16,"date_taken":"2012-09-23 14:52:21","date_granularity":"0"},"geometry":{"type":"Point","coordinates":[-119.029925,33.480875]}},{"type":"Feature","properties":{"park":"Channel_Islands_National_Park","id":"25496510048","title":"0923-142920","accuracy":16,"date_taken":"2012-09-23 14:29:20","date_granularity":"0"},"geometry":{"type":"Point","coordinates":[-119.0312,33.48118]}},{"type":"Feature","properties":{"park":"Channel_Islands_National_Park","id":"38488197895","title":"0923-135128","accuracy":16,"date_taken":"2012-09-23 13:51:28","date_granularity":"0"},"geometry":{"type":"Point","coordinates":[-119.032717,33.472586]}},{"type":"Feature","properties":{"park":"Channel_Islands_National_Park","id":"38657774784","title":"0923-132857","accuracy":16,"date_taken":"2012-09-23 13:28:57","date_granularity":"0"},"geometry":{"type":"Point","coordinates":[-119.035203,33.469305]}},{"type":"Feature","properties":{"park":"Channel_Islands_National_Park","id":"38657773064","title":"0923-131420a","accuracy":16,"date_taken":"2012-09-23 13:14:20","date_granularity":"0"},"geometry":{"type":"Point","coordinates":[-119.039278,33.468041]}},{"type":"Feature","properties":{"park":"Channel_Islands_National_Park","id":"39365450401","title":"0923-124616","accuracy":16,"date_taken":"2012-09-23 12:46:16","date_granularity":"0"},"geometry":{"type":"Point","coordinates":[-119.041256,33.472094]}},{"type":"Feature","properties":{"park":"Channel_Islands_National_Park","id":"38487990745","title":"0923-123313","accuracy":16,"date_taken":"2012-09-23 12:33:13","date_granularity":"0"},"geometry":{"type":"Point","coordinates":[-119.037473,33.476127]}},{"type":"Feature","properties":{"park":"Channel_Islands_National_Park","id":"38487968145","title":"0923-114152a","accuracy":16,"date_taken":"2012-09-23 11:41:52","date_granularity":"0"},"geometry":{"type":"Point","coordinates":[-119.029523,33.481455]}},{"type":"Feature","properties":{"park":"Channel_Islands_National_Park","id":"27588449379","title":"0923-113736a","accuracy":16,"date_taken":"2012-09-23 11:37:36","date_granularity":"0"},"geometry":{"type":"Point","coordinates":[-119.029509,33.481716]}},{"type":"Feature","properties":{"park":"Channel_Islands_National_Park","id":"38487917115","title":"0923-113337a","accuracy":16,"date_taken":"2012-09-23 11:33:37","date_granularity":"0"},"geometry":{"type":"Point","coordinates":[-119.027553,33.486736]}},{"type":"Feature","properties":{"park":"Channel_Islands_National_Park","id":"25496214798","title":"0923-113301a","accuracy":16,"date_taken":"2012-09-23 11:33:01","date_granularity":"0"},"geometry":{"type":"Point","coordinates":[-119.027125,33.488458]}},{"type":"Feature","properties":{"park":"Channel_Islands_National_Park","id":"25496209198","title":"0923-113259a","accuracy":16,"date_taken":"2012-09-23 11:32:59","date_granularity":"0"},"geometry":{"type":"Point","coordinates":[-119.027098,33.488838]}},{"type":"Feature","properties":{"park":"Channel_Islands_National_Park","id":"38487898435","title":"0923-113259","accuracy":16,"date_taken":"2012-09-23 11:32:59","date_granularity":"0"},"geometry":{"type":"Point","coordinates":[-119.027098,33.488838]}},{"type":"Feature","properties":{"park":"Channel_Islands_National_Park","id":"38339418461","title":"Seal Lion Colony","accuracy":16,"date_taken":"2017-11-04 15:49:04","date_granularity":"0"},"geometry":{"type":"Point","coordinates":[-119.044934,33.474908]}},{"type":"Feature","properties":{"park":"Channel_Islands_National_Park","id":"38308570992","title":"Sea Lion Colony","accuracy":16,"date_taken":"2017-11-04 15:48:52","date_granularity":"0"},"geometry":{"type":"Point","coordinates":[-119.044934,33.474908]}},{"type":"Feature","properties":{"park":"Channel_Islands_National_Park","id":"38308570602","title":"Sea Lion Colony","accuracy":16,"date_taken":"2017-11-04 15:46:39","date_granularity":"0"},"geometry":{"type":"Point","coordinates":[-119.044934,33.474908]}},{"type":"Feature","properties":{"park":"Channel_Islands_National_Park","id":"38308570172","title":"Sea Lion Colony","accuracy":16,"date_taken":"2017-11-04 15:45:55","date_granularity":"0"},"geometry":{"type":"Point","coordinates":[-119.044934,33.474908]}},{"type":"Feature","properties":{"park":"Channel_Islands_National_Park","id":"38308569792","title":"Mary McCully & Donna Webster","accuracy":16,"date_taken":"2017-11-04 11:25:31","date_granularity":"0"},"geometry":{"type":"Point","coordinates":[-119.044934,33.474908]}},{"type":"Feature","properties":{"park":"Channel_Islands_National_Park","id":"38308567722","title":"Kelp Forest","accuracy":16,"date_taken":"2017-11-04 11:09:47","date_granularity":"0"},"geometry":{"type":"Point","coordinates":[-119.044934,33.474908]}},{"type":"Feature","properties":{"park":"Channel_Islands_National_Park","id":"24469073968","title":"Gorgonian & Kelp Forest","accuracy":16,"date_taken":"2017-11-04 08:54:00","date_granularity":"0"},"geometry":{"type":"Point","coordinates":[-119.044934,33.474908]}},{"type":"Feature","properties":{"park":"Channel_Islands_National_Park","id":"24469072758","title":"Sunrise Over Catalina Island","accuracy":16,"date_taken":"2017-11-04 07:26:31","date_granularity":"0"},"geometry":{"type":"Point","coordinates":[-119.022798,33.471347]}},{"type":"Feature","properties":{"park":"Channel_Islands_National_Park","id":"37348605100","title":"Brown Booby","accuracy":16,"date_taken":"2017-10-07 16:28:50","date_granularity":"0"},"geometry":{"type":"Point","coordinates":[-119.050873,33.465544]}},{"type":"Feature","properties":{"park":"Channel_Islands_National_Park","id":"33031307926","title":"Lophogorgia chilensis (Red Gorgonian) - Olympus E-520 - Zuiko 14-42mm f/3.5-5.6","accuracy":16,"date_taken":"2014-10-31 14:26:16","date_granularity":"0"},"geometry":{"type":"Point","coordinates":[-119.052443,33.464742]}},{"type":"Feature","properties":{"park":"Channel_Islands_National_Park","id":"24909473199","title":"Embiotoca jacksoni (Black Perch) - Santa Barbara Island - Olympus C-5060WZ","accuracy":16,"date_taken":"2005-08-21 11:01:12","date_granularity":"0"},"geometry":{"type":"Point","coordinates":[-119.048012,33.484377]}},{"type":"Feature","properties":{"park":"Channel_Islands_National_Park","id":"21667099244","title":"Brown Boobies","accuracy":15,"date_taken":"2015-10-10 15:59:49","date_granularity":"0"},"geometry":{"type":"Point","coordinates":[-119.046435,33.464711]}},{"type":"Feature","properties":{"park":"Channel_Islands_National_Park","id":"22103015139","title":"Brown Boobies","accuracy":15,"date_taken":"2015-10-10 15:59:53","date_granularity":"0"},"geometry":{"type":"Point","coordinates":[-119.046435,33.464711]}},{"type":"Feature","properties":{"park":"Channel_Islands_National_Park","id":"22101776050","title":"Brown Booby","accuracy":15,"date_taken":"2015-10-10 15:57:32","date_granularity":"0"},"geometry":{"type":"Point","coordinates":[-119.046435,33.464711]}},{"type":"Feature","properties":{"park":"Channel_Islands_National_Park","id":"22263790676","title":"Brown Booby","accuracy":15,"date_taken":"2015-10-10 15:57:32","date_granularity":"0"},"geometry":{"type":"Point","coordinates":[-119.046435,33.464711]}},{"type":"Feature","properties":{"park":"Channel_Islands_National_Park","id":"21667071294","title":"Brown Booby","accuracy":15,"date_taken":"2015-10-10 15:57:32","date_granularity":"0"},"geometry":{"type":"Point","coordinates":[-119.046435,33.464711]}},{"type":"Feature","properties":{"park":"Channel_Islands_National_Park","id":"22073555805","title":"Rosy Rockfish, Sebastes rosaceus","accuracy":15,"date_taken":"2015-10-04 16:56:05","date_granularity":"0"},"geometry":{"type":"Point","coordinates":[-119.053945,33.472421]}},{"type":"Feature","properties":{"park":"Channel_Islands_National_Park","id":"21825502409","title":"Spearing Mantis Shrimp, Pseudosquillopsis marmorata","accuracy":16,"date_taken":"2015-10-05 00:15:28","date_granularity":"0"},"geometry":{"type":"Point","coordinates":[-119.038786,33.491945]}},{"type":"Feature","properties":{"park":"Channel_Islands_National_Park","id":"21389626094","title":"Spearing Mantis Shrimp, Pseudosquillopsis marmorata","accuracy":16,"date_taken":"2015-10-05 00:15:23","date_granularity":"0"},"geometry":{"type":"Point","coordinates":[-119.038786,33.491945]}},{"type":"Feature","properties":{"park":"Channel_Islands_National_Park","id":"22006180721","title":"Green Sea Turtle,  Chelonia mydas","accuracy":15,"date_taken":"2015-10-06 08:20:36","date_granularity":"0"},"geometry":{"type":"Point","coordinates":[-119.053945,33.472421]}},{"type":"Feature","properties":{"park":"Channel_Islands_National_Park","id":"21996349875","title":"Rosy rockfish, Sebastes rosaceus","accuracy":15,"date_taken":"2015-10-04 16:50:32","date_granularity":"0"},"geometry":{"type":"Point","coordinates":[-119.053945,33.472421]}},{"type":"Feature","properties":{"park":"Channel_Islands_National_Park","id":"22006179091","title":"Starry Rockfish, Sebastes constellatus YOY","accuracy":15,"date_taken":"2015-10-04 17:00:31","date_granularity":"0"},"geometry":{"type":"Point","coordinates":[-119.053945,33.472421]}},{"type":"Feature","properties":{"park":"Channel_Islands_National_Park","id":"20248099361","title":"santa barbara island","accuracy":16,"date_taken":"2015-08-02 17:23:36","date_granularity":0},"geometry":{"type":"Point","coordinates":[-119.031081,33.481247]}},{"type":"Feature","properties":{"park":"Channel_Islands_National_Park","id":"19619620714","title":"landing pier","accuracy":16,"date_taken":"2015-08-02 17:23:35","date_granularity":0},"geometry":{"type":"Point","coordinates":[-119.030278,33.481588]}},{"type":"Feature","properties":{"park":"Channel_Islands_National_Park","id":"20055664879","title":"santa barbara island","accuracy":16,"date_taken":"2015-08-02 17:23:33","date_granularity":0},"geometry":{"type":"Point","coordinates":[-119.030234,33.480708]}},{"type":"Feature","properties":{"park":"Channel_Islands_National_Park","id":"19619604844","title":"california sea lion","accuracy":16,"date_taken":"2015-08-02 17:23:30","date_granularity":0},"geometry":{"type":"Point","coordinates":[-119.03007,33.481883]}},{"type":"Feature","properties":{"park":"Channel_Islands_National_Park","id":"16514254176","title":"Sutil Island - GS645S - Reala 100","accuracy":16,"date_taken":"2014-10-31 17:45:07","date_granularity":"0"},"geometry":{"type":"Point","coordinates":[-119.052443,33.464742]}},{"type":"Feature","properties":{"park":"Channel_Islands_National_Park","id":"16228511288","title":"image1","accuracy":16,"date_taken":"2015-01-31 14:53:47","date_granularity":"0"},"geometry":{"type":"Point","coordinates":[-119.032403,33.461911]}},{"type":"Feature","properties":{"park":"Channel_Islands_National_Park","id":"9795448584","title":"Webster Point, Santa Barbara Island, California - Olympus 35SP - Pro 160S","accuracy":16,"date_taken":"2013-06-30 10:50:20","date_granularity":"0"},"geometry":{"type":"Point","coordinates":[-119.049439,33.48452]}},{"type":"Feature","properties":{"park":"Channel_Islands_National_Park","id":"8207917543","title":"Pastie Boy Ryan Galgas - Olympus E-410 - Zuiko 40-150mm F/4-5.6","accuracy":16,"date_taken":"2012-10-10 11:59:53","date_granularity":"0"},"geometry":{"type":"Point","coordinates":[-119.044761,33.484681]}},{"type":"Feature","properties":{"park":"Channel_Islands_National_Park","id":"8099942249","title":"Santa Barbara Island","accuracy":15,"date_taken":"2012-09-23 17:23:41","date_granularity":"0"},"geometry":{"type":"Point","coordinates":[-119.027144,33.48112]}},{"type":"Feature","properties":{"park":"Channel_Islands_National_Park","id":"8072410547","title":"Dock and VC at Santa Barbara Island Channel Islands National Park","accuracy":16,"date_taken":"2012-09-23 14:32:36","date_granularity":"0"},"geometry":{"type":"Point","coordinates":[-119.029301,33.481683]}},{"type":"Feature","properties":{"park":"Channel_Islands_National_Park","id":"8072374454","title":"Channel Islands National Park  Santa Barbara Island Visitor Center","accuracy":16,"date_taken":"2012-09-23 17:56:42","date_granularity":"0"},"geometry":{"type":"Point","coordinates":[-119.03003,33.480627]}},{"type":"Feature","properties":{"park":"Channel_Islands_National_Park","id":"7757196126","title":"Santa Barbara Island","accuracy":15,"date_taken":"2012-07-27 14:34:23","date_granularity":"0"},"geometry":{"type":"Point","coordinates":[-119.031243,33.473903]}},{"type":"Feature","properties":{"park":"Channel_Islands_National_Park","id":"7757193916","title":"","accuracy":15,"date_taken":"2012-07-27 16:03:05","date_granularity":"0"},"geometry":{"type":"Point","coordinates":[-119.030084,33.474766]}},{"type":"Feature","properties":{"park":"Channel_Islands_National_Park","id":"7134563697","title":"Santa Barbara Island","accuracy":15,"date_taken":"2012-04-20 01:49:25","date_granularity":"0"},"geometry":{"type":"Point","coordinates":[-119.035148,33.475804]}},{"type":"Feature","properties":{"park":"Channel_Islands_National_Park","id":"7132103537","title":"Sailing between SBI and Sutil Island","accuracy":15,"date_taken":"2012-04-20 21:58:21","date_granularity":"0"},"geometry":{"type":"Point","coordinates":[-119.044697,33.470067]}},{"type":"Feature","properties":{"park":"Channel_Islands_National_Park","id":"6962359774","title":"Hiking SBI","accuracy":15,"date_taken":"2012-04-20 03:13:26","date_granularity":"0"},"geometry":{"type":"Point","coordinates":[-119.030599,33.483219]}},{"type":"Feature","properties":{"park":"Channel_Islands_National_Park","id":"6962359304","title":"SBI back side","accuracy":15,"date_taken":"2012-04-20 02:42:28","date_granularity":"0"},"geometry":{"type":"Point","coordinates":[-119.030513,33.482319]}},{"type":"Feature","properties":{"park":"Channel_Islands_National_Park","id":"6251186916","title":"Tritonia festiva on Lophogorgia chilensis  - Olympus E-520 - 50mm Zuiko ED f/2","accuracy":16,"date_taken":"2011-07-22 15:44:55","date_granularity":"0"},"geometry":{"type":"Point","coordinates":[-119.054718,33.482417]}},{"type":"Feature","properties":{"park":"Channel_Islands_National_Park","id":"6118348069","title":"IMG_0085","accuracy":16,"date_taken":"2011-08-30 12:24:12","date_granularity":"0"},"geometry":{"type":"Point","coordinates":[-119.029226,33.482784]}},{"type":"Feature","properties":{"park":"Channel_Islands_National_Park","id":"5987116444","title":"Janolus barbarensis nudibranch","accuracy":16,"date_taken":"2011-07-22 15:50:23","date_granularity":"0"},"geometry":{"type":"Point","coordinates":[-119.054718,33.482417]}},{"type":"Feature","properties":{"park":"Channel_Islands_National_Park","id":"5968315646","title":"I Collect Godzilla ?","accuracy":16,"date_taken":"2011-07-23 14:58:41","date_granularity":"0"},"geometry":{"type":"Point","coordinates":[-119.051713,33.482569]}},{"type":"Feature","properties":{"park":"Channel_Islands_National_Park","id":"3702920950","title":"Sea Hare","accuracy":16,"date_taken":"2009-07-06 10:45:29","date_granularity":"0"},"geometry":{"type":"Point","coordinates":[-119.027437,33.487791]}},{"type":"Feature","properties":{"park":"Channel_Islands_National_Park","id":"1067244825","title":"DSCF9996.JPG","accuracy":16,"date_taken":"2007-08-06 10:54:46","date_granularity":"0"},"geometry":{"type":"Point","coordinates":[-119.062942,33.482643]}},{"type":"Feature","properties":{"park":"Channel_Islands_National_Park","id":"1068105726","title":"DSCF9992.JPG","accuracy":16,"date_taken":"2007-08-06 10:54:18","date_granularity":"0"},"geometry":{"type":"Point","coordinates":[-119.062942,33.482643]}},{"type":"Feature","properties":{"park":"Channel_Islands_National_Park","id":"1067241487","title":"DSCF9991.JPG","accuracy":16,"date_taken":"2007-08-06 10:54:18","date_granularity":"0"},"geometry":{"type":"Point","coordinates":[-119.062942,33.482643]}},{"type":"Feature","properties":{"park":"Channel_Islands_National_Park","id":"1067239877","title":"DSCF9984.JPG","accuracy":16,"date_taken":"2007-08-06 10:53:03","date_granularity":"0"},"geometry":{"type":"Point","coordinates":[-119.062942,33.482643]}},{"type":"Feature","properties":{"park":"Channel_Islands_National_Park","id":"1068100546","title":"DSCF9980.JPG","accuracy":16,"date_taken":"2007-08-06 10:52:47","date_granularity":"0"},"geometry":{"type":"Point","coordinates":[-119.062942,33.482643]}},{"type":"Feature","properties":{"park":"Channel_Islands_National_Park","id":"1067236637","title":"DSCF9979.JPG","accuracy":16,"date_taken":"2007-08-06 10:52:46","date_granularity":"0"},"geometry":{"type":"Point","coordinates":[-119.062942,33.482643]}},{"type":"Feature","properties":{"park":"Channel_Islands_National_Park","id":"1068097308","title":"DSCF9967.JPG","accuracy":16,"date_taken":"2007-08-06 10:50:45","date_granularity":"0"},"geometry":{"type":"Point","coordinates":[-119.062942,33.482643]}},{"type":"Feature","properties":{"park":"Channel_Islands_National_Park","id":"1068090646","title":"DSCF9938.JPG","accuracy":16,"date_taken":"2007-08-06 10:42:37","date_granularity":"0"},"geometry":{"type":"Point","coordinates":[-119.062942,33.482643]}},{"type":"Feature","properties":{"park":"Channel_Islands_National_Park","id":"1067763786","title":"DSCF0037.JPG","accuracy":16,"date_taken":"2007-08-06 15:00:51","date_granularity":"0"},"geometry":{"type":"Point","coordinates":[-119.063146,33.482648]}},{"type":"Feature","properties":{"park":"Channel_Islands_National_Park","id":"1066896307","title":"DSCF0015.JPG","accuracy":16,"date_taken":"2007-08-06 10:58:01","date_granularity":"0"},"geometry":{"type":"Point","coordinates":[-119.062942,33.482643]}},{"type":"Feature","properties":{"park":"Channel_Islands_National_Park","id":"1066894567","title":"DSCF0014.JPG","accuracy":16,"date_taken":"2007-08-06 10:58:00","date_granularity":"0"},"geometry":{"type":"Point","coordinates":[-119.062942,33.482643]}},{"type":"Feature","properties":{"park":"Channel_Islands_National_Park","id":"1067756666","title":"DSCF0005.JPG","accuracy":16,"date_taken":"2007-08-06 10:55:49","date_granularity":"0"},"geometry":{"type":"Point","coordinates":[-119.062942,33.482643]}},{"type":"Feature","properties":{"park":"Channel_Islands_National_Park","id":"1067754794","title":"DSCF0003.JPG","accuracy":16,"date_taken":"2007-08-06 10:55:42","date_granularity":"0"},"geometry":{"type":"Point","coordinates":[-119.062942,33.482643]}},{"type":"Feature","properties":{"park":"Channel_Islands_National_Park","id":"300104597","title":"Curious Sealion","accuracy":16,"date_taken":"2006-11-18 07:29:44","date_granularity":"0"},"geometry":{"type":"Point","coordinates":[-119.027681,33.469146]}},{"type":"Feature","properties":{"park":"Channel_Islands_National_Park","id":"480836314","title":"Santa Rosa_0041","accuracy":16,"date_taken":"2007-04-29 12:07:47","date_granularity":"0"},"geometry":{"type":"Point","coordinates":[-120.060932,33.996933]}},{"type":"Feature","properties":{"park":"Channel_Islands_National_Park","id":"480846673","title":"Santa Rosa_0040","accuracy":16,"date_taken":"2007-04-29 12:02:57","date_granularity":"0"},"geometry":{"type":"Point","coordinates":[-120.060932,33.996933]}},{"type":"Feature","properties":{"park":"Channel_Islands_National_Park","id":"480846581","title":"Santa Rosa_0039","accuracy":16,"date_taken":"2007-04-29 12:00:12","date_granularity":"0"},"geometry":{"type":"Point","coordinates":[-120.054967,34.003306]}},{"type":"Feature","properties":{"park":"Channel_Islands_National_Park","id":"480846525","title":"Santa Rosa_0038","accuracy":16,"date_taken":"2007-04-29 12:00:04","date_granularity":"0"},"geometry":{"type":"Point","coordinates":[-120.054967,34.003306]}},{"type":"Feature","properties":{"park":"Channel_Islands_National_Park","id":"480836006","title":"Santa Rosa_0037","accuracy":16,"date_taken":"2007-04-29 11:54:21","date_granularity":"0"},"geometry":{"type":"Point","coordinates":[-120.054967,34.003306]}},{"type":"Feature","properties":{"park":"Channel_Islands_National_Park","id":"480846421","title":"Santa Rosa_0036","accuracy":16,"date_taken":"2007-04-29 11:53:56","date_granularity":"0"},"geometry":{"type":"Point","coordinates":[-120.054967,34.003306]}},{"type":"Feature","properties":{"park":"Channel_Islands_National_Park","id":"480835888","title":"Santa Rosa_0035","accuracy":16,"date_taken":"2007-04-29 11:36:18","date_granularity":"0"},"geometry":{"type":"Point","coordinates":[-120.050278,34.006352]}},{"type":"Feature","properties":{"park":"Channel_Islands_National_Park","id":"480846297","title":"Santa Rosa_0033","accuracy":16,"date_taken":"2007-04-29 11:09:21","date_granularity":"0"},"geometry":{"type":"Point","coordinates":[-120.050278,34.006352]}},{"type":"Feature","properties":{"park":"Channel_Islands_National_Park","id":"480835754","title":"Santa Rosa_0034","accuracy":16,"date_taken":"2007-04-29 11:14:03","date_granularity":"0"},"geometry":{"type":"Point","coordinates":[-120.050278,34.006352]}},{"type":"Feature","properties":{"park":"Channel_Islands_National_Park","id":"480835622","title":"Santa Rosa_0031","accuracy":16,"date_taken":"2007-04-29 11:07:06","date_granularity":"0"},"geometry":{"type":"Point","coordinates":[-120.050278,34.006352]}},{"type":"Feature","properties":{"park":"Channel_Islands_National_Park","id":"480846041","title":"Santa Rosa_0030","accuracy":16,"date_taken":"2007-04-29 11:05:23","date_granularity":"0"},"geometry":{"type":"Point","coordinates":[-120.050278,34.006352]}},{"type":"Feature","properties":{"park":"Channel_Islands_National_Park","id":"480835466","title":"Santa Rosa_0029","accuracy":16,"date_taken":"2007-04-29 10:55:59","date_granularity":"0"},"geometry":{"type":"Point","coordinates":[-120.048261,34.007561]}},{"type":"Feature","properties":{"park":"Channel_Islands_National_Park","id":"480835418","title":"Santa Rosa_0028","accuracy":16,"date_taken":"2007-04-29 10:54:01","date_granularity":"0"},"geometry":{"type":"Point","coordinates":[-120.048261,34.007561]}},{"type":"Feature","properties":{"park":"Channel_Islands_National_Park","id":"480835338","title":"Santa Rosa_0027","accuracy":16,"date_taken":"2007-04-29 10:40:01","date_granularity":"0"},"geometry":{"type":"Point","coordinates":[-120.048261,34.007561]}},{"type":"Feature","properties":{"park":"Channel_Islands_National_Park","id":"480835272","title":"Santa Rosa_0026","accuracy":16,"date_taken":"2007-04-29 10:39:43","date_granularity":"0"},"geometry":{"type":"Point","coordinates":[-120.048261,34.007561]}},{"type":"Feature","properties":{"park":"Channel_Islands_National_Park","id":"480844473","title":"Santa Rosa Island Bluff Panorama 1","accuracy":15,"date_taken":"2007-05-01 20:28:05","date_granularity":"0"},"geometry":{"type":"Point","coordinates":[-120.054323,33.993526]}},{"type":"Feature","properties":{"park":"Channel_Islands_National_Park","id":"480844451","title":"Santa Rosa Hilltop Panorama 2","accuracy":15,"date_taken":"2007-05-01 20:28:03","date_granularity":"0"},"geometry":{"type":"Point","coordinates":[-120.054323,33.993526]}},{"type":"Feature","properties":{"park":"Channel_Islands_National_Park","id":"480844427","title":"Three Arches","accuracy":15,"date_taken":"2007-05-01 20:28:01","date_granularity":"0"},"geometry":{"type":"Point","coordinates":[-119.798033,34.058152]}},{"type":"Feature","properties":{"park":"Channel_Islands_National_Park","id":"434315102","title":"Santa Rosa Island Pier","accuracy":16,"date_taken":"2006-11-13 07:36:27","date_granularity":"0"},"geometry":{"type":"Point","coordinates":[-120.048637,34.00685]}},{"type":"Feature","properties":{"park":"Channel_Islands_National_Park","id":"434314982","title":"Deer of the Pines","accuracy":16,"date_taken":"2006-09-21 07:29:50","date_granularity":"0"},"geometry":{"type":"Point","coordinates":[-120.030784,33.984363]}},{"type":"Feature","properties":{"park":"Channel_Islands_National_Park","id":"434314832","title":"Early morning wanderers","accuracy":16,"date_taken":"2006-09-21 07:16:56","date_granularity":"0"},"geometry":{"type":"Point","coordinates":[-120.046234,33.983794]}},{"type":"Feature","properties":{"park":"Channel_Islands_National_Park","id":"434314730","title":"Fence Repair","accuracy":16,"date_taken":"2006-09-27 07:04:54","date_granularity":"0"},"geometry":{"type":"Point","coordinates":[-120.060653,34.014249]}},{"type":"Feature","properties":{"park":"Channel_Islands_National_Park","id":"434314666","title":"The Vail House","accuracy":16,"date_taken":"2006-10-02 07:31:08","date_granularity":"0"},"geometry":{"type":"Point","coordinates":[-120.054473,34.005285]}},{"type":"Feature","properties":{"park":"Channel_Islands_National_Park","id":"434314552","title":"Shades of Island Oaks","accuracy":16,"date_taken":"2006-09-28 18:38:46","date_granularity":"0"},"geometry":{"type":"Point","coordinates":[-120.106658,33.966142]}},{"type":"Feature","properties":{"park":"Channel_Islands_National_Park","id":"434312667","title":"Vail House Entrance","accuracy":16,"date_taken":"2006-10-02 07:36:13","date_granularity":"0"},"geometry":{"type":"Point","coordinates":[-120.054473,34.005285]}},{"type":"Feature","properties":{"park":"Channel_Islands_National_Park","id":"434314370","title":"Riparian Oasis","accuracy":16,"date_taken":"2006-11-14 08:45:44","date_granularity":"0"},"geometry":{"type":"Point","coordinates":[-120.013275,33.962725]}},{"type":"Feature","properties":{"park":"Channel_Islands_National_Park","id":"434314222","title":"Low tide boulders","accuracy":16,"date_taken":"2006-10-08 17:38:24","date_granularity":"0"},"geometry":{"type":"Point","coordinates":[-119.982376,33.965857]}},{"type":"Feature","properties":{"park":"Channel_Islands_National_Park","id":"434312359","title":"Mr. Curly Horns","accuracy":16,"date_taken":"2006-08-21 16:14:14","date_granularity":"0"},"geometry":{"type":"Point","coordinates":[-120.069923,34.022502]}},{"type":"Feature","properties":{"park":"Channel_Islands_National_Park","id":"384082118","title":"Y02_T3_Sep_SCI_BabysHb_Fdisp_OB_1263940c","accuracy":16,"date_taken":"2007-02-08 14:24:38","date_granularity":"0"},"geometry":{"type":"Point","coordinates":[-119.786908,34.056115]}},{"type":"Feature","properties":{"park":"Channel_Islands_National_Park","id":"367150170","title":"catamaran surfing in the Potato Patch","accuracy":16,"date_taken":"2005-07-28 15:16:00","date_granularity":"0"},"geometry":{"type":"Point","coordinates":[-119.94347,34.05427]}},{"type":"Feature","properties":{"park":"Channel_Islands_National_Park","id":"367150171","title":"GARY Prepare to dive","accuracy":16,"date_taken":"2005-07-28 15:16:00","date_granularity":"0"},"geometry":{"type":"Point","coordinates":[-119.94347,34.05427]}},{"type":"Feature","properties":{"park":"Channel_Islands_National_Park","id":"367150173","title":"GARY Rudder Wake in following seas  The Potato Patch","accuracy":16,"date_taken":"2005-07-28 15:16:00","date_granularity":"0"},"geometry":{"type":"Point","coordinates":[-119.94347,34.05427]}},{"type":"Feature","properties":{"park":"Channel_Islands_National_Park","id":"358399239","title":"Pozo","accuracy":16,"date_taken":"2002-07-19 10:00:00","date_granularity":"0"},"geometry":{"type":"Point","coordinates":[-119.86771,33.98015]}},{"type":"Feature","properties":{"park":"Channel_Islands_National_Park","id":"358399234","title":"Laguna","accuracy":16,"date_taken":"2002-07-19 09:30:00","date_granularity":"0"},"geometry":{"type":"Point","coordinates":[-119.79313,33.96236]}},{"type":"Feature","properties":{"park":"Channel_Islands_National_Park","id":"357181510","title":"Forneys","accuracy":16,"date_taken":"2003-06-23 14:00:00","date_granularity":"0"},"geometry":{"type":"Point","coordinates":[-119.926904,34.057101]}},{"type":"Feature","properties":{"park":"Channel_Islands_National_Park","id":"357181507","title":"Bechers","accuracy":16,"date_taken":"2003-06-24 09:30:00","date_granularity":"0"},"geometry":{"type":"Point","coordinates":[-120.04792,34.009678]}},{"type":"Feature","properties":{"park":"Channel_Islands_National_Park","id":"357181505","title":"Bechers pier","accuracy":16,"date_taken":"2003-06-23 16:00:00","date_granularity":"0"},"geometry":{"type":"Point","coordinates":[-120.042488,34.009384]}},{"type":"Feature","properties":{"park":"Channel_Islands_National_Park","id":"357181508","title":"Forneys Cove","accuracy":16,"date_taken":"2003-06-23 14:30:00","date_granularity":"0"},"geometry":{"type":"Point","coordinates":[-119.911916,34.056928]}},{"type":"Feature","properties":{"park":"Channel_Islands_National_Park","id":"337022997","title":"Male Elephant Seal","accuracy":16,"date_taken":"2004-03-11 14:28:56","date_granularity":"0"},"geometry":{"type":"Point","coordinates":[-120.447063,34.033314]}},{"type":"Feature","properties":{"park":"Channel_Islands_National_Park","id":"337022423","title":"Elephant Seal Pups","accuracy":16,"date_taken":"2004-03-12 12:56:34","date_granularity":"0"},"geometry":{"type":"Point","coordinates":[-120.447063,34.033314]}},{"type":"Feature","properties":{"park":"Channel_Islands_National_Park","id":"337022376","title":"A Big Nose","accuracy":16,"date_taken":"2004-03-14 14:00:33","date_granularity":"0"},"geometry":{"type":"Point","coordinates":[-120.447063,34.033314]}},{"type":"Feature","properties":{"park":"Channel_Islands_National_Park","id":"302243967","title":"View of Christy Beach","accuracy":16,"date_taken":"2006-11-11 23:12:34","date_granularity":"0"},"geometry":{"type":"Point","coordinates":[-119.874685,34.020594]}},{"type":"Feature","properties":{"park":"Channel_Islands_National_Park","id":"284461316","title":"flying brother #1","accuracy":16,"date_taken":"2006-10-30 23:54:47","date_granularity":"0"},"geometry":{"type":"Point","coordinates":[-120.040714,33.993855]}},{"type":"Feature","properties":{"park":"Channel_Islands_National_Park","id":"280808558","title":"mike collard","accuracy":15,"date_taken":"2006-10-27 09:19:10","date_granularity":"0"},"geometry":{"type":"Point","coordinates":[-120.048862,33.990573]}},{"type":"Feature","properties":{"park":"Channel_Islands_National_Park","id":"278904308","title":"wind shelter","accuracy":15,"date_taken":"2006-10-20 18:07:48","date_granularity":"0"},"geometry":{"type":"Point","coordinates":[-120.048862,33.990573]}},{"type":"Feature","properties":{"park":"Channel_Islands_National_Park","id":"276886983","title":"URCHINS___GARABALDI","accuracy":15,"date_taken":"2001-04-11 00:00:15","date_granularity":"0"},"geometry":{"type":"Point","coordinates":[-120.073463,33.975369]}},{"type":"Feature","properties":{"park":"Channel_Islands_National_Park","id":"276886923","title":"SEAL___SUN","accuracy":15,"date_taken":"2001-04-11 00:00:14","date_granularity":"0"},"geometry":{"type":"Point","coordinates":[-120.073463,33.975369]}},{"type":"Feature","properties":{"park":"Channel_Islands_National_Park","id":"276886811","title":"PIA_POSE","accuracy":15,"date_taken":"2001-04-11 00:00:11","date_granularity":"0"},"geometry":{"type":"Point","coordinates":[-120.073463,33.975369]}},{"type":"Feature","properties":{"park":"Channel_Islands_National_Park","id":"276886784","title":"PIA_ON_DECK","accuracy":15,"date_taken":"2001-04-11 00:00:10","date_granularity":"0"},"geometry":{"type":"Point","coordinates":[-120.073463,33.975369]}},{"type":"Feature","properties":{"park":"Channel_Islands_National_Park","id":"276886735","title":"NEUTRAL_BUOYANCY","accuracy":15,"date_taken":"2001-04-11 00:00:09","date_granularity":"0"},"geometry":{"type":"Point","coordinates":[-120.073463,33.975369]}},{"type":"Feature","properties":{"park":"Channel_Islands_National_Park","id":"276886681","title":"MACRO_NUDIBRANCH","accuracy":15,"date_taken":"2001-04-11 00:00:08","date_granularity":"0"},"geometry":{"type":"Point","coordinates":[-120.073463,33.975369]}},{"type":"Feature","properties":{"park":"Channel_Islands_National_Park","id":"276886649","title":"GARABALDI_ON_GRASS","accuracy":15,"date_taken":"2001-04-11 00:00:07","date_granularity":"0"},"geometry":{"type":"Point","coordinates":[-120.073463,33.975369]}},{"type":"Feature","properties":{"park":"Channel_Islands_National_Park","id":"276886394","title":"CHRISTER_SUPERMAN","accuracy":15,"date_taken":"2001-04-11 00:00:04","date_granularity":"0"},"geometry":{"type":"Point","coordinates":[-120.073463,33.975369]}},{"type":"Feature","properties":{"park":"Channel_Islands_National_Park","id":"276886252","title":"ANDY_ON_DECK","accuracy":15,"date_taken":"2001-04-11 00:00:02","date_granularity":"0"},"geometry":{"type":"Point","coordinates":[-120.073463,33.975369]}},{"type":"Feature","properties":{"park":"Channel_Islands_National_Park","id":"276886187","title":"ANDY_IN_KELP_FRAME","accuracy":15,"date_taken":"2001-04-11 00:00:01","date_granularity":"0"},"geometry":{"type":"Point","coordinates":[-120.073463,33.975369]}},{"type":"Feature","properties":{"park":"Channel_Islands_National_Park","id":"58420438","title":"DSCF0224.JPG","accuracy":16,"date_taken":"2005-10-21 10:28:17","date_granularity":"0"},"geometry":{"type":"Point","coordinates":[-120.048379,33.990991]}},{"type":"Feature","properties":{"park":"Channel_Islands_National_Park","id":"58420392","title":"DSCF0221.JPG","accuracy":16,"date_taken":"2005-10-21 10:26:17","date_granularity":"0"},"geometry":{"type":"Point","coordinates":[-120.048379,33.990991]}},{"type":"Feature","properties":{"park":"Channel_Islands_National_Park","id":"33197046","title":"Kayakers at Santa Rosa Island","accuracy":16,"date_taken":"2003-06-22 11:00:00","date_granularity":"0"},"geometry":{"type":"Point","coordinates":[-119.973633,33.971479]}},{"type":"Feature","properties":{"park":"Channel_Islands_National_Park","id":"33192851","title":"GARY East Point from Ford Point009","accuracy":16,"date_taken":"2005-08-11 09:39:01","date_granularity":"0"},"geometry":{"type":"Point","coordinates":[-120.05,33.9149]}},{"type":"Feature","properties":{"park":"Channel_Islands_National_Park","id":"33197047","title":"Solitude near sand dunes","accuracy":15,"date_taken":"2003-06-23 18:30:00","date_granularity":"0"},"geometry":{"type":"Point","coordinates":[-120.034217,33.99051]}},{"type":"Feature","properties":{"park":"Channel_Islands_National_Park","id":"2961820233","title":"Santa Rosa Island Sunrise","accuracy":15,"date_taken":"2004-01-28 22:55:41","date_granularity":"0"},"geometry":{"type":"Point","coordinates":[-120.040183,33.993188]}},{"type":"Feature","properties":{"park":"Channel_Islands_National_Park","id":"2886580856","title":"Pilings Entwined","accuracy":16,"date_taken":"2008-04-27 15:02:00","date_granularity":"0"},"geometry":{"type":"Point","coordinates":[-120.046952,34.00854]}},{"type":"Feature","properties":{"park":"Channel_Islands_National_Park","id":"2885728125","title":"Forgotten Farmhouse","accuracy":16,"date_taken":"2008-04-27 14:21:21","date_granularity":"0"},"geometry":{"type":"Point","coordinates":[-120.051265,34.00339]}},{"type":"Feature","properties":{"park":"Channel_Islands_National_Park","id":"2886561364","title":"Solar Powered Barn","accuracy":16,"date_taken":"2008-04-27 14:19:14","date_granularity":"0"},"geometry":{"type":"Point","coordinates":[-120.051437,34.002959]}},{"type":"Feature","properties":{"park":"Channel_Islands_National_Park","id":"2885684269","title":"Epic Solitude","accuracy":16,"date_taken":"2008-04-27 13:27:40","date_granularity":"0"},"geometry":{"type":"Point","coordinates":[-120.041105,33.994495]}},{"type":"Feature","properties":{"park":"Channel_Islands_National_Park","id":"2885621043","title":"P4270162","accuracy":16,"date_taken":"2008-04-27 13:05:28","date_granularity":"0"},"geometry":{"type":"Point","coordinates":[-120.042221,33.994753]}},{"type":"Feature","properties":{"park":"Channel_Islands_National_Park","id":"2886455340","title":"Ivory Shores","accuracy":16,"date_taken":"2008-04-27 13:05:02","date_granularity":"0"},"geometry":{"type":"Point","coordinates":[-120.042221,33.995176]}},{"type":"Feature","properties":{"park":"Channel_Islands_National_Park","id":"2885612661","title":"P4270158","accuracy":16,"date_taken":"2008-04-27 13:03:57","date_granularity":"0"},"geometry":{"type":"Point","coordinates":[-120.039163,33.992049]}},{"type":"Feature","properties":{"park":"Channel_Islands_National_Park","id":"2886445202","title":"P4270149","accuracy":16,"date_taken":"2008-04-27 12:56:12","date_granularity":"0"},"geometry":{"type":"Point","coordinates":[-120.038605,33.991996]}},{"type":"Feature","properties":{"park":"Channel_Islands_National_Park","id":"2885605967","title":"P4270148","accuracy":16,"date_taken":"2008-04-27 12:55:38","date_granularity":"0"},"geometry":{"type":"Point","coordinates":[-120.03852,33.992027]}},{"type":"Feature","properties":{"park":"Channel_Islands_National_Park","id":"2885597527","title":"Secret Canyon","accuracy":16,"date_taken":"2008-04-27 12:55:09","date_granularity":"0"},"geometry":{"type":"Point","coordinates":[-120.038509,33.992071]}},{"type":"Feature","properties":{"park":"Channel_Islands_National_Park","id":"2885590871","title":"Cliffbottom Cage","accuracy":16,"date_taken":"2008-04-27 12:26:15","date_granularity":"0"},"geometry":{"type":"Point","coordinates":[-120.041373,33.994553]}},{"type":"Feature","properties":{"park":"Channel_Islands_National_Park","id":"2886425336","title":"P4270134","accuracy":16,"date_taken":"2008-04-27 12:20:29","date_granularity":"0"},"geometry":{"type":"Point","coordinates":[-120.041824,33.994887]}},{"type":"Feature","properties":{"park":"Channel_Islands_National_Park","id":"2885572317","title":"P4270131","accuracy":16,"date_taken":"2008-04-27 12:18:47","date_granularity":"0"},"geometry":{"type":"Point","coordinates":[-120.046191,33.99949]}},{"type":"Feature","properties":{"park":"Channel_Islands_National_Park","id":"2886407498","title":"P4270130","accuracy":16,"date_taken":"2008-04-27 12:18:41","date_granularity":"0"},"geometry":{"type":"Point","coordinates":[-120.046191,33.99949]}},{"type":"Feature","properties":{"park":"Channel_Islands_National_Park","id":"2886405806","title":"Undisturbed Shores","accuracy":16,"date_taken":"2008-04-27 12:16:12","date_granularity":"0"},"geometry":{"type":"Point","coordinates":[-120.046759,34.000482]}},{"type":"Feature","properties":{"park":"Channel_Islands_National_Park","id":"2885567185","title":"P4270117","accuracy":16,"date_taken":"2008-04-27 12:08:46","date_granularity":"0"},"geometry":{"type":"Point","coordinates":[-120.047103,34.001127]}},{"type":"Feature","properties":{"park":"Channel_Islands_National_Park","id":"2885555559","title":"P4270106","accuracy":16,"date_taken":"2008-04-27 12:00:02","date_granularity":"0"},"geometry":{"type":"Point","coordinates":[-120.047328,34.002127]}},{"type":"Feature","properties":{"park":"Channel_Islands_National_Park","id":"2885549657","title":"P4270100","accuracy":15,"date_taken":"2008-04-27 11:57:13","date_granularity":"0"},"geometry":{"type":"Point","coordinates":[-120.04765,34.002759]}},{"type":"Feature","properties":{"park":"Channel_Islands_National_Park","id":"2886382394","title":"P4270099","accuracy":16,"date_taken":"2008-04-27 11:56:36","date_granularity":"0"},"geometry":{"type":"Point","coordinates":[-120.047467,34.004582]}},{"type":"Feature","properties":{"park":"Channel_Islands_National_Park","id":"2886379932","title":"P4270088","accuracy":16,"date_taken":"2008-04-27 11:49:24","date_granularity":"0"},"geometry":{"type":"Point","coordinates":[-120.046309,34.005876]}},{"type":"Feature","properties":{"park":"Channel_Islands_National_Park","id":"2885541231","title":"P4270081","accuracy":16,"date_taken":"2008-04-27 11:45:30","date_granularity":"0"},"geometry":{"type":"Point","coordinates":[-120.047703,34.007001]}},{"type":"Feature","properties":{"park":"Channel_Islands_National_Park","id":"2885538357","title":"P4270079","accuracy":16,"date_taken":"2008-04-27 11:44:23","date_granularity":"0"},"geometry":{"type":"Point","coordinates":[-120.048036,34.007246]}},{"type":"Feature","properties":{"park":"Channel_Islands_National_Park","id":"2885533131","title":"Cliffside Judgement","accuracy":16,"date_taken":"2008-04-27 11:44:12","date_granularity":"0"},"geometry":{"type":"Point","coordinates":[-120.048036,34.007246]}},{"type":"Feature","properties":{"park":"Channel_Islands_National_Park","id":"2886363082","title":"P4270069","accuracy":16,"date_taken":"2008-04-27 11:36:08","date_granularity":"0"},"geometry":{"type":"Point","coordinates":[-120.048605,34.007619]}},{"type":"Feature","properties":{"park":"Channel_Islands_National_Park","id":"2886360930","title":"P4270068","accuracy":16,"date_taken":"2008-04-27 11:35:51","date_granularity":"0"},"geometry":{"type":"Point","coordinates":[-120.048755,34.007561]}},{"type":"Feature","properties":{"park":"Channel_Islands_National_Park","id":"2885522909","title":"P4270066","accuracy":16,"date_taken":"2008-04-27 11:33:05","date_granularity":"0"},"geometry":{"type":"Point","coordinates":[-120.048969,34.007486]}},{"type":"Feature","properties":{"park":"Channel_Islands_National_Park","id":"2885521485","title":"P4270065","accuracy":16,"date_taken":"2008-04-27 11:31:43","date_granularity":"0"},"geometry":{"type":"Point","coordinates":[-120.048025,34.007935]}},{"type":"Feature","properties":{"park":"Channel_Islands_National_Park","id":"2674296730","title":"Navanax inermis","accuracy":16,"date_taken":"2008-07-15 08:43:23","date_granularity":"0"},"geometry":{"type":"Point","coordinates":[-120.16365,34.009696]}},{"type":"Feature","properties":{"park":"Channel_Islands_National_Park","id":"2491201891","title":"Bird Island","accuracy":15,"date_taken":"2005-07-03 18:26:15","date_granularity":"0"},"geometry":{"type":"Point","coordinates":[-119.92061,34.055823]}},{"type":"Feature","properties":{"park":"Channel_Islands_National_Park","id":"2491201005","title":"West Side Sunset","accuracy":15,"date_taken":"2005-07-03 18:25:28","date_granularity":"0"},"geometry":{"type":"Point","coordinates":[-119.92061,34.055823]}},{"type":"Feature","properties":{"park":"Channel_Islands_National_Park","id":"2417634370","title":"Hopeful smiles","accuracy":16,"date_taken":"2007-09-18 13:15:23","date_granularity":"0"},"geometry":{"type":"Point","coordinates":[-120.42185,34.036778]}},{"type":"Feature","properties":{"park":"Channel_Islands_National_Park","id":"2417634118","title":"Leading with optimism","accuracy":16,"date_taken":"2007-09-18 13:16:46","date_granularity":"0"},"geometry":{"type":"Point","coordinates":[-120.422845,34.036062]}},{"type":"Feature","properties":{"park":"Channel_Islands_National_Park","id":"2416813299","title":"SMIA","accuracy":16,"date_taken":"2007-09-18 13:52:51","date_granularity":"0"},"geometry":{"type":"Point","coordinates":[-120.433172,34.031321]}},{"type":"Feature","properties":{"park":"Channel_Islands_National_Park","id":"2416813131","title":"And just as quick it was gone","accuracy":16,"date_taken":"2007-09-18 13:56:37","date_granularity":"0"},"geometry":{"type":"Point","coordinates":[-120.433167,34.031342]}},{"type":"Feature","properties":{"park":"Channel_Islands_National_Park","id":"2417632848","title":"Packing light","accuracy":16,"date_taken":"2007-09-18 14:27:35","date_granularity":"0"},"geometry":{"type":"Point","coordinates":[-120.433167,34.031342]}},{"type":"Feature","properties":{"park":"Channel_Islands_National_Park","id":"2416812253","title":"With a grain of sand...or salt","accuracy":16,"date_taken":"2007-09-18 16:36:21","date_granularity":"0"},"geometry":{"type":"Point","coordinates":[-120.433167,34.031342]}},{"type":"Feature","properties":{"park":"Channel_Islands_National_Park","id":"2416811883","title":"Heather the anchor","accuracy":16,"date_taken":"2007-09-18 17:31:25","date_granularity":"0"},"geometry":{"type":"Point","coordinates":[-120.433167,34.031342]}},{"type":"Feature","properties":{"park":"Channel_Islands_National_Park","id":"2416811359","title":"El Jefe","accuracy":16,"date_taken":"2007-09-18 17:52:26","date_granularity":"0"},"geometry":{"type":"Point","coordinates":[-120.433167,34.031342]}},{"type":"Feature","properties":{"park":"Channel_Islands_National_Park","id":"2417631486","title":"Hard labor","accuracy":16,"date_taken":"2007-09-18 17:52:58","date_granularity":"0"},"geometry":{"type":"Point","coordinates":[-120.433167,34.031342]}},{"type":"Feature","properties":{"park":"Channel_Islands_National_Park","id":"2417631066","title":"Single file","accuracy":16,"date_taken":"2007-09-18 17:59:03","date_granularity":"0"},"geometry":{"type":"Point","coordinates":[-120.433167,34.031342]}},{"type":"Feature","properties":{"park":"Channel_Islands_National_Park","id":"2416810185","title":"Our first day completo","accuracy":16,"date_taken":"2007-09-18 18:36:49","date_granularity":"0"},"geometry":{"type":"Point","coordinates":[-120.433167,34.031342]}},{"type":"Feature","properties":{"park":"Channel_Islands_National_Park","id":"2416809685","title":"Groupies","accuracy":16,"date_taken":"2007-09-19 08:20:37","date_granularity":"0"},"geometry":{"type":"Point","coordinates":[-120.439539,34.032184]}},{"type":"Feature","properties":{"park":"Channel_Islands_National_Park","id":"2416809159","title":"A soaking","accuracy":16,"date_taken":"2007-09-19 08:21:18","date_granularity":"0"},"geometry":{"type":"Point","coordinates":[-120.439539,34.032184]}},{"type":"Feature","properties":{"park":"Channel_Islands_National_Park","id":"2416807891","title":"How many gov't workers...nevermind","accuracy":16,"date_taken":"2007-09-19 08:39:41","date_granularity":"0"},"geometry":{"type":"Point","coordinates":[-120.439539,34.032184]}},{"type":"Feature","properties":{"park":"Channel_Islands_National_Park","id":"2417627956","title":"Weighty","accuracy":16,"date_taken":"2007-09-19 08:56:51","date_granularity":"0"},"geometry":{"type":"Point","coordinates":[-120.439539,34.032184]}},{"type":"Feature","properties":{"park":"Channel_Islands_National_Park","id":"2416807157","title":"From snow to sand","accuracy":16,"date_taken":"2007-09-19 10:55:45","date_granularity":"0"},"geometry":{"type":"Point","coordinates":[-120.439539,34.032184]}},{"type":"Feature","properties":{"park":"Channel_Islands_National_Park","id":"2416806801","title":"Thinkers....or not","accuracy":16,"date_taken":"2007-09-19 12:36:41","date_granularity":"0"},"geometry":{"type":"Point","coordinates":[-120.439539,34.032184]}},{"type":"Feature","properties":{"park":"Channel_Islands_National_Park","id":"2417627068","title":"The lunch crowd...a wee shy","accuracy":16,"date_taken":"2007-09-19 12:41:08","date_granularity":"0"},"geometry":{"type":"Point","coordinates":[-120.439539,34.032184]}},{"type":"Feature","properties":{"park":"Channel_Islands_National_Park","id":"2416806219","title":"Poster pup","accuracy":16,"date_taken":"2007-09-19 13:06:49","date_granularity":"0"},"geometry":{"type":"Point","coordinates":[-120.439539,34.032184]}},{"type":"Feature","properties":{"park":"Channel_Islands_National_Park","id":"2416805701","title":"Optimal reception","accuracy":16,"date_taken":"2007-09-19 13:12:37","date_granularity":"0"},"geometry":{"type":"Point","coordinates":[-120.439539,34.032184]}},{"type":"Feature","properties":{"park":"Channel_Islands_National_Park","id":"2417625220","title":"Bath beach post-sunset","accuracy":16,"date_taken":"2007-09-19 19:28:23","date_granularity":"0"},"geometry":{"type":"Point","coordinates":[-120.439539,34.032184]}},{"type":"Feature","properties":{"park":"Channel_Islands_National_Park","id":"2416804555","title":"Beachcombing by moonlight","accuracy":16,"date_taken":"2007-09-19 20:26:37","date_granularity":"0"},"geometry":{"type":"Point","coordinates":[-120.439539,34.032184]}},{"type":"Feature","properties":{"park":"Channel_Islands_National_Park","id":"2416804451","title":"Interspecies communication","accuracy":16,"date_taken":"2007-09-18 15:38:16","date_granularity":"0"},"geometry":{"type":"Point","coordinates":[-120.433167,34.031342]}},{"type":"Feature","properties":{"park":"Channel_Islands_National_Park","id":"2416803193","title":"Jeff squared","accuracy":16,"date_taken":"2007-09-18 15:39:04","date_granularity":"0"},"geometry":{"type":"Point","coordinates":[-120.433167,34.031342]}},{"type":"Feature","properties":{"park":"Channel_Islands_National_Park","id":"2416794109","title":"Tony using his head","accuracy":16,"date_taken":"2007-09-21 10:36:53","date_granularity":"0"},"geometry":{"type":"Point","coordinates":[-120.447159,34.032811]}},{"type":"Feature","properties":{"park":"Channel_Islands_National_Park","id":"2417614070","title":"A sandy cutey","accuracy":16,"date_taken":"2007-09-21 09:50:46","date_granularity":"0"},"geometry":{"type":"Point","coordinates":[-120.445646,34.03078]}},{"type":"Feature","properties":{"park":"Channel_Islands_National_Park","id":"2417613598","title":"Research station with a view","accuracy":16,"date_taken":"2007-09-21 08:23:22","date_granularity":"0"},"geometry":{"type":"Point","coordinates":[-120.439684,34.03217]}},{"type":"Feature","properties":{"park":"Channel_Islands_National_Park","id":"2417613330","title":"The lay of the land","accuracy":16,"date_taken":"2007-09-20 18:38:59","date_granularity":"0"},"geometry":{"type":"Point","coordinates":[-120.439684,34.03217]}},{"type":"Feature","properties":{"park":"Channel_Islands_National_Park","id":"2416792599","title":"You stopped me for this!!","accuracy":16,"date_taken":"2007-09-20 16:41:11","date_granularity":"0"},"geometry":{"type":"Point","coordinates":[-120.439684,34.03217]}},{"type":"Feature","properties":{"park":"Channel_Islands_National_Park","id":"2416792129","title":"SM AC","accuracy":16,"date_taken":"2007-09-20 12:29:46","date_granularity":"0"},"geometry":{"type":"Point","coordinates":[-120.439684,34.03217]}},{"type":"Feature","properties":{"park":"Channel_Islands_National_Park","id":"2416791787","title":"Priming the shower","accuracy":16,"date_taken":"2007-09-19 19:15:09","date_granularity":"0"},"geometry":{"type":"Point","coordinates":[-120.439539,34.032184]}},{"type":"Feature","properties":{"park":"Channel_Islands_National_Park","id":"2417611884","title":"A real beaut!","accuracy":16,"date_taken":"2007-09-19 09:47:36","date_granularity":"0"},"geometry":{"type":"Point","coordinates":[-120.439539,34.032184]}},{"type":"Feature","properties":{"park":"Channel_Islands_National_Park","id":"2416790949","title":"Who doesn't like a giant squirt gun?","accuracy":16,"date_taken":"2007-09-19 09:44:12","date_granularity":"0"},"geometry":{"type":"Point","coordinates":[-120.439539,34.032184]}},{"type":"Feature","properties":{"park":"Channel_Islands_National_Park","id":"2122199470","title":"Smiley copyright","accuracy":16,"date_taken":"2007-12-18 20:52:42","date_granularity":"0"},"geometry":{"type":"Point","coordinates":[-119.94347,34.05427]}},{"type":"Feature","properties":{"park":"Channel_Islands_National_Park","id":"2047158403","title":"Santa Rosa Island","accuracy":16,"date_taken":"2004-12-12 20:44:19","date_granularity":"0"},"geometry":{"type":"Point","coordinates":[-120.026589,33.986383]}},{"type":"Feature","properties":{"park":"Channel_Islands_National_Park","id":"2047155497","title":"Santa Rosa Island","accuracy":16,"date_taken":"2004-12-12 20:43:47","date_granularity":"0"},"geometry":{"type":"Point","coordinates":[-120.02689,33.984933]}},{"type":"Feature","properties":{"park":"Channel_Islands_National_Park","id":"2047149221","title":"Santa Rosa Island","accuracy":16,"date_taken":"2004-12-12 20:09:12","date_granularity":"0"},"geometry":{"type":"Point","coordinates":[-120.023746,33.982971]}},{"type":"Feature","properties":{"park":"Channel_Islands_National_Park","id":"2047144957","title":"Santa Rosa Island","accuracy":16,"date_taken":"2004-12-12 19:42:06","date_granularity":"0"},"geometry":{"type":"Point","coordinates":[-120.041298,33.99277]}},{"type":"Feature","properties":{"park":"Channel_Islands_National_Park","id":"1880319086","title":"Just hanging around...","accuracy":16,"date_taken":"2007-11-05 16:05:46","date_granularity":"0"},"geometry":{"type":"Point","coordinates":[-120.454734,34.027432]}},{"type":"Feature","properties":{"park":"Channel_Islands_National_Park","id":"1838146480","title":"santa_cruz07225","accuracy":16,"date_taken":"2007-10-13 18:24:32","date_granularity":"0"},"geometry":{"type":"Point","coordinates":[-119.929804,34.059832]}},{"type":"Feature","properties":{"park":"Channel_Islands_National_Park","id":"1838145948","title":"santa_cruz07223","accuracy":16,"date_taken":"2007-10-13 18:21:45","date_granularity":"0"},"geometry":{"type":"Point","coordinates":[-119.929804,34.059832]}},{"type":"Feature","properties":{"park":"Channel_Islands_National_Park","id":"613602033","title":"DSC02038","accuracy":16,"date_taken":"2007-06-24 12:28:36","date_granularity":"0"},"geometry":{"type":"Point","coordinates":[-120.054967,34.003306]}},{"type":"Feature","properties":{"park":"Channel_Islands_National_Park","id":"614358546","title":"DSC02031","accuracy":16,"date_taken":"2007-06-24 12:28:33","date_granularity":"0"},"geometry":{"type":"Point","coordinates":[-120.054967,34.003306]}},{"type":"Feature","properties":{"park":"Channel_Islands_National_Park","id":"489383375","title":"Santa Rosa Hilltop Panorama 2","accuracy":16,"date_taken":"2007-05-07 21:02:04","date_granularity":"0"},"geometry":{"type":"Point","coordinates":[-120.054967,34.003306]}},{"type":"Feature","properties":{"park":"Channel_Islands_National_Park","id":"489383321","title":"Santa Rosa Island Bluff Panorama 1","accuracy":16,"date_taken":"2007-05-07 21:02:01","date_granularity":"0"},"geometry":{"type":"Point","coordinates":[-120.054967,34.003306]}},{"type":"Feature","properties":{"park":"Channel_Islands_National_Park","id":"489383279","title":"Santa Rosa Island Road Panorama","accuracy":16,"date_taken":"2007-05-07 21:01:59","date_granularity":"0"},"geometry":{"type":"Point","coordinates":[-120.054967,34.003306]}},{"type":"Feature","properties":{"park":"Channel_Islands_National_Park","id":"480852855","title":"Santa Rosa_0131","accuracy":15,"date_taken":"2007-04-29 16:30:34","date_granularity":"0"},"geometry":{"type":"Point","coordinates":[-119.754753,34.053494]}},{"type":"Feature","properties":{"park":"Channel_Islands_National_Park","id":"480852785","title":"Santa Rosa_0130","accuracy":15,"date_taken":"2007-04-29 16:28:56","date_granularity":"0"},"geometry":{"type":"Point","coordinates":[-119.754753,34.053494]}},{"type":"Feature","properties":{"park":"Channel_Islands_National_Park","id":"480852699","title":"Santa Rosa_0129","accuracy":15,"date_taken":"2007-04-29 16:28:48","date_granularity":"0"},"geometry":{"type":"Point","coordinates":[-119.754753,34.053494]}},{"type":"Feature","properties":{"park":"Channel_Islands_National_Park","id":"480842452","title":"Santa Rosa_0128","accuracy":15,"date_taken":"2007-04-29 16:28:38","date_granularity":"0"},"geometry":{"type":"Point","coordinates":[-119.754753,34.053494]}},{"type":"Feature","properties":{"park":"Channel_Islands_National_Park","id":"480852517","title":"Santa Rosa_0127","accuracy":15,"date_taken":"2007-04-29 16:28:24","date_granularity":"0"},"geometry":{"type":"Point","coordinates":[-119.754753,34.053494]}},{"type":"Feature","properties":{"park":"Channel_Islands_National_Park","id":"480852447","title":"Santa Rosa_0126","accuracy":15,"date_taken":"2007-04-29 16:27:50","date_granularity":"0"},"geometry":{"type":"Point","coordinates":[-119.754753,34.053494]}},{"type":"Feature","properties":{"park":"Channel_Islands_National_Park","id":"480842264","title":"Santa Rosa_0125","accuracy":15,"date_taken":"2007-04-29 16:27:03","date_granularity":"0"},"geometry":{"type":"Point","coordinates":[-119.798033,34.058152]}},{"type":"Feature","properties":{"park":"Channel_Islands_National_Park","id":"480852339","title":"Santa Rosa_0124","accuracy":15,"date_taken":"2007-04-29 16:25:24","date_granularity":"0"},"geometry":{"type":"Point","coordinates":[-119.798033,34.058152]}},{"type":"Feature","properties":{"park":"Channel_Islands_National_Park","id":"480842132","title":"Santa Rosa_0123","accuracy":15,"date_taken":"2007-04-29 16:24:30","date_granularity":"0"},"geometry":{"type":"Point","coordinates":[-119.798033,34.058152]}},{"type":"Feature","properties":{"park":"Channel_Islands_National_Park","id":"480842094","title":"Santa Rosa_0122","accuracy":15,"date_taken":"2007-04-29 16:22:38","date_granularity":"0"},"geometry":{"type":"Point","coordinates":[-119.798033,34.058152]}},{"type":"Feature","properties":{"park":"Channel_Islands_National_Park","id":"480842038","title":"Santa Rosa_0121","accuracy":15,"date_taken":"2007-04-29 16:20:09","date_granularity":"0"},"geometry":{"type":"Point","coordinates":[-119.798033,34.058152]}},{"type":"Feature","properties":{"park":"Channel_Islands_National_Park","id":"480841988","title":"Santa Rosa_0120","accuracy":15,"date_taken":"2007-04-29 16:20:03","date_granularity":"0"},"geometry":{"type":"Point","coordinates":[-119.798033,34.058152]}},{"type":"Feature","properties":{"park":"Channel_Islands_National_Park","id":"480852097","title":"Santa Rosa_0119","accuracy":15,"date_taken":"2007-04-29 16:19:53","date_granularity":"0"},"geometry":{"type":"Point","coordinates":[-119.798033,34.058152]}},{"type":"Feature","properties":{"park":"Channel_Islands_National_Park","id":"480852009","title":"Santa Rosa_0118","accuracy":15,"date_taken":"2007-04-29 16:19:39","date_granularity":"0"},"geometry":{"type":"Point","coordinates":[-119.798033,34.058152]}},{"type":"Feature","properties":{"park":"Channel_Islands_National_Park","id":"480841800","title":"Santa Rosa_0117","accuracy":15,"date_taken":"2007-04-29 16:19:31","date_granularity":"0"},"geometry":{"type":"Point","coordinates":[-119.798033,34.058152]}},{"type":"Feature","properties":{"park":"Channel_Islands_National_Park","id":"480841748","title":"Santa Rosa_0116","accuracy":15,"date_taken":"2007-04-29 16:19:16","date_granularity":"0"},"geometry":{"type":"Point","coordinates":[-119.798033,34.058152]}},{"type":"Feature","properties":{"park":"Channel_Islands_National_Park","id":"480851837","title":"Santa Rosa_0115","accuracy":15,"date_taken":"2007-04-29 16:19:09","date_granularity":"0"},"geometry":{"type":"Point","coordinates":[-119.798033,34.058152]}},{"type":"Feature","properties":{"park":"Channel_Islands_National_Park","id":"480841576","title":"Santa Rosa_0114","accuracy":15,"date_taken":"2007-04-29 16:09:49","date_granularity":"0"},"geometry":{"type":"Point","coordinates":[-119.86526,34.070204]}},{"type":"Feature","properties":{"park":"Channel_Islands_National_Park","id":"480851677","title":"Santa Rosa_0113","accuracy":15,"date_taken":"2007-04-29 16:09:40","date_granularity":"0"},"geometry":{"type":"Point","coordinates":[-119.86526,34.070204]}},{"type":"Feature","properties":{"park":"Channel_Islands_National_Park","id":"480851589","title":"Santa Rosa_0112","accuracy":15,"date_taken":"2007-04-29 16:08:49","date_granularity":"0"},"geometry":{"type":"Point","coordinates":[-119.86526,34.070204]}},{"type":"Feature","properties":{"park":"Channel_Islands_National_Park","id":"480841336","title":"Santa Rosa_0111","accuracy":15,"date_taken":"2007-04-29 16:08:14","date_granularity":"0"},"geometry":{"type":"Point","coordinates":[-119.86526,34.070204]}},{"type":"Feature","properties":{"park":"Channel_Islands_National_Park","id":"480841274","title":"Santa Rosa_0110","accuracy":15,"date_taken":"2007-04-29 16:07:47","date_granularity":"0"},"geometry":{"type":"Point","coordinates":[-119.86526,34.070204]}},{"type":"Feature","properties":{"park":"Channel_Islands_National_Park","id":"480851409","title":"Santa Rosa_0109","accuracy":15,"date_taken":"2007-04-29 16:07:10","date_granularity":"0"},"geometry":{"type":"Point","coordinates":[-119.86526,34.070204]}},{"type":"Feature","properties":{"park":"Channel_Islands_National_Park","id":"480851367","title":"Santa Rosa_0106","accuracy":15,"date_taken":"2007-04-29 16:04:33","date_granularity":"0"},"geometry":{"type":"Point","coordinates":[-119.86526,34.070204]}},{"type":"Feature","properties":{"park":"Channel_Islands_National_Park","id":"480851331","title":"Santa Rosa_0105","accuracy":15,"date_taken":"2007-04-29 16:04:09","date_granularity":"0"},"geometry":{"type":"Point","coordinates":[-119.86526,34.070204]}},{"type":"Feature","properties":{"park":"Channel_Islands_National_Park","id":"480851265","title":"Santa Rosa_0104","accuracy":15,"date_taken":"2007-04-29 16:04:00","date_granularity":"0"},"geometry":{"type":"Point","coordinates":[-119.86526,34.070204]}},{"type":"Feature","properties":{"park":"Channel_Islands_National_Park","id":"480851207","title":"Santa Rosa_0103","accuracy":15,"date_taken":"2007-04-29 16:03:49","date_granularity":"0"},"geometry":{"type":"Point","coordinates":[-119.86526,34.070204]}},{"type":"Feature","properties":{"park":"Channel_Islands_National_Park","id":"480851147","title":"Santa Rosa_0102","accuracy":15,"date_taken":"2007-04-29 16:03:37","date_granularity":"0"},"geometry":{"type":"Point","coordinates":[-119.86526,34.070204]}},{"type":"Feature","properties":{"park":"Channel_Islands_National_Park","id":"480851065","title":"Santa Rosa_0101","accuracy":15,"date_taken":"2007-04-29 16:03:27","date_granularity":"0"},"geometry":{"type":"Point","coordinates":[-119.86526,34.070204]}},{"type":"Feature","properties":{"park":"Channel_Islands_National_Park","id":"480851007","title":"Santa Rosa_0100","accuracy":15,"date_taken":"2007-04-29 16:03:09","date_granularity":"0"},"geometry":{"type":"Point","coordinates":[-119.86526,34.070204]}},{"type":"Feature","properties":{"park":"Channel_Islands_National_Park","id":"480850809","title":"Santa Rosa_0098","accuracy":15,"date_taken":"2007-04-29 15:59:18","date_granularity":"0"},"geometry":{"type":"Point","coordinates":[-119.86526,34.070204]}},{"type":"Feature","properties":{"park":"Channel_Islands_National_Park","id":"480840708","title":"Santa Rosa_0097","accuracy":15,"date_taken":"2007-04-29 15:59:04","date_granularity":"0"},"geometry":{"type":"Point","coordinates":[-119.86526,34.070204]}},{"type":"Feature","properties":{"park":"Channel_Islands_National_Park","id":"480850693","title":"Santa Rosa_0096","accuracy":15,"date_taken":"2007-04-29 15:58:56","date_granularity":"0"},"geometry":{"type":"Point","coordinates":[-119.86526,34.070204]}},{"type":"Feature","properties":{"park":"Channel_Islands_National_Park","id":"480840520","title":"Santa Rosa_0095","accuracy":15,"date_taken":"2007-04-29 15:58:21","date_granularity":"0"},"geometry":{"type":"Point","coordinates":[-119.86526,34.070204]}},{"type":"Feature","properties":{"park":"Channel_Islands_National_Park","id":"480840422","title":"Santa Rosa_0094","accuracy":15,"date_taken":"2007-04-29 15:56:59","date_granularity":"0"},"geometry":{"type":"Point","coordinates":[-119.86526,34.070204]}},{"type":"Feature","properties":{"park":"Channel_Islands_National_Park","id":"480850345","title":"Santa Rosa_0093","accuracy":15,"date_taken":"2007-04-29 15:56:01","date_granularity":"0"},"geometry":{"type":"Point","coordinates":[-119.906995,34.077207]}},{"type":"Feature","properties":{"park":"Channel_Islands_National_Park","id":"480850303","title":"Santa Rosa_0092","accuracy":15,"date_taken":"2007-04-29 15:55:28","date_granularity":"0"},"geometry":{"type":"Point","coordinates":[-119.906995,34.077207]}},{"type":"Feature","properties":{"park":"Channel_Islands_National_Park","id":"480850277","title":"Santa Rosa_0091","accuracy":15,"date_taken":"2007-04-29 15:55:13","date_granularity":"0"},"geometry":{"type":"Point","coordinates":[-119.906995,34.077207]}},{"type":"Feature","properties":{"park":"Channel_Islands_National_Park","id":"480840248","title":"Santa Rosa_0088","accuracy":16,"date_taken":"2007-04-29 14:20:35","date_granularity":"0"},"geometry":{"type":"Point","coordinates":[-120.048261,34.007561]}},{"type":"Feature","properties":{"park":"Channel_Islands_National_Park","id":"480840180","title":"Santa Rosa_0087","accuracy":16,"date_taken":"2007-04-29 14:20:10","date_granularity":"0"},"geometry":{"type":"Point","coordinates":[-120.048261,34.007561]}},{"type":"Feature","properties":{"park":"Channel_Islands_National_Park","id":"480850135","title":"Santa Rosa_0086","accuracy":16,"date_taken":"2007-04-29 14:19:05","date_granularity":"0"},"geometry":{"type":"Point","coordinates":[-120.048261,34.007561]}},{"type":"Feature","properties":{"park":"Channel_Islands_National_Park","id":"480840016","title":"Santa Rosa_0085","accuracy":16,"date_taken":"2007-04-29 14:18:34","date_granularity":"0"},"geometry":{"type":"Point","coordinates":[-120.048261,34.007561]}},{"type":"Feature","properties":{"park":"Channel_Islands_National_Park","id":"480839950","title":"Santa Rosa_0084","accuracy":16,"date_taken":"2007-04-29 14:17:37","date_granularity":"0"},"geometry":{"type":"Point","coordinates":[-120.048261,34.007561]}},{"type":"Feature","properties":{"park":"Channel_Islands_National_Park","id":"480849959","title":"Santa Rosa_0083","accuracy":16,"date_taken":"2007-04-29 14:15:33","date_granularity":"0"},"geometry":{"type":"Point","coordinates":[-120.048261,34.007561]}},{"type":"Feature","properties":{"park":"Channel_Islands_National_Park","id":"480839820","title":"Santa Rosa_0082","accuracy":16,"date_taken":"2007-04-29 14:15:22","date_granularity":"0"},"geometry":{"type":"Point","coordinates":[-120.048261,34.007561]}},{"type":"Feature","properties":{"park":"Channel_Islands_National_Park","id":"480849877","title":"Santa Rosa_0081","accuracy":16,"date_taken":"2007-04-29 14:14:43","date_granularity":"0"},"geometry":{"type":"Point","coordinates":[-120.048261,34.007561]}},{"type":"Feature","properties":{"park":"Channel_Islands_National_Park","id":"480839690","title":"Santa Rosa_0080","accuracy":16,"date_taken":"2007-04-29 14:14:15","date_granularity":"0"},"geometry":{"type":"Point","coordinates":[-120.048261,34.007561]}},{"type":"Feature","properties":{"park":"Channel_Islands_National_Park","id":"480849727","title":"Santa Rosa_0079","accuracy":16,"date_taken":"2007-04-29 14:13:24","date_granularity":"0"},"geometry":{"type":"Point","coordinates":[-120.048261,34.007561]}},{"type":"Feature","properties":{"park":"Channel_Islands_National_Park","id":"480839570","title":"Santa Rosa_0078","accuracy":16,"date_taken":"2007-04-29 14:13:20","date_granularity":"0"},"geometry":{"type":"Point","coordinates":[-120.048261,34.007561]}},{"type":"Feature","properties":{"park":"Channel_Islands_National_Park","id":"480849585","title":"Santa Rosa_0077","accuracy":16,"date_taken":"2007-04-29 14:10:38","date_granularity":"0"},"geometry":{"type":"Point","coordinates":[-120.048261,34.007561]}},{"type":"Feature","properties":{"park":"Channel_Islands_National_Park","id":"480839354","title":"Santa Rosa_0076","accuracy":16,"date_taken":"2007-04-29 14:09:36","date_granularity":"0"},"geometry":{"type":"Point","coordinates":[-120.048261,34.007561]}},{"type":"Feature","properties":{"park":"Channel_Islands_National_Park","id":"480839192","title":"Santa Rosa_0075","accuracy":16,"date_taken":"2007-04-29 14:09:26","date_granularity":"0"},"geometry":{"type":"Point","coordinates":[-120.048261,34.007561]}},{"type":"Feature","properties":{"park":"Channel_Islands_National_Park","id":"480839048","title":"Santa Rosa_0074","accuracy":16,"date_taken":"2007-04-29 14:09:05","date_granularity":"0"},"geometry":{"type":"Point","coordinates":[-120.048261,34.007561]}},{"type":"Feature","properties":{"park":"Channel_Islands_National_Park","id":"480849147","title":"Santa Rosa_0073","accuracy":16,"date_taken":"2007-04-29 14:08:36","date_granularity":"0"},"geometry":{"type":"Point","coordinates":[-120.048261,34.007561]}},{"type":"Feature","properties":{"park":"Channel_Islands_National_Park","id":"480848977","title":"Santa Rosa_0071","accuracy":16,"date_taken":"2007-04-29 14:05:08","date_granularity":"0"},"geometry":{"type":"Point","coordinates":[-120.048261,34.007561]}},{"type":"Feature","properties":{"park":"Channel_Islands_National_Park","id":"480848905","title":"Santa Rosa_0070","accuracy":16,"date_taken":"2007-04-29 13:57:41","date_granularity":"0"},"geometry":{"type":"Point","coordinates":[-120.048261,34.007561]}},{"type":"Feature","properties":{"park":"Channel_Islands_National_Park","id":"480848863","title":"Santa Rosa_0068","accuracy":16,"date_taken":"2007-04-29 13:54:05","date_granularity":"0"},"geometry":{"type":"Point","coordinates":[-120.048261,34.007561]}},{"type":"Feature","properties":{"park":"Channel_Islands_National_Park","id":"480848757","title":"Santa Rosa_0067","accuracy":16,"date_taken":"2007-04-29 13:53:35","date_granularity":"0"},"geometry":{"type":"Point","coordinates":[-120.048261,34.007561]}},{"type":"Feature","properties":{"park":"Channel_Islands_National_Park","id":"480838512","title":"Santa Rosa_0065","accuracy":16,"date_taken":"2007-04-29 13:51:37","date_granularity":"0"},"geometry":{"type":"Point","coordinates":[-120.048261,34.007561]}},{"type":"Feature","properties":{"park":"Channel_Islands_National_Park","id":"480848635","title":"Santa Rosa_0066","accuracy":16,"date_taken":"2007-04-29 13:52:52","date_granularity":"0"},"geometry":{"type":"Point","coordinates":[-120.048261,34.007561]}},{"type":"Feature","properties":{"park":"Channel_Islands_National_Park","id":"480848573","title":"Santa Rosa_0063","accuracy":16,"date_taken":"2007-04-29 13:50:23","date_granularity":"0"},"geometry":{"type":"Point","coordinates":[-120.048261,34.007561]}},{"type":"Feature","properties":{"park":"Channel_Islands_National_Park","id":"480848535","title":"Santa Rosa_0064","accuracy":16,"date_taken":"2007-04-29 13:51:29","date_granularity":"0"},"geometry":{"type":"Point","coordinates":[-120.048261,34.007561]}},{"type":"Feature","properties":{"park":"Channel_Islands_National_Park","id":"480848431","title":"Santa Rosa_0062","accuracy":16,"date_taken":"2007-04-29 13:49:36","date_granularity":"0"},"geometry":{"type":"Point","coordinates":[-120.048261,34.007561]}},{"type":"Feature","properties":{"park":"Channel_Islands_National_Park","id":"480848403","title":"Santa Rosa_0060","accuracy":16,"date_taken":"2007-04-29 13:46:14","date_granularity":"0"},"geometry":{"type":"Point","coordinates":[-120.048261,34.007561]}},{"type":"Feature","properties":{"park":"Channel_Islands_National_Park","id":"480838160","title":"Santa Rosa_0061","accuracy":16,"date_taken":"2007-04-29 13:46:48","date_granularity":"0"},"geometry":{"type":"Point","coordinates":[-120.048261,34.007561]}},{"type":"Feature","properties":{"park":"Channel_Islands_National_Park","id":"480838058","title":"Santa Rosa_0059","accuracy":16,"date_taken":"2007-04-29 13:45:55","date_granularity":"0"},"geometry":{"type":"Point","coordinates":[-120.048261,34.007561]}},{"type":"Feature","properties":{"park":"Channel_Islands_National_Park","id":"480837966","title":"Santa Rosa_0058","accuracy":16,"date_taken":"2007-04-29 13:43:48","date_granularity":"0"},"geometry":{"type":"Point","coordinates":[-120.048261,34.007561]}},{"type":"Feature","properties":{"park":"Channel_Islands_National_Park","id":"480837908","title":"Santa Rosa_0057","accuracy":16,"date_taken":"2007-04-29 13:40:04","date_granularity":"0"},"geometry":{"type":"Point","coordinates":[-120.048261,34.007561]}},{"type":"Feature","properties":{"park":"Channel_Islands_National_Park","id":"480848037","title":"Santa Rosa_0056","accuracy":16,"date_taken":"2007-04-29 13:39:53","date_granularity":"0"},"geometry":{"type":"Point","coordinates":[-120.048261,34.007561]}},{"type":"Feature","properties":{"park":"Channel_Islands_National_Park","id":"480837688","title":"Santa Rosa_0055","accuracy":16,"date_taken":"2007-04-29 13:38:47","date_granularity":"0"},"geometry":{"type":"Point","coordinates":[-120.048261,34.007561]}},{"type":"Feature","properties":{"park":"Channel_Islands_National_Park","id":"480837610","title":"Santa Rosa_0054","accuracy":16,"date_taken":"2007-04-29 13:36:00","date_granularity":"0"},"geometry":{"type":"Point","coordinates":[-120.049656,34.007219]}},{"type":"Feature","properties":{"park":"Channel_Islands_National_Park","id":"480847773","title":"Santa Rosa_0052","accuracy":16,"date_taken":"2007-04-29 13:23:00","date_granularity":"0"},"geometry":{"type":"Point","coordinates":[-120.052574,34.000615]}},{"type":"Feature","properties":{"park":"Channel_Islands_National_Park","id":"480837384","title":"Santa Rosa_0053","accuracy":16,"date_taken":"2007-04-29 13:24:07","date_granularity":"0"},"geometry":{"type":"Point","coordinates":[-120.052574,34.000615]}},{"type":"Feature","properties":{"park":"Channel_Islands_National_Park","id":"480847551","title":"Santa Rosa_0051","accuracy":16,"date_taken":"2007-04-29 13:20:39","date_granularity":"0"},"geometry":{"type":"Point","coordinates":[-120.052574,34.000615]}},{"type":"Feature","properties":{"park":"Channel_Islands_National_Park","id":"480847497","title":"Santa Rosa_0050","accuracy":15,"date_taken":"2007-04-29 13:16:57","date_granularity":"0"},"geometry":{"type":"Point","coordinates":[-120.054323,33.993526]}},{"type":"Feature","properties":{"park":"Channel_Islands_National_Park","id":"480837112","title":"Santa Rosa_0048","accuracy":15,"date_taken":"2007-04-29 12:50:05","date_granularity":"0"},"geometry":{"type":"Point","coordinates":[-120.054323,33.993526]}},{"type":"Feature","properties":{"park":"Channel_Islands_National_Park","id":"480847357","title":"Santa Rosa_0049","accuracy":15,"date_taken":"2007-04-29 12:50:34","date_granularity":"0"},"geometry":{"type":"Point","coordinates":[-120.054323,33.993526]}},{"type":"Feature","properties":{"park":"Channel_Islands_National_Park","id":"480836928","title":"Santa Rosa_0047","accuracy":16,"date_taken":"2007-04-29 12:40:43","date_granularity":"0"},"geometry":{"type":"Point","coordinates":[-120.058025,33.990848]}},{"type":"Feature","properties":{"park":"Channel_Islands_National_Park","id":"480836834","title":"Santa Rosa_0045","accuracy":16,"date_taken":"2007-04-29 12:17:17","date_granularity":"0"},"geometry":{"type":"Point","coordinates":[-120.058025,33.990848]}},{"type":"Feature","properties":{"park":"Channel_Islands_National_Park","id":"480836740","title":"Santa Rosa_0046","accuracy":16,"date_taken":"2007-04-29 12:19:29","date_granularity":"0"},"geometry":{"type":"Point","coordinates":[-120.058025,33.990848]}},{"type":"Feature","properties":{"park":"Channel_Islands_National_Park","id":"480847059","title":"Santa Rosa_0044","accuracy":16,"date_taken":"2007-04-29 12:15:35","date_granularity":"0"},"geometry":{"type":"Point","coordinates":[-120.058025,33.990848]}},{"type":"Feature","properties":{"park":"Channel_Islands_National_Park","id":"480846969","title":"Santa Rosa_0043","accuracy":16,"date_taken":"2007-04-29 12:14:16","date_granularity":"0"},"geometry":{"type":"Point","coordinates":[-120.058025,33.990848]}},{"type":"Feature","properties":{"park":"Channel_Islands_National_Park","id":"480836404","title":"Santa Rosa_0042","accuracy":16,"date_taken":"2007-04-29 12:13:26","date_granularity":"0"},"geometry":{"type":"Point","coordinates":[-120.060932,33.996933]}},{"type":"Feature","properties":{"park":"Channel_Islands_National_Park","id":"34180493134","title":"IMG_0839","accuracy":16,"date_taken":"2017-05-25 10:47:02","date_granularity":"0"},"geometry":{"type":"Point","coordinates":[-120.353448,34.043013]}},{"type":"Feature","properties":{"park":"Channel_Islands_National_Park","id":"34180492814","title":"IMG_0865","accuracy":16,"date_taken":"2017-05-25 11:26:22","date_granularity":"0"},"geometry":{"type":"Point","coordinates":[-120.352228,34.046322]}},{"type":"Feature","properties":{"park":"Channel_Islands_National_Park","id":"34180491914","title":"IMG_0938","accuracy":16,"date_taken":"2017-05-26 08:53:01","date_granularity":"0"},"geometry":{"type":"Point","coordinates":[-119.936989,34.085205]}},{"type":"Feature","properties":{"park":"Channel_Islands_National_Park","id":"34180491574","title":"IMG_0840","accuracy":16,"date_taken":"2017-05-25 10:47:19","date_granularity":"0"},"geometry":{"type":"Point","coordinates":[-120.353456,34.043111]}},{"type":"Feature","properties":{"park":"Channel_Islands_National_Park","id":"29620077753","title":"painted cave1","accuracy":15,"date_taken":"2016-09-14 17:35:14","date_granularity":"0"},"geometry":{"type":"Point","coordinates":[-119.850583,34.067716]}},{"type":"Feature","properties":{"park":"Channel_Islands_National_Park","id":"30134572102","title":"painted cave3A","accuracy":15,"date_taken":"2016-09-14 17:39:00","date_granularity":"0"},"geometry":{"type":"Point","coordinates":[-119.850583,34.067716]}},{"type":"Feature","properties":{"park":"Channel_Islands_National_Park","id":"30249805525","title":"painted cave4","accuracy":15,"date_taken":"2016-09-14 17:39:45","date_granularity":"0"},"geometry":{"type":"Point","coordinates":[-119.850583,34.067716]}},{"type":"Feature","properties":{"park":"Channel_Islands_National_Park","id":"30134340802","title":"beach2","accuracy":16,"date_taken":"2016-09-14 14:23:49","date_granularity":"0"},"geometry":{"type":"Point","coordinates":[-120.039668,33.99285]}},{"type":"Feature","properties":{"park":"Channel_Islands_National_Park","id":"30163900221","title":"sea kayakers","accuracy":15,"date_taken":"2016-09-14 16:24:38","date_granularity":"0"},"geometry":{"type":"Point","coordinates":[-120.048251,34.008504]}},{"type":"Feature","properties":{"park":"Channel_Islands_National_Park","id":"29952899070","title":"boat arrives","accuracy":15,"date_taken":"2016-09-14 16:56:28","date_granularity":"0"},"geometry":{"type":"Point","coordinates":[-120.048251,34.008504]}},{"type":"Feature","properties":{"park":"Channel_Islands_National_Park","id":"29521189400","title":"Haigiopagurus diegensis (Bluemouth Hermit Crab) - Olympus E-520 - Zuiko ED 50mm f/2","accuracy":16,"date_taken":"2016-08-20 11:54:56","date_granularity":"0"},"geometry":{"type":"Point","coordinates":[-119.906339,34.075697]}},{"type":"Feature","properties":{"park":"Channel_Islands_National_Park","id":"27510323335","title":"More close up of sea cave ceilings","accuracy":16,"date_taken":"2016-04-01 18:45:41","date_granularity":"0"},"geometry":{"type":"Point","coordinates":[-119.865313,34.069822]}},{"type":"Feature","properties":{"park":"Channel_Islands_National_Park","id":"27475865726","title":"Wall of Painted Cave","accuracy":16,"date_taken":"2016-04-01 18:46:17","date_granularity":"0"},"geometry":{"type":"Point","coordinates":[-119.865313,34.069822]}},{"type":"Feature","properties":{"park":"Channel_Islands_National_Park","id":"27510323045","title":"Spooky sea cave","accuracy":16,"date_taken":"2016-04-01 18:47:57","date_granularity":"0"},"geometry":{"type":"Point","coordinates":[-119.865313,34.069822]}},{"type":"Feature","properties":{"park":"Channel_Islands_National_Park","id":"27452514186","title":"Lonely Torrey Pine tree","accuracy":16,"date_taken":"2016-04-01 16:53:27","date_granularity":"0"},"geometry":{"type":"Point","coordinates":[-120.05162,33.999361]}},{"type":"Feature","properties":{"park":"Channel_Islands_National_Park","id":"27452513846","title":"Outhouse is out of order","accuracy":15,"date_taken":"2016-04-01 17:04:37","date_granularity":"0"},"geometry":{"type":"Point","coordinates":[-120.05001,34.006512]}},{"type":"Feature","properties":{"park":"Channel_Islands_National_Park","id":"27452514016","title":"The barn house built at Santa Rosa","accuracy":15,"date_taken":"2016-04-01 17:02:38","date_granularity":"0"},"geometry":{"type":"Point","coordinates":[-120.050439,34.007455]}},{"type":"Feature","properties":{"park":"Channel_Islands_National_Park","id":"27452513406","title":"View of Santa Rosa pier","accuracy":16,"date_taken":"2016-04-01 17:07:42","date_granularity":"0"},"geometry":{"type":"Point","coordinates":[-120.048615,34.007739]}},{"type":"Feature","properties":{"park":"Channel_Islands_National_Park","id":"27210058900","title":"Leaving from the island","accuracy":16,"date_taken":"2016-04-01 18:07:53","date_granularity":"0"},"geometry":{"type":"Point","coordinates":[-120.040472,34.005774]}},{"type":"Feature","properties":{"park":"Channel_Islands_National_Park","id":"27452512366","title":"Approaching the Painted Cave Marine conservation area","accuracy":15,"date_taken":"2016-04-01 18:35:54","date_granularity":"0"},"geometry":{"type":"Point","coordinates":[-119.868221,34.071839]}},{"type":"Feature","properties":{"park":"Channel_Islands_National_Park","id":"27210058800","title":"Painted Cave, Santa Cruz Island","accuracy":16,"date_taken":"2016-04-01 18:41:08","date_granularity":"0"},"geometry":{"type":"Point","coordinates":[-119.865388,34.069626]}},{"type":"Feature","properties":{"park":"Channel_Islands_National_Park","id":"27452511956","title":"Closer look inside the sea cave","accuracy":16,"date_taken":"2016-04-01 18:41:50","date_granularity":"0"},"geometry":{"type":"Point","coordinates":[-119.865388,34.069626]}},{"type":"Feature","properties":{"park":"Channel_Islands_National_Park","id":"26876314003","title":"Walking past the catci","accuracy":16,"date_taken":"2016-04-01 15:38:36","date_granularity":"0"},"geometry":{"type":"Point","coordinates":[-120.053068,33.990626]}},{"type":"Feature","properties":{"park":"Channel_Islands_National_Park","id":"26874840974","title":"Grassland dominates","accuracy":16,"date_taken":"2016-04-01 15:40:44","date_granularity":"0"},"geometry":{"type":"Point","coordinates":[-120.053958,33.993375]}},{"type":"Feature","properties":{"park":"Channel_Islands_National_Park","id":"27206974850","title":"Water Canyon campground","accuracy":16,"date_taken":"2016-04-01 15:53:09","date_granularity":"0"},"geometry":{"type":"Point","coordinates":[-120.048133,33.990991]}},{"type":"Feature","properties":{"park":"Channel_Islands_National_Park","id":"27206974510","title":"Through the cracks","accuracy":16,"date_taken":"2016-04-01 16:12:12","date_granularity":"0"},"geometry":{"type":"Point","coordinates":[-120.035494,33.99051]}},{"type":"Feature","properties":{"park":"Channel_Islands_National_Park","id":"26874839164","title":"Hidden gem of small canyon cracks","accuracy":16,"date_taken":"2016-04-01 16:18:37","date_granularity":"0"},"geometry":{"type":"Point","coordinates":[-120.035494,33.99051]}},{"type":"Feature","properties":{"park":"Channel_Islands_National_Park","id":"26876312143","title":"Small natural rock bridge","accuracy":16,"date_taken":"2016-04-01 16:17:26","date_granularity":"0"},"geometry":{"type":"Point","coordinates":[-120.035494,33.99051]}},{"type":"Feature","properties":{"park":"Channel_Islands_National_Park","id":"26876311583","title":"Leaving from the beach","accuracy":16,"date_taken":"2016-04-01 16:22:23","date_granularity":"0"},"geometry":{"type":"Point","coordinates":[-120.040601,33.993037]}},{"type":"Feature","properties":{"park":"Channel_Islands_National_Park","id":"27481152275","title":"Start trailhead by Soledad Road","accuracy":16,"date_taken":"2016-04-01 14:35:34","date_granularity":"0"},"geometry":{"type":"Point","coordinates":[-120.060052,33.999921]}},{"type":"Feature","properties":{"park":"Channel_Islands_National_Park","id":"27382282962","title":"Little canyon to go through","accuracy":16,"date_taken":"2016-04-01 14:43:59","date_granularity":"0"},"geometry":{"type":"Point","coordinates":[-120.061233,33.996212]}},{"type":"Feature","properties":{"park":"Channel_Islands_National_Park","id":"27382282622","title":"Purple wildflowers in sight","accuracy":16,"date_taken":"2016-04-01 15:09:52","date_granularity":"0"},"geometry":{"type":"Point","coordinates":[-120.054785,33.997315]}},{"type":"Feature","properties":{"park":"Channel_Islands_National_Park","id":"27204452220","title":"Hopping through grasslands","accuracy":16,"date_taken":"2016-04-01 15:16:19","date_granularity":"0"},"geometry":{"type":"Point","coordinates":[-120.05383,33.997689]}},{"type":"Feature","properties":{"park":"Channel_Islands_National_Park","id":"27382282212","title":"Posing at top of the trail","accuracy":16,"date_taken":"2016-04-01 15:16:52","date_granularity":"0"},"geometry":{"type":"Point","coordinates":[-120.052896,33.997377]}},{"type":"Feature","properties":{"park":"Channel_Islands_National_Park","id":"27204451670","title":"Trail through the Telephone Road","accuracy":16,"date_taken":"2016-04-01 15:27:48","date_granularity":"0"},"geometry":{"type":"Point","coordinates":[-120.054162,33.995652]}},{"type":"Feature","properties":{"park":"Channel_Islands_National_Park","id":"27402086271","title":"On the Pier entry to the island","accuracy":16,"date_taken":"2016-04-01 13:56:12","date_granularity":"0"},"geometry":{"type":"Point","coordinates":[-120.048379,34.007802]}},{"type":"Feature","properties":{"park":"Channel_Islands_National_Park","id":"27439472136","title":"Boat transportation by pier","accuracy":16,"date_taken":"2016-04-01 13:56:44","date_granularity":"0"},"geometry":{"type":"Point","coordinates":[-120.048347,34.007784]}},{"type":"Feature","properties":{"park":"Channel_Islands_National_Park","id":"27402086051","title":"Spring flowers","accuracy":16,"date_taken":"2016-04-01 14:02:01","date_granularity":"0"},"geometry":{"type":"Point","coordinates":[-120.048637,34.007757]}},{"type":"Feature","properties":{"park":"Channel_Islands_National_Park","id":"27197310070","title":"Santa Rose welcomes you","accuracy":16,"date_taken":"2016-04-01 14:04:39","date_granularity":"0"},"geometry":{"type":"Point","coordinates":[-120.048615,34.007739]}},{"type":"Feature","properties":{"park":"Channel_Islands_National_Park","id":"27439471496","title":"The fence grows old","accuracy":16,"date_taken":"2016-04-01 14:06:04","date_granularity":"0"},"geometry":{"type":"Point","coordinates":[-120.04912,34.007401]}},{"type":"Feature","properties":{"park":"Channel_Islands_National_Park","id":"26904773505","title":"Pachygrapsus salmicus","accuracy":16,"date_taken":"2016-05-08 11:44:32","date_granularity":"0"},"geometry":{"type":"Point","coordinates":[-119.996162,33.981694]}},{"type":"Feature","properties":{"park":"Channel_Islands_National_Park","id":"26904762115","title":"Skunk Point","accuracy":16,"date_taken":"2016-05-08 10:51:26","date_granularity":"0"},"geometry":{"type":"Point","coordinates":[-119.978181,33.981161]}},{"type":"Feature","properties":{"park":"Channel_Islands_National_Park","id":"26904721865","title":"DSC00199","accuracy":16,"date_taken":"2016-05-08 10:21:32","date_granularity":"0"},"geometry":{"type":"Point","coordinates":[-119.996699,33.981543]}},{"type":"Feature","properties":{"park":"Channel_Islands_National_Park","id":"26299502814","title":"DSC00187","accuracy":16,"date_taken":"2016-05-08 08:39:17","date_granularity":"0"},"geometry":{"type":"Point","coordinates":[-120.048025,33.991444]}},{"type":"Feature","properties":{"park":"Channel_Islands_National_Park","id":"26299168474","title":"DSC00107","accuracy":16,"date_taken":"2016-05-07 09:45:37","date_granularity":"0"},"geometry":{"type":"Point","coordinates":[-120.045,33.992681]}},{"type":"Feature","properties":{"park":"Channel_Islands_National_Park","id":"26300477633","title":"DSC00094","accuracy":16,"date_taken":"2016-05-06 16:27:01","date_granularity":"0"},"geometry":{"type":"Point","coordinates":[-119.969844,33.942042]}},{"type":"Feature","properties":{"park":"Channel_Islands_National_Park","id":"26304719601","title":"Santa Rosa Island, Channel Islands National Park. #island #hiking #nationalpark #channelislands","accuracy":16,"date_taken":"2016-04-11 08:19:03","date_granularity":0},"geometry":{"type":"Point","coordinates":[-120.108369,33.965681]}},{"type":"Feature","properties":{"park":"Channel_Islands_National_Park","id":"24783166631","title":"fringhead2Jan2-16","accuracy":16,"date_taken":"2016-01-02 14:01:12","date_granularity":"0"},"geometry":{"type":"Point","coordinates":[-120.405651,34.053655]}},{"type":"Feature","properties":{"park":"Channel_Islands_National_Park","id":"24783162531","title":"ab6Jan2-16","accuracy":16,"date_taken":"2016-01-02 13:35:55","date_granularity":"0"},"geometry":{"type":"Point","coordinates":[-120.405651,34.053655]}},{"type":"Feature","properties":{"park":"Channel_Islands_National_Park","id":"24850280486","title":"ab5Jan2-16","accuracy":16,"date_taken":"2016-01-02 13:35:13","date_granularity":"0"},"geometry":{"type":"Point","coordinates":[-120.405651,34.053655]}},{"type":"Feature","properties":{"park":"Channel_Islands_National_Park","id":"24876552295","title":"ab4Jan2-16","accuracy":16,"date_taken":"2016-01-02 13:33:11","date_granularity":"0"},"geometry":{"type":"Point","coordinates":[-120.405651,34.053655]}},{"type":"Feature","properties":{"park":"Channel_Islands_National_Park","id":"24249691263","title":"ab3Jan2-16","accuracy":16,"date_taken":"2016-01-02 13:29:54","date_granularity":"0"},"geometry":{"type":"Point","coordinates":[-120.405651,34.053655]}},{"type":"Feature","properties":{"park":"Channel_Islands_National_Park","id":"24850259636","title":"ab1Jan2-16","accuracy":16,"date_taken":"2016-01-02 13:28:18","date_granularity":"0"},"geometry":{"type":"Point","coordinates":[-120.405651,34.053655]}},{"type":"Feature","properties":{"park":"Channel_Islands_National_Park","id":"24758625272","title":"PelCrab4Jan6-16","accuracy":16,"date_taken":"2016-01-02 12:21:16","date_granularity":"0"},"geometry":{"type":"Point","coordinates":[-120.446206,34.052286]}},{"type":"Feature","properties":{"park":"Channel_Islands_National_Park","id":"24248363474","title":"PelCrab2Jan6-16","accuracy":16,"date_taken":"2016-01-02 12:17:07","date_granularity":"0"},"geometry":{"type":"Point","coordinates":[-120.446206,34.052286]}},{"type":"Feature","properties":{"park":"Channel_Islands_National_Park","id":"24249658033","title":"PelCrab1Jan2-16","accuracy":16,"date_taken":"2016-01-02 12:15:35","date_granularity":"0"},"geometry":{"type":"Point","coordinates":[-120.446206,34.052286]}},{"type":"Feature","properties":{"park":"Channel_Islands_National_Park","id":"24508904209","title":"snail3Jan2-16","accuracy":16,"date_taken":"2016-01-02 12:00:36","date_granularity":"0"},"geometry":{"type":"Point","coordinates":[-120.446206,34.052286]}},{"type":"Feature","properties":{"park":"Channel_Islands_National_Park","id":"24758595242","title":"sculpin2Jan2-16","accuracy":16,"date_taken":"2016-01-02 11:41:33","date_granularity":"0"},"geometry":{"type":"Point","coordinates":[-120.446206,34.052286]}},{"type":"Feature","properties":{"park":"Channel_Islands_National_Park","id":"24249635393","title":"snail2Jan2-16","accuracy":16,"date_taken":"2016-01-02 10:00:15","date_granularity":"0"},"geometry":{"type":"Point","coordinates":[-120.435156,34.056766]}},{"type":"Feature","properties":{"park":"Channel_Islands_National_Park","id":"24850209576","title":"snail1Jan2-16","accuracy":16,"date_taken":"2016-01-02 09:50:42","date_granularity":"0"},"geometry":{"type":"Point","coordinates":[-120.435156,34.056766]}},{"type":"Feature","properties":{"park":"Channel_Islands_National_Park","id":"21330819761","title":"Ventura, California, USA","accuracy":16,"date_taken":"2013-08-29 10:44:06","date_granularity":"0"},"geometry":{"type":"Point","coordinates":[-119.75647,34.002866]}},{"type":"Feature","properties":{"park":"Channel_Islands_National_Park","id":"20682358285","title":"Santa Rosa River","accuracy":16,"date_taken":"2015-08-03 17:26:38","date_granularity":"0"},"geometry":{"type":"Point","coordinates":[-120.100967,33.950005]}},{"type":"Feature","properties":{"park":"Channel_Islands_National_Park","id":"20673121242","title":"Santa Rosa Caves","accuracy":16,"date_taken":"2015-08-03 17:11:22","date_granularity":"0"},"geometry":{"type":"Point","coordinates":[-120.100967,33.950005]}},{"type":"Feature","properties":{"park":"Channel_Islands_National_Park","id":"20673084552","title":"Santa Rosa Landscape","accuracy":16,"date_taken":"2015-08-03 15:18:46","date_granularity":"0"},"geometry":{"type":"Point","coordinates":[-120.100967,33.950005]}},{"type":"Feature","properties":{"park":"Channel_Islands_National_Park","id":"20059723034","title":"Santa Rosa Island","accuracy":16,"date_taken":"2015-08-03 16:57:28","date_granularity":"0"},"geometry":{"type":"Point","coordinates":[-120.100967,33.950005]}},{"type":"Feature","properties":{"park":"Channel_Islands_National_Park","id":"19729018564","title":"Heart-leaf Keckiella","accuracy":16,"date_taken":"2015-07-21 13:36:10","date_granularity":"0"},"geometry":{"type":"Point","coordinates":[-119.748698,34.005455]}},{"type":"Feature","properties":{"park":"Channel_Islands_National_Park","id":"18566505536","title":"easy exit","accuracy":16,"date_taken":"2015-05-30 12:29:51","date_granularity":"0"},"geometry":{"type":"Point","coordinates":[-119.835564,34.064066]}},{"type":"Feature","properties":{"park":"Channel_Islands_National_Park","id":"18594988361","title":"Kelp rockfish","accuracy":16,"date_taken":"2015-05-29 11:13:51","date_granularity":"0"},"geometry":{"type":"Point","coordinates":[-119.754989,34.056297]}},{"type":"Feature","properties":{"park":"Channel_Islands_National_Park","id":"16168261453","title":"4281","accuracy":16,"date_taken":"2013-08-03 14:08:07","date_granularity":"0"},"geometry":{"type":"Point","coordinates":[-120.143834,34]}},{"type":"Feature","properties":{"park":"Channel_Islands_National_Park","id":"16455860102","title":"Purple Sea Urchin - Strongylocentrotus purpuratus","accuracy":15,"date_taken":"2009-12-20 15:07:41","date_granularity":"0"},"geometry":{"type":"Point","coordinates":[-119.771769,33.962387]}},{"type":"Feature","properties":{"park":"Channel_Islands_National_Park","id":"15322305864","title":"Island Scrub Jay, Aphelocoma insularis, Santa Cruz Island, California, Photo by Wes","accuracy":15,"date_taken":"2009-07-23 16:36:07","date_granularity":"0"},"geometry":{"type":"Point","coordinates":[-119.742329,33.984061]}},{"type":"Feature","properties":{"park":"Channel_Islands_National_Park","id":"15083784965","title":"Gorgonian","accuracy":16,"date_taken":"2014-08-26 11:21:45","date_granularity":"0"},"geometry":{"type":"Point","coordinates":[-119.889337,34.087925]}},{"type":"Feature","properties":{"park":"Channel_Islands_National_Park","id":"14897142050","title":"Giant abalone","accuracy":16,"date_taken":"2014-08-26 11:11:50","date_granularity":"0"},"geometry":{"type":"Point","coordinates":[-119.889337,34.087925]}},{"type":"Feature","properties":{"park":"Channel_Islands_National_Park","id":"15060779236","title":"Sea Hare","accuracy":16,"date_taken":"2014-08-26 08:56:37","date_granularity":"0"},"geometry":{"type":"Point","coordinates":[-119.889337,34.087925]}},{"type":"Feature","properties":{"park":"Channel_Islands_National_Park","id":"15083778855","title":"california moray eel","accuracy":16,"date_taken":"2014-08-26 06:19:14","date_granularity":"0"},"geometry":{"type":"Point","coordinates":[-119.889337,34.087925]}},{"type":"Feature","properties":{"park":"Channel_Islands_National_Park","id":"15060775556","title":"california moray eel","accuracy":16,"date_taken":"2014-08-26 06:19:08","date_granularity":"0"},"geometry":{"type":"Point","coordinates":[-119.889337,34.087925]}},{"type":"Feature","properties":{"park":"Channel_Islands_National_Park","id":"15083778145","title":"Spanish Shawl Nudibranch","accuracy":16,"date_taken":"2014-08-26 06:17:43","date_granularity":"0"},"geometry":{"type":"Point","coordinates":[-119.889337,34.087925]}},{"type":"Feature","properties":{"park":"Channel_Islands_National_Park","id":"15083777655","title":"Spanish Shawl","accuracy":16,"date_taken":"2014-08-26 06:17:37","date_granularity":"0"},"geometry":{"type":"Point","coordinates":[-119.889337,34.087925]}},{"type":"Feature","properties":{"park":"Channel_Islands_National_Park","id":"15083776565","title":"Tritonia festiva","accuracy":16,"date_taken":"2014-08-26 06:13:57","date_granularity":"0"},"geometry":{"type":"Point","coordinates":[-119.889337,34.087925]}},{"type":"Feature","properties":{"park":"Channel_Islands_National_Park","id":"14897081879","title":"Annenome and Shell","accuracy":16,"date_taken":"2014-08-25 15:32:01","date_granularity":"0"},"geometry":{"type":"Point","coordinates":[-119.889337,34.087925]}},{"type":"Feature","properties":{"park":"Channel_Islands_National_Park","id":"14897132440","title":"Spanish Shawl","accuracy":16,"date_taken":"2014-08-25 15:21:27","date_granularity":"0"},"geometry":{"type":"Point","coordinates":[-119.889337,34.087925]}},{"type":"Feature","properties":{"park":"Channel_Islands_National_Park","id":"15083773125","title":"Cooper Rockfish","accuracy":16,"date_taken":"2014-08-25 15:02:24","date_granularity":"0"},"geometry":{"type":"Point","coordinates":[-119.889337,34.087925]}},{"type":"Feature","properties":{"park":"Channel_Islands_National_Park","id":"14897193728","title":"Nudibranch","accuracy":16,"date_taken":"2014-08-25 14:53:30","date_granularity":"0"},"geometry":{"type":"Point","coordinates":[-119.889337,34.087925]}},{"type":"Feature","properties":{"park":"Channel_Islands_National_Park","id":"14897213237","title":"Sick Starfish","accuracy":16,"date_taken":"2014-08-25 14:49:18","date_granularity":"0"},"geometry":{"type":"Point","coordinates":[-119.889337,34.087925]}},{"type":"Feature","properties":{"park":"Channel_Islands_National_Park","id":"15083415822","title":"Algea","accuracy":16,"date_taken":"2014-08-25 10:10:50","date_granularity":"0"},"geometry":{"type":"Point","coordinates":[-119.889337,34.087925]}},{"type":"Feature","properties":{"park":"Channel_Islands_National_Park","id":"14897126900","title":"ncrd-channel-islands-5420140825","accuracy":16,"date_taken":"2014-08-25 08:04:56","date_granularity":"0"},"geometry":{"type":"Point","coordinates":[-119.889337,34.087925]}},{"type":"Feature","properties":{"park":"Channel_Islands_National_Park","id":"15083766825","title":"Barnnacles","accuracy":16,"date_taken":"2014-08-25 07:58:56","date_granularity":"0"},"geometry":{"type":"Point","coordinates":[-119.889337,34.087925]}},{"type":"Feature","properties":{"park":"Channel_Islands_National_Park","id":"14897205737","title":"Selp","accuracy":16,"date_taken":"2014-08-25 07:51:27","date_granularity":"0"},"geometry":{"type":"Point","coordinates":[-119.889337,34.087925]}},{"type":"Feature","properties":{"park":"Channel_Islands_National_Park","id":"15080750371","title":"Cowry and Urchin","accuracy":16,"date_taken":"2014-08-25 07:44:45","date_granularity":"0"},"geometry":{"type":"Point","coordinates":[-119.889337,34.087925]}},{"type":"Feature","properties":{"park":"Channel_Islands_National_Park","id":"14897204897","title":"Anemone","accuracy":16,"date_taken":"2014-08-24 15:32:23","date_granularity":"0"},"geometry":{"type":"Point","coordinates":[-119.889337,34.087925]}},{"type":"Feature","properties":{"park":"Channel_Islands_National_Park","id":"14897183888","title":"untitled-17720140824","accuracy":16,"date_taken":"2014-08-24 15:31:03","date_granularity":"0"},