{"type":"FeatureCollection","features":[{"type":"Feature","properties":{"park":"Isle_Royale_National_Park","id":"3414625279","title":"2008-07-02 Isle Royale Day 6 (4a1A) Gull at  Birch Island Dock RAY","accuracy":16,"date_taken":"2008-08-30 20:52:24","date_granularity":"0"},"geometry":{"type":"Point","coordinates":[-88.685792,48.109766]}},{"type":"Feature","properties":{"park":"Isle_Royale_National_Park","id":"3414624785","title":"2008-07-02 Isle Royale Day 6 (3b6) Loon Family in McCargoe Cove 8x10 RAY","accuracy":16,"date_taken":"2008-08-30 18:34:18","date_granularity":"0"},"geometry":{"type":"Point","coordinates":[-88.700662,48.094777]}},{"type":"Feature","properties":{"park":"Isle_Royale_National_Park","id":"3415431122","title":"2008-07-02 Isle Royale Day 6 (3b5) Loon Family in McCargoe Cove RAY","accuracy":16,"date_taken":"2008-08-30 18:34:04","date_granularity":"0"},"geometry":{"type":"Point","coordinates":[-88.700662,48.094777]}},{"type":"Feature","properties":{"park":"Isle_Royale_National_Park","id":"3415430664","title":"2008-07-02 Isle Royale Day 6 (3b4) Loon Family in McCargoe Cove RAY","accuracy":16,"date_taken":"2008-08-30 18:34:04","date_granularity":"0"},"geometry":{"type":"Point","coordinates":[-88.700662,48.094777]}},{"type":"Feature","properties":{"park":"Isle_Royale_National_Park","id":"3415429628","title":"2008-07-02 Isle Royale Day 6 (3b2) Loon Family in McCargoe Cove RAY","accuracy":16,"date_taken":"2008-08-30 18:33:59","date_granularity":"0"},"geometry":{"type":"Point","coordinates":[-88.700662,48.094777]}},{"type":"Feature","properties":{"park":"Isle_Royale_National_Park","id":"3414622357","title":"2008-07-02 Isle Royale Day 6 (3b1) Loon Family in McCargoe Cove  RAY","accuracy":16,"date_taken":"2008-08-30 18:33:27","date_granularity":"0"},"geometry":{"type":"Point","coordinates":[-88.700662,48.094777]}},{"type":"Feature","properties":{"park":"Isle_Royale_National_Park","id":"3414621807","title":"2008-07-02 Isle Royale Day 6 (2n1a) Bird in McCargoe Cove RAY","accuracy":16,"date_taken":"2008-08-30 17:01:30","date_granularity":"0"},"geometry":{"type":"Point","coordinates":[-88.700662,48.094777]}},{"type":"Feature","properties":{"park":"Isle_Royale_National_Park","id":"3415427934","title":"2008-07-02 Isle Royale Day 6 (1m6) Eagle in Back of Brady Cove RAY","accuracy":16,"date_taken":"2008-08-30 13:38:28","date_granularity":"0"},"geometry":{"type":"Point","coordinates":[-88.670343,48.110314]}},{"type":"Feature","properties":{"park":"Isle_Royale_National_Park","id":"3414620489","title":"2008-07-02 Isle Royale Day 6 (1m5) Eagle in Back of Brady Cove RAY","accuracy":16,"date_taken":"2008-08-30 13:38:24","date_granularity":"0"},"geometry":{"type":"Point","coordinates":[-88.670343,48.110314]}},{"type":"Feature","properties":{"park":"Isle_Royale_National_Park","id":"3415426812","title":"2008-07-02 Isle Royale Day 6 (1m4) Eagle in Back of Brady Cove RAY","accuracy":16,"date_taken":"2008-08-30 13:38:23","date_granularity":"0"},"geometry":{"type":"Point","coordinates":[-88.670343,48.110314]}},{"type":"Feature","properties":{"park":"Isle_Royale_National_Park","id":"3414619383","title":"2008-07-02 Isle Royale Day 6 (1m3) Eagle in Back of Brady Cove RAY","accuracy":16,"date_taken":"2008-08-30 13:38:23","date_granularity":"0"},"geometry":{"type":"Point","coordinates":[-88.670343,48.110314]}},{"type":"Feature","properties":{"park":"Isle_Royale_National_Park","id":"3414618753","title":"2008-07-02 Isle Royale Day 6 (1m2) Eagle in Back of Brady Cove RAY","accuracy":16,"date_taken":"2008-08-30 13:38:13","date_granularity":"0"},"geometry":{"type":"Point","coordinates":[-88.670343,48.110314]}},{"type":"Feature","properties":{"park":"Isle_Royale_National_Park","id":"3414617883","title":"2008-07-02 Isle Royale Day 6 (1m1) Eagle in Back of Brady Cove RAY","accuracy":16,"date_taken":"2008-08-30 13:38:13","date_granularity":"0"},"geometry":{"type":"Point","coordinates":[-88.670343,48.110314]}},{"type":"Feature","properties":{"park":"Isle_Royale_National_Park","id":"3415423770","title":"2008-07-02 Isle Royale Day 6 (5k) Duck at  McCargoe Cove 1034PM RAY","accuracy":16,"date_taken":"2008-08-31 02:34:05","date_granularity":"0"},"geometry":{"type":"Point","coordinates":[-88.68605,48.109759]}},{"type":"Feature","properties":{"park":"Isle_Royale_National_Park","id":"3414616807","title":"2008-07-02 Isle Royale Day 6 (5j) Sunset at Mouth of McCargoe Cove RAY","accuracy":16,"date_taken":"2008-08-31 01:54:27","date_granularity":"0"},"geometry":{"type":"Point","coordinates":[-88.685052,48.113573]}},{"type":"Feature","properties":{"park":"Isle_Royale_National_Park","id":"3415422756","title":"2008-07-02 Isle Royale Day 6 (5g) Sunset at Mouth of McCargoe Cove B&W RAY","accuracy":16,"date_taken":"2008-08-31 01:43:24","date_granularity":"0"},"geometry":{"type":"Point","coordinates":[-88.685052,48.113573]}},{"type":"Feature","properties":{"park":"Isle_Royale_National_Park","id":"3415422382","title":"2008-07-02 Isle Royale Day 6 (5f) Sunset at Mouth of McCargoe Cove RAY","accuracy":16,"date_taken":"2008-08-31 01:42:51","date_granularity":"0"},"geometry":{"type":"Point","coordinates":[-88.685052,48.113573]}},{"type":"Feature","properties":{"park":"Isle_Royale_National_Park","id":"3415420338","title":"2008-07-02 Isle Royale Day 6 (5a) The Sleeping Giant at Sunset RAY","accuracy":16,"date_taken":"2008-08-31 01:27:48","date_granularity":"0"},"geometry":{"type":"Point","coordinates":[-88.685052,48.113573]}},{"type":"Feature","properties":{"park":"Isle_Royale_National_Park","id":"3415419860","title":"2008-07-02 Isle Royale Day 6 (4a3) Ray Pupming Water at Birch Island Dock RAY","accuracy":16,"date_taken":"2008-08-31 01:07:39","date_granularity":"0"},"geometry":{"type":"Point","coordinates":[-88.685792,48.109766]}},{"type":"Feature","properties":{"park":"Isle_Royale_National_Park","id":"3415419182","title":"2008-07-02 Isle Royale Day 6 (4a2) Ray pumping Water at Birch Island RAY","accuracy":16,"date_taken":"2008-08-31 01:06:54","date_granularity":"0"},"geometry":{"type":"Point","coordinates":[-88.685792,48.109766]}},{"type":"Feature","properties":{"park":"Isle_Royale_National_Park","id":"3414612037","title":"2008-07-02 Isle Royale Day 6 (4a1Q) Paul Checking his Beak at Birch Island Dock RAY","accuracy":16,"date_taken":"2008-08-31 00:57:57","date_granularity":"0"},"geometry":{"type":"Point","coordinates":[-88.685792,48.109766]}},{"type":"Feature","properties":{"park":"Isle_Royale_National_Park","id":"3415418260","title":"2008-07-02 Isle Royale Day 6 (3c1) Rob writing in Journal at Birch Island Dock RAY","accuracy":16,"date_taken":"2008-08-30 23:02:11","date_granularity":"0"},"geometry":{"type":"Point","coordinates":[-88.685792,48.109766]}},{"type":"Feature","properties":{"park":"Isle_Royale_National_Park","id":"3415417742","title":"2008-07-02 Isle Royale Day 6 (1h4) Birch Island Shelter #420 RAY","accuracy":16,"date_taken":"2008-08-30 22:59:57","date_granularity":"0"},"geometry":{"type":"Point","coordinates":[-88.685932,48.109934]}},{"type":"Feature","properties":{"park":"Isle_Royale_National_Park","id":"3414608927","title":"2008-07-02 Isle Royale Day 6 (1ja1) Brady Cove RAY","accuracy":16,"date_taken":"2008-08-30 19:00:49","date_granularity":"0"},"geometry":{"type":"Point","coordinates":[-88.68605,48.109759]}},{"type":"Feature","properties":{"park":"Isle_Royale_National_Park","id":"3415415158","title":"2008-07-02 Isle Royale Day 6 (1h6) Birch Island Dock RAY","accuracy":16,"date_taken":"2008-08-30 15:19:39","date_granularity":"0"},"geometry":{"type":"Point","coordinates":[-88.685792,48.109766]}},{"type":"Feature","properties":{"park":"Isle_Royale_National_Park","id":"3415413992","title":"2008-07-02 Isle Royale Day 6 (1h1) Breakfast at Birch Island RAY","accuracy":16,"date_taken":"2008-08-30 11:18:39","date_granularity":"0"},"geometry":{"type":"Point","coordinates":[-88.685932,48.109934]}},{"type":"Feature","properties":{"park":"Isle_Royale_National_Park","id":"3414597811","title":"2008-07-02 Isle Royale Day 6 (1m7) Eagle in Back of Brady Cove","accuracy":16,"date_taken":"2008-07-02 17:38:12","date_granularity":"0"},"geometry":{"type":"Point","coordinates":[-88.670418,48.110397]}},{"type":"Feature","properties":{"park":"Isle_Royale_National_Park","id":"3415400772","title":"2008-07-02 Isle Royale Day 6 (3l) Trees of Birch Island","accuracy":16,"date_taken":"2008-07-03 00:16:51","date_granularity":"0"},"geometry":{"type":"Point","coordinates":[-88.685728,48.110375]}},{"type":"Feature","properties":{"park":"Isle_Royale_National_Park","id":"3414593641","title":"2008-07-02 Isle Royale Day 6 (3m) Birch Island Trees","accuracy":16,"date_taken":"2008-07-03 00:45:13","date_granularity":"0"},"geometry":{"type":"Point","coordinates":[-88.68605,48.109759]}},{"type":"Feature","properties":{"park":"Isle_Royale_National_Park","id":"3415397944","title":"2008-07-02 Isle Royale Day 6 (1g2) Birch Island CG Sign","accuracy":16,"date_taken":"2008-07-02 23:57:18","date_granularity":"0"},"geometry":{"type":"Point","coordinates":[-88.685792,48.109766]}},{"type":"Feature","properties":{"park":"Isle_Royale_National_Park","id":"3415397090","title":"2008-07-02 Isle Royale Day 6 (3k) View from Birch Island","accuracy":16,"date_taken":"2008-07-02 20:14:54","date_granularity":"0"},"geometry":{"type":"Point","coordinates":[-88.685706,48.110748]}},{"type":"Feature","properties":{"park":"Isle_Royale_National_Park","id":"3414586267","title":"2008-07-02 Isle Royale Day 6 (3a) Loon Family in McCargoe Cove","accuracy":16,"date_taken":"2008-07-02 22:32:33","date_granularity":"0"},"geometry":{"type":"Point","coordinates":[-88.700662,48.094777]}},{"type":"Feature","properties":{"park":"Isle_Royale_National_Park","id":"3415391850","title":"2008-07-02 Isle Royale Day 6 (3g) Trees of Birch Island","accuracy":16,"date_taken":"2008-07-03 00:04:21","date_granularity":"0"},"geometry":{"type":"Point","coordinates":[-88.685728,48.110375]}},{"type":"Feature","properties":{"park":"Isle_Royale_National_Park","id":"3415390198","title":"2008-07-02 Isle Royale Day 6 (3c2) Boat in Brady Cove","accuracy":16,"date_taken":"2008-07-02 23:56:44","date_granularity":"0"},"geometry":{"type":"Point","coordinates":[-88.685792,48.109766]}},{"type":"Feature","properties":{"park":"Isle_Royale_National_Park","id":"3415388482","title":"2008-07-02 Isle Royale Day 6 (1h3) Birch Island Shelter","accuracy":16,"date_taken":"2008-07-02 21:02:55","date_granularity":"0"},"geometry":{"type":"Point","coordinates":[-88.685932,48.109934]}},{"type":"Feature","properties":{"park":"Isle_Royale_National_Park","id":"3415387620","title":"2008-07-02 Isle Royale Day 6 (2j7) Prime Brady Cove Pike Fishing","accuracy":16,"date_taken":"2008-07-02 20:17:37","date_granularity":"0"},"geometry":{"type":"Point","coordinates":[-88.67031,48.111041]}},{"type":"Feature","properties":{"park":"Isle_Royale_National_Park","id":"3415386808","title":"2008-07-02 Isle Royale Day 6 (1jb) View of McCargoe Cove from Birch Island","accuracy":16,"date_taken":"2008-07-02 17:02:04","date_granularity":"0"},"geometry":{"type":"Point","coordinates":[-88.685932,48.109934]}},{"type":"Feature","properties":{"park":"Isle_Royale_National_Park","id":"3415384188","title":"2008-07-02 Isle Royale Day 6 (3) McCargoe Cove Dock Repair","accuracy":16,"date_taken":"2008-07-02 22:24:49","date_granularity":"0"},"geometry":{"type":"Point","coordinates":[-88.707797,48.087167]}},{"type":"Feature","properties":{"park":"Isle_Royale_National_Park","id":"3415382696","title":"2008-07-02 Isle Royale Day 6 (2g) Moose in Brady Cove","accuracy":16,"date_taken":"2008-07-02 19:53:21","date_granularity":"0"},"geometry":{"type":"Point","coordinates":[-88.67031,48.111041]}},{"type":"Feature","properties":{"park":"Isle_Royale_National_Park","id":"3415381754","title":"2008-07-02 Isle Royale Day 6 (2d5) Moose in Brady Cove","accuracy":16,"date_taken":"2008-07-02 19:49:59","date_granularity":"0"},"geometry":{"type":"Point","coordinates":[-88.67031,48.111041]}},{"type":"Feature","properties":{"park":"Isle_Royale_National_Park","id":"3415380010","title":"2008-07-02 Isle Royale Day 6 (2) Brady Cove","accuracy":16,"date_taken":"2008-07-02 14:44:00","date_granularity":"0"},"geometry":{"type":"Point","coordinates":[-88.674098,48.110626]}},{"type":"Feature","properties":{"park":"Isle_Royale_National_Park","id":"3415379418","title":"2008-07-02 Isle Royale Day 6 (1NT) Brady Cove","accuracy":16,"date_taken":"2008-07-02 14:43:54","date_granularity":"0"},"geometry":{"type":"Point","coordinates":[-88.674098,48.110626]}},{"type":"Feature","properties":{"park":"Isle_Royale_National_Park","id":"3414572209","title":"2008-07-02 Isle Royale Day 6 (2e) Moose in Brady Cove","accuracy":16,"date_taken":"2008-07-02 19:50:02","date_granularity":"0"},"geometry":{"type":"Point","coordinates":[-88.67031,48.111041]}},{"type":"Feature","properties":{"park":"Isle_Royale_National_Park","id":"3414571423","title":"2008-07-02 Isle Royale Day 6 (2f4) Moose in Brady Cove","accuracy":16,"date_taken":"2008-07-02 19:52:01","date_granularity":"0"},"geometry":{"type":"Point","coordinates":[-88.67031,48.111041]}},{"type":"Feature","properties":{"park":"Isle_Royale_National_Park","id":"3415377092","title":"2008-07-02 Isle Royale Day 6 (2c) Moose in Brady Cove","accuracy":16,"date_taken":"2008-07-02 19:37:31","date_granularity":"0"},"geometry":{"type":"Point","coordinates":[-88.673293,48.110905]}},{"type":"Feature","properties":{"park":"Isle_Royale_National_Park","id":"3415376234","title":"2008-07-02 Isle Royale Day 6 (1e) $6.00 Wonder Shower","accuracy":16,"date_taken":"2008-07-02 12:45:35","date_granularity":"0"},"geometry":{"type":"Point","coordinates":[-88.486504,48.146116]}},{"type":"Feature","properties":{"park":"Isle_Royale_National_Park","id":"3414568963","title":"2008-07-02 Isle Royale Day 6 (1c) The Ranger III at Rock Harbor","accuracy":16,"date_taken":"2008-07-02 08:13:33","date_granularity":"0"},"geometry":{"type":"Point","coordinates":[-88.486118,48.145436]}},{"type":"Feature","properties":{"park":"Isle_Royale_National_Park","id":"3414568291","title":"2008-07-02 Isle Royale Day 6 (1kB) Ray with a Nice Northern Pike","accuracy":16,"date_taken":"2008-07-02 12:30:07","date_granularity":"0"},"geometry":{"type":"Point","coordinates":[-88.674119,48.110751]}},{"type":"Feature","properties":{"park":"Isle_Royale_National_Park","id":"3414567533","title":"2008-07-02 Isle Royale Day 6 (1d) $hower Fee$ at Rock Harbor","accuracy":16,"date_taken":"2008-07-02 12:49:29","date_granularity":"0"},"geometry":{"type":"Point","coordinates":[-88.486504,48.146116]}},{"type":"Feature","properties":{"park":"Isle_Royale_National_Park","id":"3415372332","title":"2008-07-02 Isle Royale Day 6 (1f) Resupplying at Rock Harbor Store","accuracy":16,"date_taken":"2008-07-02 12:48:52","date_granularity":"0"},"geometry":{"type":"Point","coordinates":[-88.486429,48.145909]}},{"type":"Feature","properties":{"park":"Isle_Royale_National_Park","id":"3415371372","title":"2008-07-02 Isle Royale Day 6 (1g1) Rental Boats at Rock Harbor Lodge","accuracy":16,"date_taken":"2008-07-02 12:52:21","date_granularity":"0"},"geometry":{"type":"Point","coordinates":[-88.485989,48.145966]}},{"type":"Feature","properties":{"park":"Isle_Royale_National_Park","id":"3414564347","title":"2008-07-02 Isle Royale Day 6 (1b) The Ranger III at Rock Harbor","accuracy":16,"date_taken":"2008-07-02 12:13:24","date_granularity":"0"},"geometry":{"type":"Point","coordinates":[-88.486118,48.145436]}},{"type":"Feature","properties":{"park":"Isle_Royale_National_Park","id":"3415368702","title":"2008-07-02 Isle Royale Day 6 (1l) Eagle in Back of Brady Cove","accuracy":16,"date_taken":"2008-07-02 12:39:01","date_granularity":"0"},"geometry":{"type":"Point","coordinates":[-88.670343,48.110314]}},{"type":"Feature","properties":{"park":"Isle_Royale_National_Park","id":"3414562145","title":"2008-07-02 Isle Royale Day 6 (1) The Ranger III at Rock Harbor","accuracy":16,"date_taken":"2008-07-02 12:11:50","date_granularity":"0"},"geometry":{"type":"Point","coordinates":[-88.486118,48.145436]}},{"type":"Feature","properties":{"park":"Isle_Royale_National_Park","id":"3415367438","title":"2008-07-01 Isle Royale Day 5 (5l6) Falls at Head of Siskiwit River RAY","accuracy":16,"date_taken":"2008-08-29 21:59:47","date_granularity":"0"},"geometry":{"type":"Point","coordinates":[-88.80691,47.988575]}},{"type":"Feature","properties":{"park":"Isle_Royale_National_Park","id":"3415367096","title":"2008-07-01 Isle Royale Day 5 (5l5) Falls at Head of Siskiwit River RAY","accuracy":16,"date_taken":"2008-08-29 21:53:57","date_granularity":"0"},"geometry":{"type":"Point","coordinates":[-88.80691,47.988575]}},{"type":"Feature","properties":{"park":"Isle_Royale_National_Park","id":"3414560743","title":"2008-07-01 Isle Royale Day 5 (5l4) Falls at Head of Siskiwit River RAY","accuracy":16,"date_taken":"2008-08-29 21:52:01","date_granularity":"0"},"geometry":{"type":"Point","coordinates":[-88.80691,47.988575]}},{"type":"Feature","properties":{"park":"Isle_Royale_National_Park","id":"3414559817","title":"2008-07-01 Isle Royale Day 5 (5l2) Falls at Head of Siskiwit River RAY","accuracy":16,"date_taken":"2008-08-29 21:48:31","date_granularity":"0"},"geometry":{"type":"Point","coordinates":[-88.80691,47.988575]}},{"type":"Feature","properties":{"park":"Isle_Royale_National_Park","id":"3414559247","title":"2008-07-01 Isle Royale Day 5 (5l1) Falls at Head of Siskiwit River RAY","accuracy":16,"date_taken":"2008-08-29 21:45:17","date_granularity":"0"},"geometry":{"type":"Point","coordinates":[-88.80691,47.988575]}},{"type":"Feature","properties":{"park":"Isle_Royale_National_Park","id":"3414558817","title":"2008-07-01 Isle Royale Day 5 (5b5O) Siskiwit River RAY","accuracy":16,"date_taken":"2008-08-29 21:32:52","date_granularity":"0"},"geometry":{"type":"Point","coordinates":[-88.802897,47.98525]}},{"type":"Feature","properties":{"park":"Isle_Royale_National_Park","id":"3414558385","title":"2008-07-01 Isle Royale Day 5 (5b5N) Siskiwit River RAY","accuracy":16,"date_taken":"2008-08-29 21:32:02","date_granularity":"0"},"geometry":{"type":"Point","coordinates":[-88.802897,47.98525]}},{"type":"Feature","properties":{"park":"Isle_Royale_National_Park","id":"3414557779","title":"2008-07-01 Isle Royale Day 5 (5b5M) Siskiwit River RAY","accuracy":16,"date_taken":"2008-08-29 21:31:32","date_granularity":"0"},"geometry":{"type":"Point","coordinates":[-88.802897,47.98525]}},{"type":"Feature","properties":{"park":"Isle_Royale_National_Park","id":"3415362886","title":"2008-07-01 Isle Royale Day 5 (5b5L) Siskiwit River RAY","accuracy":16,"date_taken":"2008-08-29 21:12:22","date_granularity":"0"},"geometry":{"type":"Point","coordinates":[-88.802232,47.985986]}},{"type":"Feature","properties":{"park":"Isle_Royale_National_Park","id":"3415362324","title":"2008-07-01 Isle Royale Day 5 (5b5K) Siskiwit River RAY","accuracy":16,"date_taken":"2008-08-29 21:11:32","date_granularity":"0"},"geometry":{"type":"Point","coordinates":[-88.802232,47.985986]}},{"type":"Feature","properties":{"park":"Isle_Royale_National_Park","id":"3415361944","title":"2008-07-01 Isle Royale Day 5 (5b5J) Siskiwit River RAY","accuracy":16,"date_taken":"2008-08-29 21:10:26","date_granularity":"0"},"geometry":{"type":"Point","coordinates":[-88.802232,47.985986]}},{"type":"Feature","properties":{"park":"Isle_Royale_National_Park","id":"3415361426","title":"2008-07-01 Isle Royale Day 5 (5b5H) Siskiwit River RAY","accuracy":16,"date_taken":"2008-08-29 21:06:42","date_granularity":"0"},"geometry":{"type":"Point","coordinates":[-88.802232,47.985986]}},{"type":"Feature","properties":{"park":"Isle_Royale_National_Park","id":"3414554215","title":"2008-07-01 Isle Royale Day 5 (5b5F) Siskiwit River RAY","accuracy":16,"date_taken":"2008-08-29 21:03:02","date_granularity":"0"},"geometry":{"type":"Point","coordinates":[-88.802232,47.985986]}},{"type":"Feature","properties":{"park":"Isle_Royale_National_Park","id":"3414553655","title":"2008-07-01 Isle Royale Day 5 (5b5E) Siskiwit River RAY","accuracy":16,"date_taken":"2008-08-29 21:01:20","date_granularity":"0"},"geometry":{"type":"Point","coordinates":[-88.802232,47.985986]}},{"type":"Feature","properties":{"park":"Isle_Royale_National_Park","id":"3414552929","title":"2008-07-01 Isle Royale Day 5 (5b5D) Siskiwit River RAY","accuracy":16,"date_taken":"2008-08-29 21:00:52","date_granularity":"0"},"geometry":{"type":"Point","coordinates":[-88.802232,47.985986]}},{"type":"Feature","properties":{"park":"Isle_Royale_National_Park","id":"3415358226","title":"2008-07-01 Isle Royale Day 5 (5b5C) Siskiwit River RAY","accuracy":16,"date_taken":"2008-08-29 20:58:43","date_granularity":"0"},"geometry":{"type":"Point","coordinates":[-88.802232,47.985986]}},{"type":"Feature","properties":{"park":"Isle_Royale_National_Park","id":"3415357536","title":"2008-07-01 Isle Royale Day 5 (5b5B) Siskiwit River RAY","accuracy":16,"date_taken":"2008-08-29 20:53:47","date_granularity":"0"},"geometry":{"type":"Point","coordinates":[-88.802232,47.985986]}},{"type":"Feature","properties":{"park":"Isle_Royale_National_Park","id":"3414550273","title":"2008-07-01 Isle Royale Day 5 (5b1A) Siskiwit River RAY","accuracy":16,"date_taken":"2008-08-29 20:37:39","date_granularity":"0"},"geometry":{"type":"Point","coordinates":[-88.802897,47.98525]}},{"type":"Feature","properties":{"park":"Isle_Royale_National_Park","id":"3414549667","title":"2008-07-01 Isle Royale Day 5 (4a2A) Falls at the Head of the Siskiwit river RAY","accuracy":16,"date_taken":"2008-08-29 17:50:42","date_granularity":"0"},"geometry":{"type":"Point","coordinates":[-88.80691,47.988575]}},{"type":"Feature","properties":{"park":"Isle_Royale_National_Park","id":"3414548975","title":"2008-07-01 Isle Royale Day 5 (3J2B) Siskiwit River RAY","accuracy":16,"date_taken":"2008-08-29 17:01:07","date_granularity":"0"},"geometry":{"type":"Point","coordinates":[-88.80691,47.988575]}},{"type":"Feature","properties":{"park":"Isle_Royale_National_Park","id":"3415352726","title":"2008-07-01 Isle Royale Day 5 (3E3F) Toad on Boadwalk at Malone Bay RAY","accuracy":16,"date_taken":"2008-08-29 16:19:03","date_granularity":"0"},"geometry":{"type":"Point","coordinates":[-88.80146,47.984744]}},{"type":"Feature","properties":{"park":"Isle_Royale_National_Park","id":"3414546215","title":"2008-07-01 Isle Royale Day 5 (3E3E) Toad on Boardwalk at Malone Bay RAY","accuracy":16,"date_taken":"2008-08-29 16:18:36","date_granularity":"0"},"geometry":{"type":"Point","coordinates":[-88.80146,47.984744]}},{"type":"Feature","properties":{"park":"Isle_Royale_National_Park","id":"3414545747","title":"2008-07-01 Isle Royale Day 5 (3E3D) Toad on Boardwalk at Malone Bay RAY","accuracy":16,"date_taken":"2008-08-29 16:18:09","date_granularity":"0"},"geometry":{"type":"Point","coordinates":[-88.80146,47.984744]}},{"type":"Feature","properties":{"park":"Isle_Royale_National_Park","id":"3415351208","title":"2008-07-01 Isle Royale Day 5 (2h2A) Squirrel PAUL","accuracy":16,"date_taken":"2008-07-01 14:00:40","date_granularity":"0"},"geometry":{"type":"Point","coordinates":[-88.802232,47.985986]}},{"type":"Feature","properties":{"park":"Isle_Royale_National_Park","id":"3415350746","title":"2008-07-01 Isle Royale Day 5 (2A9) Red Fox (vulpes vulpes) at Malone Bay PAUL","accuracy":16,"date_taken":"2008-07-01 13:11:48","date_granularity":"0"},"geometry":{"type":"Point","coordinates":[-88.80499,47.985089]}},{"type":"Feature","properties":{"park":"Isle_Royale_National_Park","id":"3414544055","title":"2008-07-01 Isle Royale Day 5 (2A8) Red Fox (vulpes vulpes) at Malone Bay PAUL","accuracy":16,"date_taken":"2008-07-01 13:11:30","date_granularity":"0"},"geometry":{"type":"Point","coordinates":[-88.80499,47.985089]}},{"type":"Feature","properties":{"park":"Isle_Royale_National_Park","id":"3415349670","title":"2008-07-01 Isle Royale Day 5 (2A7) Red Fox (vulpes vulpes) at Malone Bay PAUL","accuracy":16,"date_taken":"2008-07-01 13:07:50","date_granularity":"0"},"geometry":{"type":"Point","coordinates":[-88.80499,47.985089]}},{"type":"Feature","properties":{"park":"Isle_Royale_National_Park","id":"3415349184","title":"2008-07-01 Isle Royale Day 5 (2A6) Red Fox (vulpes vulpes) at Malone Bay PAUL","accuracy":16,"date_taken":"2008-07-01 13:07:41","date_granularity":"0"},"geometry":{"type":"Point","coordinates":[-88.80499,47.985089]}},{"type":"Feature","properties":{"park":"Isle_Royale_National_Park","id":"3414542475","title":"2008-07-01 Isle Royale Day 5 (2A5) Red Fox (vulpes vulpes) at Malone Bay PAUL","accuracy":16,"date_taken":"2008-07-01 13:07:28","date_granularity":"0"},"geometry":{"type":"Point","coordinates":[-88.80499,47.985089]}},{"type":"Feature","properties":{"park":"Isle_Royale_National_Park","id":"3414541711","title":"2008-07-01 Isle Royale Day 5 (2A4) Red Fox (vulpes vulpes) at Malone Bay PAUL","accuracy":16,"date_taken":"2008-07-01 13:07:13","date_granularity":"0"},"geometry":{"type":"Point","coordinates":[-88.80499,47.985089]}},{"type":"Feature","properties":{"park":"Isle_Royale_National_Park","id":"3415347368","title":"2008-07-01 Isle Royale Day 5 (2A3) Red Fox (vulpes vulpes) at Malone BayPAUL","accuracy":16,"date_taken":"2008-07-01 13:07:13","date_granularity":"0"},"geometry":{"type":"Point","coordinates":[-88.80499,47.985089]}},{"type":"Feature","properties":{"park":"Isle_Royale_National_Park","id":"3415346756","title":"2008-07-01 Isle Royale Day 5 (2A2C) Red Fox (vulpes vulpes) at Malone BayPAUL","accuracy":16,"date_taken":"2008-07-01 13:07:09","date_granularity":"0"},"geometry":{"type":"Point","coordinates":[-88.80499,47.985089]}},{"type":"Feature","properties":{"park":"Isle_Royale_National_Park","id":"3414539875","title":"2008-07-01 Isle Royale Day 5 (2h1C) Squirrel PAUL","accuracy":16,"date_taken":"2008-08-29 13:49:06","date_granularity":"0"},"geometry":{"type":"Point","coordinates":[-88.802232,47.985986]}},{"type":"Feature","properties":{"park":"Isle_Royale_National_Park","id":"3415345290","title":"2008-07-01 Isle Royale Day 5 (2h1B) Squirrel PAUL","accuracy":16,"date_taken":"2008-08-29 13:47:17","date_granularity":"0"},"geometry":{"type":"Point","coordinates":[-88.802232,47.985986]}},{"type":"Feature","properties":{"park":"Isle_Royale_National_Park","id":"3415343734","title":"2008-07-01 Isle Royale Day 5 (2c1) Red Fox (vulpes vulpes) at Malone Bay RAY","accuracy":16,"date_taken":"2008-08-29 13:40:41","date_granularity":"0"},"geometry":{"type":"Point","coordinates":[-88.802897,47.98525]}},{"type":"Feature","properties":{"park":"Isle_Royale_National_Park","id":"3414536185","title":"2008-07-01 Isle Royale Day 5 (6a) Trail to Siskiwit Lake B&W 1002PM RAY","accuracy":16,"date_taken":"2008-08-29 22:02:56","date_granularity":"0"},"geometry":{"type":"Point","coordinates":[-88.802897,47.98525]}},{"type":"Feature","properties":{"park":"Isle_Royale_National_Park","id":"3414535085","title":"2008-07-01 Isle Royale Day 5 (5b2A) Tree near Siskiwit River RAY","accuracy":16,"date_taken":"2008-08-29 20:42:55","date_granularity":"0"},"geometry":{"type":"Point","coordinates":[-88.802897,47.98525]}},{"type":"Feature","properties":{"park":"Isle_Royale_National_Park","id":"3414534713","title":"2008-07-01 Isle Royale Day 5 (5b2) Siskiwit River RAY","accuracy":16,"date_taken":"2008-08-29 20:41:28","date_granularity":"0"},"geometry":{"type":"Point","coordinates":[-88.802897,47.98525]}},{"type":"Feature","properties":{"park":"Isle_Royale_National_Park","id":"3415340508","title":"2008-07-01 Isle Royale Day 5 (4e2) Siskiwit Lake Trail RAY","accuracy":16,"date_taken":"2008-08-29 18:14:23","date_granularity":"0"},"geometry":{"type":"Point","coordinates":[-88.80146,47.984744]}},{"type":"Feature","properties":{"park":"Isle_Royale_National_Park","id":"3415339758","title":"2008-07-01 Isle Royale Day 5 (4d2a) Trail to Siskiwit Lake RAY","accuracy":16,"date_taken":"2008-08-29 18:08:59","date_granularity":"0"},"geometry":{"type":"Point","coordinates":[-88.80146,47.984744]}},{"type":"Feature","properties":{"park":"Isle_Royale_National_Park","id":"3414532173","title":"2008-07-01 Isle Royale Day 5 (3E3B) Battery Bank at Ranger Cabin Malone Bay RAY","accuracy":16,"date_taken":"2008-07-01 19:43:17","date_granularity":"0"},"geometry":{"type":"Point","coordinates":[-88.799786,47.98506]}},{"type":"Feature","properties":{"park":"Isle_Royale_National_Park","id":"3414531613","title":"2008-07-01 Isle Royale Day 5 (2H1C1) Video & Photo Men on Ishpeming Trail RAY","accuracy":16,"date_taken":"2008-07-01 17:49:37","date_granularity":"0"},"geometry":{"type":"Point","coordinates":[-88.802597,47.98646]}},{"type":"Feature","properties":{"park":"Isle_Royale_National_Park","id":"3415337454","title":"2008-07-01 Isle Royale Day 5 (3e2b) Sailors Leaving at Malone Bay CG RAY","accuracy":16,"date_taken":"2008-07-01 17:30:34","date_granularity":"0"},"geometry":{"type":"Point","coordinates":[-88.800365,47.984033]}},{"type":"Feature","properties":{"park":"Isle_Royale_National_Park","id":"3414530813","title":"2008-07-01 Isle Royale Day 5 (5b3b) Siskiwit River RAY","accuracy":16,"date_taken":"2008-08-30 00:45:31","date_granularity":"0"},"geometry":{"type":"Point","coordinates":[-88.802897,47.98525]}},{"type":"Feature","properties":{"park":"Isle_Royale_National_Park","id":"3415336564","title":"2008-07-01 Isle Royale Day 5 (5b1B) Siskiwit River RAY","accuracy":16,"date_taken":"2008-08-30 00:37:39","date_granularity":"0"},"geometry":{"type":"Point","coordinates":[-88.802897,47.98525]}},{"type":"Feature","properties":{"park":"Isle_Royale_National_Park","id":"3414529129","title":"2008-07-01 Isle Royale Day 5 (4a1) Paul near Siskiwit Lake RAY","accuracy":16,"date_taken":"2008-08-29 21:56:16","date_granularity":"0"},"geometry":{"type":"Point","coordinates":[-88.807414,47.988639]}},{"type":"Feature","properties":{"park":"Isle_Royale_National_Park","id":"3415334178","title":"2008-07-01 Isle Royale Day 5 (3j2A) Shore Fishing Siskiwit Lake RAY","accuracy":16,"date_taken":"2008-08-29 20:57:10","date_granularity":"0"},"geometry":{"type":"Point","coordinates":[-88.807414,47.988639]}},{"type":"Feature","properties":{"park":"Isle_Royale_National_Park","id":"3414527497","title":"2008-07-01 Isle Royale Day 5 (3j1) Shore Fishing Siskiwit Lake RAY","accuracy":16,"date_taken":"2008-08-29 16:56:42","date_granularity":"0"},"geometry":{"type":"Point","coordinates":[-88.807414,47.988639]}},{"type":"Feature","properties":{"park":"Isle_Royale_National_Park","id":"3414520065","title":"2008-07-01 Isle Royale Day 5 (3e4) Malone Bay Shelter RAY","accuracy":16,"date_taken":"2008-08-29 20:24:03","date_granularity":"0"},"geometry":{"type":"Point","coordinates":[-88.80499,47.985089]}},{"type":"Feature","properties":{"park":"Isle_Royale_National_Park","id":"3415325142","title":"2008-07-01 Isle Royale Day 5 (3e3A) Ranger House at Malone Bay RAY","accuracy":16,"date_taken":"2008-08-29 19:28:38","date_granularity":"0"},"geometry":{"type":"Point","coordinates":[-88.799786,47.98506]}},{"type":"Feature","properties":{"park":"Isle_Royale_National_Park","id":"3415324382","title":"2008-07-01 Isle Royale Day 5 (3e2a) Sailors at Malone Bay Dock RAY","accuracy":16,"date_taken":"2008-08-29 19:07:18","date_granularity":"0"},"geometry":{"type":"Point","coordinates":[-88.800398,47.984087]}},{"type":"Feature","properties":{"park":"Isle_Royale_National_Park","id":"3414518073","title":"2008-07-01 Isle Royale Day 5 (3e1) Ranger Leaving Malone Bay CG RAY","accuracy":16,"date_taken":"2008-08-29 18:51:24","date_granularity":"0"},"geometry":{"type":"Point","coordinates":[-88.800365,47.984033]}},{"type":"Feature","properties":{"park":"Isle_Royale_National_Park","id":"3414516887","title":"2008-07-01 Isle Royale Day 5 (2h3) Paul at Siskiwit River Falls RAY","accuracy":16,"date_taken":"2008-08-29 18:44:36","date_granularity":"0"},"geometry":{"type":"Point","coordinates":[-88.802897,47.98525]}},{"type":"Feature","properties":{"park":"Isle_Royale_National_Park","id":"3415321156","title":"2008-07-01 Isle Royale Day 5 (2h1D) Paul on Log near Siskiwit River Falls RAY","accuracy":16,"date_taken":"2008-08-29 17:50:57","date_granularity":"0"},"geometry":{"type":"Point","coordinates":[-88.802232,47.985986]}},{"type":"Feature","properties":{"park":"Isle_Royale_National_Park","id":"3414514565","title":"2008-07-01 Isle Royale Day 5 (2b1) Sailors arriving at Malone Bay CG RAY","accuracy":16,"date_taken":"2008-08-29 17:33:05","date_granularity":"0"},"geometry":{"type":"Point","coordinates":[-88.800365,47.984033]}},{"type":"Feature","properties":{"park":"Isle_Royale_National_Park","id":"3414514217","title":"2008-07-01 Isle Royale Day 5 (1b2) Malone Bay CG Map RAY","accuracy":16,"date_taken":"2008-08-29 16:15:22","date_granularity":"0"},"geometry":{"type":"Point","coordinates":[-88.80499,47.985089]}},{"type":"Feature","properties":{"park":"Isle_Royale_National_Park","id":"3414511191","title":"2008-07-01 Isle Royale Day 5 (5h) Daisies near Siskiwit Lake 947PM","accuracy":16,"date_taken":"2008-07-02 01:47:06","date_granularity":"0"},"geometry":{"type":"Point","coordinates":[-88.807296,47.988273]}},{"type":"Feature","properties":{"park":"Isle_Royale_National_Park","id":"3414509393","title":"2008-07-01 Isle Royale Day 5 (6c) Menagerie Island LightHouse 1020PM","accuracy":16,"date_taken":"2008-07-01 22:20:57","date_granularity":"0"},"geometry":{"type":"Point","coordinates":[-88.805065,47.985139]}},{"type":"Feature","properties":{"park":"Isle_Royale_National_Park","id":"3415314524","title":"2008-07-01 Isle Royale Day 5 (5l7) Falls at Head of Siskiwit River 951PM","accuracy":16,"date_taken":"2008-07-01 21:51:23","date_granularity":"0"},"geometry":{"type":"Point","coordinates":[-88.80691,47.988575]}},{"type":"Feature","properties":{"park":"Isle_Royale_National_Park","id":"3415311984","title":"2008-07-01 Isle Royale Day 5 (5g)A view of Malone Bay 930PM","accuracy":16,"date_taken":"2008-07-02 01:30:12","date_granularity":"0"},"geometry":{"type":"Point","coordinates":[-88.80499,47.985089]}},{"type":"Feature","properties":{"park":"Isle_Royale_National_Park","id":"3414504315","title":"2008-07-01 Isle Royale Day 5 (5d) Wright Island from Malone Bay Shoreline","accuracy":16,"date_taken":"2008-07-02 01:20:18","date_granularity":"0"},"geometry":{"type":"Point","coordinates":[-88.80499,47.985089]}},{"type":"Feature","properties":{"park":"Isle_Royale_National_Park","id":"3414503567","title":"2008-07-01 Isle Royale Day 5 (5c) Malone Bay Picnic Table","accuracy":16,"date_taken":"2008-07-02 01:18:39","date_granularity":"0"},"geometry":{"type":"Point","coordinates":[-88.80499,47.985089]}},{"type":"Feature","properties":{"park":"Isle_Royale_National_Park","id":"3414501787","title":"2008-07-01 Isle Royale Day 5 (4l) Shoreline at Malone Bay CG","accuracy":16,"date_taken":"2008-07-01 22:31:59","date_granularity":"0"},"geometry":{"type":"Point","coordinates":[-88.80499,47.985089]}},{"type":"Feature","properties":{"park":"Isle_Royale_National_Park","id":"3414500995","title":"2008-07-01 Isle Royale Day 5 (5) SW View from Malone Bay Shoreline","accuracy":16,"date_taken":"2008-07-01 22:39:01","date_granularity":"0"},"geometry":{"type":"Point","coordinates":[-88.80499,47.985089]}},{"type":"Feature","properties":{"park":"Isle_Royale_National_Park","id":"3414500265","title":"2008-07-01 Isle Royale Day 5 (4m) View of Managerie LightHouse From Maole Bay CG","accuracy":16,"date_taken":"2008-07-01 22:36:07","date_granularity":"0"},"geometry":{"type":"Point","coordinates":[-88.80499,47.985089]}},{"type":"Feature","properties":{"park":"Isle_Royale_National_Park","id":"3415305246","title":"2008-07-01 Isle Royale Day 5 (4h) Shoreline at Malone Bay CG","accuracy":16,"date_taken":"2008-07-01 22:22:42","date_granularity":"0"},"geometry":{"type":"Point","coordinates":[-88.80499,47.985089]}},{"type":"Feature","properties":{"park":"Isle_Royale_National_Park","id":"3414498619","title":"2008-07-01 Isle Royale Day 5 (4g) Shoreline at Malone Bay CG","accuracy":16,"date_taken":"2008-07-01 18:19:43","date_granularity":"0"},"geometry":{"type":"Point","coordinates":[-88.80499,47.985089]}},{"type":"Feature","properties":{"park":"Isle_Royale_National_Park","id":"3414496885","title":"2008-07-01 Isle Royale Day 5 (4e1) Wolf Scat near Siskiwit Lake","accuracy":16,"date_taken":"2008-07-01 18:13:20","date_granularity":"0"},"geometry":{"type":"Point","coordinates":[-88.805859,47.986496]}},{"type":"Feature","properties":{"park":"Isle_Royale_National_Park","id":"3414493575","title":"2008-07-01 Isle Royale Day 5 (4a2B) Falls at the Head of the Siskiwit river","accuracy":16,"date_taken":"2008-07-01 21:54:26","date_granularity":"0"},"geometry":{"type":"Point","coordinates":[-88.80691,47.988575]}},{"type":"Feature","properties":{"park":"Isle_Royale_National_Park","id":"3415298646","title":"2008-07-01 Isle Royale Day 5 (4) WildFlowers near Siskiwit Lake","accuracy":16,"date_taken":"2008-07-01 21:49:01","date_granularity":"0"},"geometry":{"type":"Point","coordinates":[-88.80499,47.985089]}},{"type":"Feature","properties":{"park":"Isle_Royale_National_Park","id":"3414491723","title":"2008-07-01 Isle Royale Day 5 (4k) Shoreline at Malone Bay CG","accuracy":16,"date_taken":"2008-07-01 22:29:31","date_granularity":"0"},"geometry":{"type":"Point","coordinates":[-88.80499,47.985089]}},{"type":"Feature","properties":{"park":"Isle_Royale_National_Park","id":"3415296878","title":"2008-07-01 Isle Royale Day 5 (4j) Shoreline at Malone Bay CG","accuracy":16,"date_taken":"2008-07-01 22:27:08","date_granularity":"0"},"geometry":{"type":"Point","coordinates":[-88.80499,47.985089]}},{"type":"Feature","properties":{"park":"Isle_Royale_National_Park","id":"3415296098","title":"2008-07-01 Isle Royale Day 5 (3n) WildFlowers near Siskiwit Lake","accuracy":16,"date_taken":"2008-07-01 17:44:35","date_granularity":"0"},"geometry":{"type":"Point","coordinates":[-88.80499,47.985089]}},{"type":"Feature","properties":{"park":"Isle_Royale_National_Park","id":"3414485869","title":"2008-07-01 Isle Royale Day 5 (3g) Trail Marker near Siskiwit Lake","accuracy":16,"date_taken":"2008-07-01 20:45:18","date_granularity":"0"},"geometry":{"type":"Point","coordinates":[-88.804346,47.985476]}},{"type":"Feature","properties":{"park":"Isle_Royale_National_Park","id":"3415290792","title":"2008-07-01 Isle Royale Day 5 (3f) Trail Marker near Siskiwit Lake","accuracy":16,"date_taken":"2008-07-01 20:45:04","date_granularity":"0"},"geometry":{"type":"Point","coordinates":[-88.807328,47.98828]}},{"type":"Feature","properties":{"park":"Isle_Royale_National_Park","id":"3415289116","title":"2008-07-01 Isle Royale Day 5 (3d2) Red Squirrel on Trail to Siskiwit Lake","accuracy":16,"date_taken":"2008-07-01 18:45:43","date_granularity":"0"},"geometry":{"type":"Point","coordinates":[-88.802232,47.985986]}},{"type":"Feature","properties":{"park":"Isle_Royale_National_Park","id":"3415288356","title":"2008-07-01 Isle Royale Day 5 (3c) Siskiwit River Falls","accuracy":16,"date_taken":"2008-07-01 18:44:25","date_granularity":"0"},"geometry":{"type":"Point","coordinates":[-88.802232,47.985986]}},{"type":"Feature","properties":{"park":"Isle_Royale_National_Park","id":"3414480803","title":"2008-07-01 Isle Royale Day 5 (3) Siskiwit River Falls","accuracy":16,"date_taken":"2008-07-01 18:35:58","date_granularity":"0"},"geometry":{"type":"Point","coordinates":[-88.802232,47.985986]}},{"type":"Feature","properties":{"park":"Isle_Royale_National_Park","id":"3414479875","title":"2008-07-01 Isle Royale Day 5 (2k) Siskiwit River Falls","accuracy":16,"date_taken":"2008-07-01 18:13:08","date_granularity":"0"},"geometry":{"type":"Point","coordinates":[-88.802232,47.985986]}},{"type":"Feature","properties":{"park":"Isle_Royale_National_Park","id":"3415285020","title":"2008-07-01 Isle Royale Day 5 (2h4) Siskiwit River Falls","accuracy":16,"date_taken":"2008-07-01 17:51:31","date_granularity":"0"},"geometry":{"type":"Point","coordinates":[-88.802232,47.985986]}},{"type":"Feature","properties":{"park":"Isle_Royale_National_Park","id":"3414478271","title":"2008-07-01 Isle Royale Day 5 (2j) Siskiwit River Falls","accuracy":16,"date_taken":"2008-07-01 18:10:33","date_granularity":"0"},"geometry":{"type":"Point","coordinates":[-88.802232,47.985986]}},{"type":"Feature","properties":{"park":"Isle_Royale_National_Park","id":"3415283330","title":"2008-07-01 Isle Royale Day 5 (2m) Siskiwit River Falls","accuracy":16,"date_taken":"2008-07-01 18:31:44","date_granularity":"0"},"geometry":{"type":"Point","coordinates":[-88.802232,47.985986]}},{"type":"Feature","properties":{"park":"Isle_Royale_National_Park","id":"3414476613","title":"2008-07-01 Isle Royale Day 5 (2n) Siskiwit River Falls","accuracy":16,"date_taken":"2008-07-01 18:32:26","date_granularity":"0"},"geometry":{"type":"Point","coordinates":[-88.802232,47.985986]}},{"type":"Feature","properties":{"park":"Isle_Royale_National_Park","id":"3414475817","title":"2008-07-01 Isle Royale Day 5 (2g) Siskiwit River Falls","accuracy":16,"date_taken":"2008-07-01 17:48:34","date_granularity":"0"},"geometry":{"type":"Point","coordinates":[-88.802232,47.985986]}},{"type":"Feature","properties":{"park":"Isle_Royale_National_Park","id":"3415280966","title":"2008-07-01 Isle Royale Day 5 (2l) Siskiwit River Falls","accuracy":16,"date_taken":"2008-07-01 18:29:43","date_granularity":"0"},"geometry":{"type":"Point","coordinates":[-88.802232,47.985986]}},{"type":"Feature","properties":{"park":"Isle_Royale_National_Park","id":"3415279460","title":"2008-07-01 Isle Royale Day 5 (3a) Siskiwit River Falls","accuracy":16,"date_taken":"2008-07-01 18:37:17","date_granularity":"0"},"geometry":{"type":"Point","coordinates":[-88.802232,47.985986]}},{"type":"Feature","properties":{"park":"Isle_Royale_National_Park","id":"3415277682","title":"2008-07-01 Isle Royale Day 5 (1j) Shoreline at Malone Bay CG","accuracy":16,"date_taken":"2008-07-01 16:23:40","date_granularity":"0"},"geometry":{"type":"Point","coordinates":[-88.802458,47.984995]}},{"type":"Feature","properties":{"park":"Isle_Royale_National_Park","id":"3415276788","title":"2008-07-01 Isle Royale Day 5 (1k) Shoreline at Malone Bay CG","accuracy":16,"date_taken":"2008-07-01 16:25:58","date_granularity":"0"},"geometry":{"type":"Point","coordinates":[-88.802458,47.984995]}},{"type":"Feature","properties":{"park":"Isle_Royale_National_Park","id":"3415275880","title":"2008-07-01 Isle Royale Day 5 (1m) Creek near Siskiwit River","accuracy":16,"date_taken":"2008-07-01 16:32:16","date_granularity":"0"},"geometry":{"type":"Point","coordinates":[-88.802458,47.984995]}},{"type":"Feature","properties":{"park":"Isle_Royale_National_Park","id":"3414468323","title":"2008-07-01 Isle Royale Day 5 (2b2) Sailors arriving at Malone Bay CG","accuracy":16,"date_taken":"2008-07-01 17:30:23","date_granularity":"0"},"geometry":{"type":"Point","coordinates":[-88.800398,47.984087]}},{"type":"Feature","properties":{"park":"Isle_Royale_National_Park","id":"3415273814","title":"2008-07-01 Isle Royale Day 5 (2) Dock at Malone Bay CG","accuracy":16,"date_taken":"2008-07-01 16:36:47","date_granularity":"0"},"geometry":{"type":"Point","coordinates":[-88.800398,47.984087]}},{"type":"Feature","properties":{"park":"Isle_Royale_National_Park","id":"3415272224","title":"2008-07-01 Isle Royale Day 5 (1l) Creek near Siskiwit River","accuracy":16,"date_taken":"2008-07-01 16:31:38","date_granularity":"0"},"geometry":{"type":"Point","coordinates":[-88.802232,47.985986]}},{"type":"Feature","properties":{"park":"Isle_Royale_National_Park","id":"3415271496","title":"2008-07-01 Isle Royale Day 5 (2d) Ray & Paul near Big Cedar Tree at Siskiwit River","accuracy":16,"date_taken":"2008-07-01 17:43:46","date_granularity":"0"},"geometry":{"type":"Point","coordinates":[-88.802232,47.985986]}},{"type":"Feature","properties":{"park":"Isle_Royale_National_Park","id":"3415270620","title":"2008-07-01 Isle Royale Day 5 (2c3) Red Fox (vulpes vulpes) at Malone Bay CG","accuracy":16,"date_taken":"2008-07-01 13:40:42","date_granularity":"0"},"geometry":{"type":"Point","coordinates":[-88.802232,47.985986]}},{"type":"Feature","properties":{"park":"Isle_Royale_National_Park","id":"3415269822","title":"2008-07-01 Isle Royale Day 5 (1h) Siskiwit River","accuracy":16,"date_taken":"2008-07-01 16:20:16","date_granularity":"0"},"geometry":{"type":"Point","coordinates":[-88.802232,47.985986]}},{"type":"Feature","properties":{"park":"Isle_Royale_National_Park","id":"3415268982","title":"2008-07-01 Isle Royale Day 5 (1d) Siskiwit River","accuracy":16,"date_taken":"2008-07-01 16:10:39","date_granularity":"0"},"geometry":{"type":"Point","coordinates":[-88.802232,47.985986]}},{"type":"Feature","properties":{"park":"Isle_Royale_National_Park","id":"3414462033","title":"2008-07-01 Isle Royale Day 5 (1b3) Malone Bay CG Map","accuracy":16,"date_taken":"2008-07-01 16:06:54","date_granularity":"0"},"geometry":{"type":"Point","coordinates":[-88.804346,47.985476]}},{"type":"Feature","properties":{"park":"Isle_Royale_National_Park","id":"3414461345","title":"2008-07-01 Isle Royale Day 5 (1g) Siskiwit River Waterfall","accuracy":16,"date_taken":"2008-07-01 16:17:47","date_granularity":"0"},"geometry":{"type":"Point","coordinates":[-88.802897,47.98525]}},{"type":"Feature","properties":{"park":"Isle_Royale_National_Park","id":"3415266618","title":"2008-07-01 Isle Royale Day 5 (1f) Siskiwit River Empting into Siskiwit Bay","accuracy":16,"date_taken":"2008-07-01 16:16:12","date_granularity":"0"},"geometry":{"type":"Point","coordinates":[-88.802919,47.985045]}},{"type":"Feature","properties":{"park":"Isle_Royale_National_Park","id":"3414459781","title":"2008-07-01 Isle Royale Day 5 (1) Malone Bay Shelter","accuracy":16,"date_taken":"2008-07-01 16:04:49","date_granularity":"0"},"geometry":{"type":"Point","coordinates":[-88.80499,47.985089]}},{"type":"Feature","properties":{"park":"Isle_Royale_National_Park","id":"3414459039","title":"2008-07-01 Isle Royale Day 5 (1a) Malone Bay Shelter","accuracy":16,"date_taken":"2008-07-01 16:05:49","date_granularity":"0"},"geometry":{"type":"Point","coordinates":[-88.80499,47.985089]}},{"type":"Feature","properties":{"park":"Isle_Royale_National_Park","id":"3414455763","title":"2008-06-30 Isle Royale Day 4 (4c6) Bull Moose (Alces alces)  on Feldtmann Lake Trail RAY","accuracy":15,"date_taken":"2008-08-28 14:48:32","date_granularity":"0"},"geometry":{"type":"Point","coordinates":[-89.053437,47.873021]}},{"type":"Feature","properties":{"park":"Isle_Royale_National_Park","id":"3415260324","title":"2008-06-30 Isle Royale Day 4 (4c4) Bull Moose (Alces alces)  on Feldtmann Lake Trail RAY","accuracy":15,"date_taken":"2008-08-28 14:48:17","date_granularity":"0"},"geometry":{"type":"Point","coordinates":[-89.053437,47.873021]}},{"type":"Feature","properties":{"park":"Isle_Royale_National_Park","id":"3415259476","title":"2008-06-30 Isle Royale Day 4 (4c3) Bull Moose (Alces alces)  on Feldtmann Lake Trail RAY","accuracy":15,"date_taken":"2008-08-28 14:47:49","date_granularity":"0"},"geometry":{"type":"Point","coordinates":[-89.053437,47.873021]}},{"type":"Feature","properties":{"park":"Isle_Royale_National_Park","id":"3414452801","title":"2008-06-30 Isle Royale Day 4 (4c2) Bull Moose (Alces alces)  on Feldtmann Lake Trail RAY","accuracy":15,"date_taken":"2008-08-28 14:47:33","date_granularity":"0"},"geometry":{"type":"Point","coordinates":[-89.053437,47.873021]}},{"type":"Feature","properties":{"park":"Isle_Royale_National_Park","id":"3414452019","title":"2008-06-30 Isle Royale Day 4 (4c1) Bull Moose (Alces alces)  on Feldtmann Lake Trail RAY","accuracy":15,"date_taken":"2008-08-28 14:47:23","date_granularity":"0"},"geometry":{"type":"Point","coordinates":[-89.053437,47.873021]}},{"type":"Feature","properties":{"park":"Isle_Royale_National_Park","id":"3414451239","title":"2008-06-30 Isle Royale Day 4 (3l4) Bull Moose (Alces alces)  on Feldtmann Lake Traill RAY","accuracy":15,"date_taken":"2008-08-28 14:44:49","date_granularity":"0"},"geometry":{"type":"Point","coordinates":[-89.053437,47.873021]}},{"type":"Feature","properties":{"park":"Isle_Royale_National_Park","id":"3414449967","title":"2008-06-30 Isle Royale Day 4 (3l2b) Bull Moose (Alces alces)  on Feldtmann Lake Traill RAY","accuracy":15,"date_taken":"2008-08-28 14:44:41","date_granularity":"0"},"geometry":{"type":"Point","coordinates":[-89.053437,47.873021]}},{"type":"Feature","properties":{"park":"Isle_Royale_National_Park","id":"3415255150","title":"2008-06-30 Isle Royale Day 4 (3k2) Red Squirrel RAY","accuracy":16,"date_taken":"2008-08-28 14:30:20","date_granularity":"0"},"geometry":{"type":"Point","coordinates":[-89.08748,47.864802]}},{"type":"Feature","properties":{"park":"Isle_Royale_National_Park","id":"3414448489","title":"2008-06-30 Isle Royale Day 4 (2n1a) Mourning Cloak Butterfly at Siskiwit Bay RAY","accuracy":15,"date_taken":"2008-08-28 11:21:36","date_granularity":"0"},"geometry":{"type":"Point","coordinates":[-89.0049,47.893931]}},{"type":"Feature","properties":{"park":"Isle_Royale_National_Park","id":"3414447675","title":"2008-06-30 Isle Royale Day 4 (2n1c) Butterfly at Siskiwit Bay RAY","accuracy":15,"date_taken":"2008-08-28 11:21:33","date_granularity":"0"},"geometry":{"type":"Point","coordinates":[-89.0049,47.893931]}},{"type":"Feature","properties":{"park":"Isle_Royale_National_Park","id":"3415252786","title":"2008-06-30 Isle Royale Day 4 (2n1b) Butterfly at Siskiwit Bay RAY","accuracy":15,"date_taken":"2008-08-28 11:19:37","date_granularity":"0"},"geometry":{"type":"Point","coordinates":[-89.0049,47.893931]}},{"type":"Feature","properties":{"park":"Isle_Royale_National_Park","id":"3415251930","title":"2008-07-04 Isle Royale Day 4 (6e) The Fire Pit at Siskiwit Bay CG RAY","accuracy":15,"date_taken":"2008-08-29 01:52:40","date_granularity":"0"},"geometry":{"type":"Point","coordinates":[-88.998291,47.890931]}},{"type":"Feature","properties":{"park":"Isle_Royale_National_Park","id":"3414444217","title":"2008-07-04 Isle Royale Day 4 (6a) The Fire Pit at Siskiwit Bay CG RAY","accuracy":15,"date_taken":"2008-08-29 01:48:30","date_granularity":"0"},"geometry":{"type":"Point","coordinates":[-88.998291,47.890931]}},{"type":"Feature","properties":{"park":"Isle_Royale_National_Park","id":"3414443783","title":"2008-07-04 Isle Royale Day 4 (5l7) Sunset in Siskiwit Bay","accuracy":15,"date_taken":"2008-08-29 01:39:38","date_granularity":"0"},"geometry":{"type":"Point","coordinates":[-88.998291,47.890931]}},{"type":"Feature","properties":{"park":"Isle_Royale_National_Park","id":"3414443409","title":"2008-07-04 Isle Royale Day 4 (5l6) Sunset in Siskiwit Bay RAY","accuracy":15,"date_taken":"2008-08-29 01:38:17","date_granularity":"0"},"geometry":{"type":"Point","coordinates":[-88.998291,47.890931]}},{"type":"Feature","properties":{"park":"Isle_Royale_National_Park","id":"3415248088","title":"2008-07-04 Isle Royale Day 4 (5l3) Rob Filming Sunset in Siskiwit Bay RAY","accuracy":15,"date_taken":"2008-08-29 01:33:32","date_granularity":"0"},"geometry":{"type":"Point","coordinates":[-88.998291,47.890931]}},{"type":"Feature","properties":{"park":"Isle_Royale_National_Park","id":"3414441507","title":"2008-07-04 Isle Royale Day 4 (5l1) Paul at Fire Pit at Siskiwit Bay CG RAY","accuracy":15,"date_taken":"2008-08-29 01:32:13","date_granularity":"0"},"geometry":{"type":"Point","coordinates":[-88.998291,47.890931]}},{"type":"Feature","properties":{"park":"Isle_Royale_National_Park","id":"3414440831","title":"2008-06-30 Isle Royale Day 4 (5f1) Rock of Ages LightHouse RAY","accuracy":16,"date_taken":"2008-08-28 21:01:46","date_granularity":"0"},"geometry":{"type":"Point","coordinates":[-89.093027,47.861066]}},{"type":"Feature","properties":{"park":"Isle_Royale_National_Park","id":"3415246264","title":"2008-06-30 Isle Royale Day 4 (4l3) Paul With Moose Antlers near Feldtmann Fire Lookout Tower RAY","accuracy":16,"date_taken":"2008-08-28 21:01:24","date_granularity":"0"},"geometry":{"type":"Point","coordinates":[-89.093027,47.861066]}},{"type":"Feature","properties":{"park":"Isle_Royale_National_Park","id":"3415245590","title":"2008-06-30 Isle Royale Day 4 (4l2) Moose Paul Feeding at Feltdmann Tower RAY","accuracy":16,"date_taken":"2008-08-28 21:01:01","date_granularity":"0"},"geometry":{"type":"Point","coordinates":[-89.093027,47.861066]}},{"type":"Feature","properties":{"park":"Isle_Royale_National_Park","id":"3415244760","title":"2008-06-30 Isle Royale Day 4 (4m3) Feldtmann Ridge Fire Lookout Tower RAY","accuracy":16,"date_taken":"2008-08-28 20:47:43","date_granularity":"0"},"geometry":{"type":"Point","coordinates":[-89.093027,47.861066]}},{"type":"Feature","properties":{"park":"Isle_Royale_National_Park","id":"3415244342","title":"2008-06-30 Isle Royale Day 4 (4k2) The old Fire Tower on Feldtmann Ridge RAY","accuracy":16,"date_taken":"2008-08-28 20:33:27","date_granularity":"0"},"geometry":{"type":"Point","coordinates":[-89.093027,47.861066]}},{"type":"Feature","properties":{"park":"Isle_Royale_National_Park","id":"3414436033","title":"2008-06-30 Isle Royale Day 4 (3g3) Siskiwit Bay Shoreline RAY","accuracy":15,"date_taken":"2008-08-28 16:04:17","date_granularity":"0"},"geometry":{"type":"Point","coordinates":[-89.0049,47.893931]}},{"type":"Feature","properties":{"park":"Isle_Royale_National_Park","id":"3414435513","title":"2008-06-30 Isle Royale Day 4 (3g2) Collecting Firewood on Siskiwit Bay Shoreline RAY","accuracy":15,"date_taken":"2008-08-28 16:03:13","date_granularity":"0"},"geometry":{"type":"Point","coordinates":[-89.0049,47.893931]}},{"type":"Feature","properties":{"park":"Isle_Royale_National_Park","id":"3415240810","title":"2008-06-30 Isle Royale Day 4 (3g1) Collecting Firewood on Siskiwit Bay Shoreline RAY","accuracy":15,"date_taken":"2008-08-28 16:03:05","date_granularity":"0"},"geometry":{"type":"Point","coordinates":[-89.0049,47.893931]}},{"type":"Feature","properties":{"park":"Isle_Royale_National_Park","id":"3415240360","title":"2008-06-30 Isle Royale Day 4 (3f3) Siskiwit Bay Panarama RAY","accuracy":15,"date_taken":"2008-08-28 15:50:57","date_granularity":"0"},"geometry":{"type":"Point","coordinates":[-89.0049,47.893931]}},{"type":"Feature","properties":{"park":"Isle_Royale_National_Park","id":"3415240160","title":"2008-06-30 Isle Royale Day 4 (3f2) Big Siskiwit River RAY","accuracy":15,"date_taken":"2008-08-28 15:44:18","date_granularity":"0"},"geometry":{"type":"Point","coordinates":[-89.0049,47.893931]}},{"type":"Feature","properties":{"park":"Isle_Royale_National_Park","id":"3414433791","title":"2008-06-30 Isle Royale Day 4 (3f1) Big Siskiwit River RAY","accuracy":15,"date_taken":"2008-08-28 15:40:13","date_granularity":"0"},"geometry":{"type":"Point","coordinates":[-89.0049,47.893931]}},{"type":"Feature","properties":{"park":"Isle_Royale_National_Park","id":"3415238584","title":"2008-06-30 Isle Royale Day 4 (3b2) Paul in Big Siskiwit River RAY","accuracy":15,"date_taken":"2008-08-28 15:27:15","date_granularity":"0"},"geometry":{"type":"Point","coordinates":[-89.0049,47.893931]}},{"type":"Feature","properties":{"park":"Isle_Royale_National_Park","id":"3414432153","title":"2008-06-30 Isle Royale Day 4 (3b1) Isle Royale Inhabitants RAY","accuracy":15,"date_taken":"2008-08-28 15:26:13","date_granularity":"0"},"geometry":{"type":"Point","coordinates":[-89.0049,47.893931]}},{"type":"Feature","properties":{"park":"Isle_Royale_National_Park","id":"3414430877","title":"2008-06-30 Isle Royale Day 4 (3a3) Paul Fishing in Big Siskiwit River RAY","accuracy":15,"date_taken":"2008-08-28 15:24:57","date_granularity":"0"},"geometry":{"type":"Point","coordinates":[-89.0049,47.893931]}},{"type":"Feature","properties":{"park":"Isle_Royale_National_Park","id":"3414430203","title":"2008-06-30 Isle Royale Day 4 (3a2) Paul Fishing in Big Siskiwit River RAY","accuracy":15,"date_taken":"2008-08-28 15:24:27","date_granularity":"0"},"geometry":{"type":"Point","coordinates":[-89.0049,47.893931]}},{"type":"Feature","properties":{"park":"Isle_Royale_National_Park","id":"3415235732","title":"2008-06-30 Isle Royale Day 4 (3a1) Paul Fishing in Big Siskiwit River RAY","accuracy":15,"date_taken":"2008-08-28 15:24:17","date_granularity":"0"},"geometry":{"type":"Point","coordinates":[-89.0049,47.893931]}},{"type":"Feature","properties":{"park":"Isle_Royale_National_Park","id":"3414428311","title":"2008-06-30 Isle Royale Day 4 (2n2) Big Siskiwt River at Shoreline of Siskiwit Bay RAY","accuracy":15,"date_taken":"2008-08-28 15:22:26","date_granularity":"0"},"geometry":{"type":"Point","coordinates":[-89.0049,47.893931]}},{"type":"Feature","properties":{"park":"Isle_Royale_National_Park","id":"3415233124","title":"2008-06-30 Isle Royale Day 4 (2k2) Footprints on Siskiwit Bay Shoreline RAY","accuracy":15,"date_taken":"2008-08-28 15:15:40","date_granularity":"0"},"geometry":{"type":"Point","coordinates":[-89.0049,47.893931]}},{"type":"Feature","properties":{"park":"Isle_Royale_National_Park","id":"3415232668","title":"2008-06-30 Isle Royale Day 4 (2k1) Footprints on Siskiwit Bay Shoreline RAY","accuracy":15,"date_taken":"2008-08-28 15:15:01","date_granularity":"0"},"geometry":{"type":"Point","coordinates":[-89.0049,47.893931]}},{"type":"Feature","properties":{"park":"Isle_Royale_National_Park","id":"3414426247","title":"2008-06-30 Isle Royale Day 4 (2j4) Our Boat in Siskiwit Bay RAY","accuracy":15,"date_taken":"2008-08-28 15:13:32","date_granularity":"0"},"geometry":{"type":"Point","coordinates":[-89.0049,47.893931]}},{"type":"Feature","properties":{"park":"Isle_Royale_National_Park","id":"3414425889","title":"2008-06-30 Isle Royale Day 4 (2j3) Wolf Tracks on Siskiwit Bay Shoreline RAY","accuracy":15,"date_taken":"2008-08-28 15:12:03","date_granularity":"0"},"geometry":{"type":"Point","coordinates":[-89.0049,47.893931]}},{"type":"Feature","properties":{"park":"Isle_Royale_National_Park","id":"3414425377","title":"2008-06-30 Isle Royale Day 4 (2j2) Wolf Tracks on Siskiwit Bay Shoreline RAY","accuracy":15,"date_taken":"2008-08-28 15:11:41","date_granularity":"0"},"geometry":{"type":"Point","coordinates":[-89.0049,47.893931]}},{"type":"Feature","properties":{"park":"Isle_Royale_National_Park","id":"3415230488","title":"2008-06-30 Isle Royale Day 4 (2j1) Wolf Tracks on Siskiwit Bay Shoreline RAY","accuracy":15,"date_taken":"2008-08-28 15:10:41","date_granularity":"0"},"geometry":{"type":"Point","coordinates":[-89.0049,47.893931]}},{"type":"Feature","properties":{"park":"Isle_Royale_National_Park","id":"3414423961","title":"2008-06-30 Isle Royale Day 4 (1m3) Siskiwit Bay Dock RAY","accuracy":15,"date_taken":"2008-08-28 14:14:53","date_granularity":"0"},"geometry":{"type":"Point","coordinates":[-88.998291,47.890931]}},{"type":"Feature","properties":{"park":"Isle_Royale_National_Park","id":"3414423523","title":"2008-06-30 Isle Royale Day 4 (1m2) Rob on Siskiwit Bay CG Seawall RAY","accuracy":15,"date_taken":"2008-08-28 14:05:51","date_granularity":"0"},"geometry":{"type":"Point","coordinates":[-88.998291,47.890931]}},{"type":"Feature","properties":{"park":"Isle_Royale_National_Park","id":"3415229096","title":"2008-06-30 Isle Royale Day 4 (1m1) View of Siskiwit Bay CG RAY","accuracy":15,"date_taken":"2008-08-28 14:04:10","date_granularity":"0"},"geometry":{"type":"Point","coordinates":[-88.998291,47.890931]}},{"type":"Feature","properties":{"park":"Isle_Royale_National_Park","id":"3415228592","title":"2008-07-04 Isle Royale Day 4 (5l8) Sunset in Siskiwit Bay","accuracy":15,"date_taken":"2008-07-04 02:18:28","date_granularity":"0"},"geometry":{"type":"Point","coordinates":[-88.998291,47.890931]}},{"type":"Feature","properties":{"park":"Isle_Royale_National_Park","id":"3415228296","title":"2008-06-30 Isle Royale Day 4 (5d) View E from the Feldtmann Firetower","accuracy":16,"date_taken":"2008-06-30 16:58:57","date_granularity":"0"},"geometry":{"type":"Point","coordinates":[-89.093027,47.861066]}},{"type":"Feature","properties":{"park":"Isle_Royale_National_Park","id":"3414421727","title":"2008-06-30 Isle Royale Day 4 (5c) View NE from the Feldtmann Firetower","accuracy":16,"date_taken":"2008-06-30 16:57:47","date_granularity":"0"},"geometry":{"type":"Point","coordinates":[-89.093027,47.861066]}},{"type":"Feature","properties":{"park":"Isle_Royale_National_Park","id":"3414421007","title":"2008-06-30 Isle Royale Day 4 (5e) View N from the Feldtmann Firetower","accuracy":16,"date_taken":"2008-06-30 20:59:23","date_granularity":"0"},"geometry":{"type":"Point","coordinates":[-89.093027,47.861066]}},{"type":"Feature","properties":{"park":"Isle_Royale_National_Park","id":"3415226042","title":"2008-06-30 Isle Royale Day 4 (5b) View NE from the Feldtmann Firetower","accuracy":16,"date_taken":"2008-06-30 20:57:30","date_granularity":"0"},"geometry":{"type":"Point","coordinates":[-89.093027,47.861066]}},{"type":"Feature","properties":{"park":"Isle_Royale_National_Park","id":"3414419219","title":"2008-06-30 Isle Royale Day 4 (5a) Paul on Feldtmann Firetower","accuracy":16,"date_taken":"2008-06-30 20:57:20","date_granularity":"0"},"geometry":{"type":"Point","coordinates":[-89.093027,47.861066]}},{"type":"Feature","properties":{"park":"Isle_Royale_National_Park","id":"3414417083","title":"2008-06-30 Isle Royale Day 4 (5h) Daisies near Feldtmann Tower","accuracy":16,"date_taken":"2008-06-30 21:37:39","date_granularity":"0"},"geometry":{"type":"Point","coordinates":[-89.093027,47.861066]}},{"type":"Feature","properties":{"park":"Isle_Royale_National_Park","id":"3415222574","title":"2008-06-30 Isle Royale Day 4 (5g) Daisies near Feldtmann Tower","accuracy":16,"date_taken":"2008-06-30 21:37:26","date_granularity":"0"},"geometry":{"type":"Point","coordinates":[-89.093027,47.861066]}},{"type":"Feature","properties":{"park":"Isle_Royale_National_Park","id":"3414415885","title":"2008-06-30 Isle Royale Day 4 (5f2) Paul with Moose Antler","accuracy":16,"date_taken":"2008-06-30 21:01:13","date_granularity":"0"},"geometry":{"type":"Point","coordinates":[-89.093027,47.861066]}},{"type":"Feature","properties":{"park":"Isle_Royale_National_Park","id":"3415220676","title":"2008-06-30 Isle Royale Day 4 (4n) View SW from the Feldtmann Firetower","accuracy":16,"date_taken":"2008-06-30 20:56:17","date_granularity":"0"},"geometry":{"type":"Point","coordinates":[-89.093027,47.861066]}},{"type":"Feature","properties":{"park":"Isle_Royale_National_Park","id":"3415219926","title":"2008-06-30 Isle Royale Day 4 (4m4) Feldtmann Ridge Fire Lookout Tower","accuracy":16,"date_taken":"2008-06-30 20:48:29","date_granularity":"0"},"geometry":{"type":"Point","coordinates":[-89.093027,47.861066]}},{"type":"Feature","properties":{"park":"Isle_Royale_National_Park","id":"3414413063","title":"2008-06-30 Isle Royale Day 4 (4l1) Moose Antlers near Feldtmann Fire Lookout Tower","accuracy":16,"date_taken":"2008-06-30 20:48:03","date_granularity":"0"},"geometry":{"type":"Point","coordinates":[-89.093027,47.861066]}},{"type":"Feature","properties":{"park":"Isle_Royale_National_Park","id":"3414412213","title":"2008-06-30 Isle Royale Day 4 (4k1) Feldtmann Ridge Birch Forest","accuracy":16,"date_taken":"2008-06-30 19:57:11","date_granularity":"0"},"geometry":{"type":"Point","coordinates":[-89.08748,47.864802]}},{"type":"Feature","properties":{"park":"Isle_Royale_National_Park","id":"3414411495","title":"2008-06-30 Isle Royale Day 4 (4j) Feldtmann Ridge Birch Forest","accuracy":16,"date_taken":"2008-06-30 19:56:57","date_granularity":"0"},"geometry":{"type":"Point","coordinates":[-89.08748,47.864802]}},{"type":"Feature","properties":{"park":"Isle_Royale_National_Park","id":"3414410755","title":"2008-06-30 Isle Royale Day 4 (4h) Resting on the Feldtmann Ridge Trail","accuracy":16,"date_taken":"2008-06-30 19:39:35","date_granularity":"0"},"geometry":{"type":"Point","coordinates":[-89.08748,47.864802]}},{"type":"Feature","properties":{"park":"Isle_Royale_National_Park","id":"3415215836","title":"2008-06-30 Isle Royale Day 4 (4g) Feldtmann Ridge Birch Forest","accuracy":16,"date_taken":"2008-06-30 19:18:00","date_granularity":"0"},"geometry":{"type":"Point","coordinates":[-89.08748,47.864802]}},{"type":"Feature","properties":{"park":"Isle_Royale_National_Park","id":"3415214982","title":"2008-06-30 Isle Royale Day 4 (4f) Feldtmann Ridge Birch Forest","accuracy":16,"date_taken":"2008-06-30 19:17:21","date_granularity":"0"},"geometry":{"type":"Point","coordinates":[-89.08748,47.864802]}},{"type":"Feature","properties":{"park":"Isle_Royale_National_Park","id":"3415214238","title":"2008-06-30 Isle Royale Day 4 (4e)Feldtmann Ridge Birch Forest","accuracy":16,"date_taken":"2008-06-30 19:17:16","date_granularity":"0"},"geometry":{"type":"Point","coordinates":[-89.08748,47.864802]}},{"type":"Feature","properties":{"park":"Isle_Royale_National_Park","id":"3415213406","title":"2008-06-30 Isle Royale Day 4 (4d) Eastern Columbine (Aquilegia canadensis)","accuracy":16,"date_taken":"2008-06-30 19:00:57","date_granularity":"0"},"geometry":{"type":"Point","coordinates":[-89.08748,47.864802]}},{"type":"Feature","properties":{"park":"Isle_Royale_National_Park","id":"3414405381","title":"2008-06-30 Isle Royale Day 4 (4a) Bull Moose (Alces alces)  on Feldtmann Lake Trail","accuracy":15,"date_taken":"2008-06-30 18:45:55","date_granularity":"0"},"geometry":{"type":"Point","coordinates":[-89.053437,47.873021]}},{"type":"Feature","properties":{"park":"Isle_Royale_National_Park","id":"3414404657","title":"2008-06-30 Isle Royale Day 4 (3l5) Bull Moose (Alces alces)  on Feldtmann Lake Traill","accuracy":15,"date_taken":"2008-06-30 18:45:46","date_granularity":"0"},"geometry":{"type":"Point","coordinates":[-89.053437,47.873021]}},{"type":"Feature","properties":{"park":"Isle_Royale_National_Park","id":"3415208774","title":"2008-06-30 Isle Royale Day 4 (3k2) Red Squirrel ((Tamiasciurus hudsonicus)","accuracy":15,"date_taken":"2008-06-30 14:29:45","date_granularity":"0"},"geometry":{"type":"Point","coordinates":[-89.053437,47.873021]}},{"type":"Feature","properties":{"park":"Isle_Royale_National_Park","id":"3414402353","title":"2008-06-30 Isle Royale Day 4 (3j) Red Squirrel ((Tamiasciurus hudsonicus)","accuracy":15,"date_taken":"2008-06-30 14:29:29","date_granularity":"0"},"geometry":{"type":"Point","coordinates":[-89.053437,47.873021]}},{"type":"Feature","properties":{"park":"Isle_Royale_National_Park","id":"3414400831","title":"2008-06-30 Isle Royale Day 4 (3g4) Meadow Buttercup at Siskiwit Bay Shoreline","accuracy":15,"date_taken":"2008-06-30 12:07:53","date_granularity":"0"},"geometry":{"type":"Point","coordinates":[-89.0049,47.893931]}},{"type":"Feature","properties":{"park":"Isle_Royale_National_Park","id":"3414400051","title":"2008-06-30 Isle Royale Day 4 (3) Paul in the Big Siskiwit River","accuracy":15,"date_taken":"2008-06-30 15:24:18","date_granularity":"0"},"geometry":{"type":"Point","coordinates":[-89.0049,47.893931]}},{"type":"Feature","properties":{"park":"Isle_Royale_National_Park","id":"3415204050","title":"2008-06-30 Isle Royale Day 4 (3f4) Ray at work near Big Siskiwit River outlet","accuracy":15,"date_taken":"2008-06-30 15:51:27","date_granularity":"0"},"geometry":{"type":"Point","coordinates":[-89.0049,47.893931]}},{"type":"Feature","properties":{"park":"Isle_Royale_National_Park","id":"3415203312","title":"2008-06-30 Isle Royale Day 4 (3e) Ray in Siskiwit Bay","accuracy":15,"date_taken":"2008-06-30 15:39:35","date_granularity":"0"},"geometry":{"type":"Point","coordinates":[-89.0049,47.893931]}},{"type":"Feature","properties":{"park":"Isle_Royale_National_Park","id":"3414396271","title":"2008-06-30 Isle Royale Day 4 (3c2) Beach Pea (Lathyrus japonicus) on Siskiwit Bay Shoreline","accuracy":15,"date_taken":"2008-06-30 11:37:01","date_granularity":"0"},"geometry":{"type":"Point","coordinates":[-89.0049,47.893931]}},{"type":"Feature","properties":{"park":"Isle_Royale_National_Park","id":"3414395423","title":"2008-06-30 Isle Royale Day 4 (3b3) Big Siskiwit River","accuracy":15,"date_taken":"2008-06-30 15:28:08","date_granularity":"0"},"geometry":{"type":"Point","coordinates":[-89.0049,47.893931]}},{"type":"Feature","properties":{"park":"Isle_Royale_National_Park","id":"3414393847","title":"2008-06-30 Isle Royale Day 4 (3a5) Ray at the Big Siskiwit River Mouth","accuracy":15,"date_taken":"2008-06-30 15:25:11","date_granularity":"0"},"geometry":{"type":"Point","coordinates":[-89.0049,47.893931]}},{"type":"Feature","properties":{"park":"Isle_Royale_National_Park","id":"3415196558","title":"2008-06-30 Isle Royale Day 4 (2f) Rocky Bottom in Siskiwit Bay","accuracy":15,"date_taken":"2008-06-30 14:56:27","date_granularity":"0"},"geometry":{"type":"Point","coordinates":[-89.004406,47.896362]}},{"type":"Feature","properties":{"park":"Isle_Royale_National_Park","id":"3415194262","title":"2008-06-30 Isle Royale Day 4 (2c) Siskiwit Bay Sandy Bottom","accuracy":15,"date_taken":"2008-06-30 14:49:28","date_granularity":"0"},"geometry":{"type":"Point","coordinates":[-89.004406,47.896362]}},{"type":"Feature","properties":{"park":"Isle_Royale_National_Park","id":"3415193552","title":"2008-06-30 Isle Royale Day 4 (2b) Siskiwit Bay Sandy Bottom","accuracy":15,"date_taken":"2008-06-30 14:48:36","date_granularity":"0"},"geometry":{"type":"Point","coordinates":[-89.004406,47.896362]}},{"type":"Feature","properties":{"park":"Isle_Royale_National_Park","id":"3415192130","title":"2008-06-30 Isle Royale Day 4 (2m) Shoreline of Siskiwit Bay","accuracy":15,"date_taken":"2008-06-30 15:17:48","date_granularity":"0"},"geometry":{"type":"Point","coordinates":[-89.0049,47.893931]}},{"type":"Feature","properties":{"park":"Isle_Royale_National_Park","id":"3415190352","title":"2008-06-30 Isle Royale Day 4 (2k3) Canadien Tiger Swallowtail (Papilio canadensis) Butterfly","accuracy":15,"date_taken":"2008-06-30 15:19:15","date_granularity":"0"},"geometry":{"type":"Point","coordinates":[-89.0049,47.893931]}},{"type":"Feature","properties":{"park":"Isle_Royale_National_Park","id":"3415188488","title":"2008-06-30 Isle Royale Day 4 (2) Siskiwit Bay Sandy Bottom","accuracy":15,"date_taken":"2008-06-30 10:47:47","date_granularity":"0"},"geometry":{"type":"Point","coordinates":[-89.004406,47.896362]}},{"type":"Feature","properties":{"park":"Isle_Royale_National_Park","id":"3415187048","title":"2008-06-30 Isle Royale Day 4 (1m4) Siskiwit Bay Sandy Bottom","accuracy":15,"date_taken":"2008-06-30 14:47:29","date_granularity":"0"},"geometry":{"type":"Point","coordinates":[-89.004406,47.896362]}},{"type":"Feature","properties":{"park":"Isle_Royale_National_Park","id":"3415185124","title":"2008-06-30 Isle Royale Day 4 (1j) Shoreline at Siskiwit Bay CG","accuracy":15,"date_taken":"2008-06-30 12:12:44","date_granularity":"0"},"geometry":{"type":"Point","coordinates":[-88.998291,47.890931]}},{"type":"Feature","properties":{"park":"Isle_Royale_National_Park","id":"3415184224","title":"2008-06-30 Isle Royale Day 4 (1h) The Dock at Siskiwit Bay CG","accuracy":15,"date_taken":"2008-06-30 11:57:59","date_granularity":"0"},"geometry":{"type":"Point","coordinates":[-88.99887,47.892096]}},{"type":"Feature","properties":{"park":"Isle_Royale_National_Park","id":"3413919495","title":"2008-06-30 Isle Royale Day 4 (2) Siskiwit Bay Sandy Bottom","accuracy":15,"date_taken":"2008-06-30 10:47:47","date_granularity":"0"},"geometry":{"type":"Point","coordinates":[-89.004406,47.896362]}},{"type":"Feature","properties":{"park":"Isle_Royale_National_Park","id":"3413917905","title":"2008-06-30 Isle Royale Day 4 (1j) Shoreline at Siskiwit Bay CG","accuracy":15,"date_taken":"2008-06-30 12:12:44","date_granularity":"0"},"geometry":{"type":"Point","coordinates":[-88.998291,47.890931]}},{"type":"Feature","properties":{"park":"Isle_Royale_National_Park","id":"3414722836","title":"2008-06-30 Isle Royale Day 4 (1k) View from Siskiwit Bay CG Dock","accuracy":15,"date_taken":"2008-06-30 12:13:01","date_granularity":"0"},"geometry":{"type":"Point","coordinates":[-88.998291,47.890931]}},{"type":"Feature","properties":{"park":"Isle_Royale_National_Park","id":"3413916077","title":"2008-06-30 Isle Royale Day 4 (1a4) Pre Dawn 531AM Chippewa Harbor Dock","accuracy":16,"date_taken":"2008-06-30 09:31:14","date_granularity":"0"},"geometry":{"type":"Point","coordinates":[-88.650258,48.028953]}},{"type":"Feature","properties":{"park":"Isle_Royale_National_Park","id":"3414721542","title":"2008-06-30 Isle Royale Day 4 (1b) The Moose 531AM from Chippewa Harbor Dock","accuracy":16,"date_taken":"2008-06-30 05:31:22","date_granularity":"0"},"geometry":{"type":"Point","coordinates":[-88.650258,48.028953]}},{"type":"Feature","properties":{"park":"Isle_Royale_National_Park","id":"3413914555","title":"2008-06-30 Isle Royale Day 4 (1d2) PreDawn 533AM From Chippewa Harbpr Dock","accuracy":16,"date_taken":"2008-06-30 09:33:11","date_granularity":"0"},"geometry":{"type":"Point","coordinates":[-88.650258,48.028953]}},{"type":"Feature","properties":{"park":"Isle_Royale_National_Park","id":"3414718604","title":"2008-06-29 Isle Royale Day 3 (2l1F) Rob's 43inch Pike Chippewa Harbor 5X7 RAY small","accuracy":16,"date_taken":"2008-08-27 19:04:15","date_granularity":"0"},"geometry":{"type":"Point","coordinates":[-88.666491,48.021706]}},{"type":"Feature","properties":{"park":"Isle_Royale_National_Park","id":"3414718518","title":"2008-06-29 Isle Royale Day 3 (3A3) Paul's filleting Pike in Chippewa Harbor RAY","accuracy":16,"date_taken":"2008-08-27 18:37:41","date_granularity":"0"},"geometry":{"type":"Point","coordinates":[-88.666266,48.021118]}},{"type":"Feature","properties":{"park":"Isle_Royale_National_Park","id":"3414718082","title":"2008-06-29 Isle Royale Day 3 (3A2) Paul's filleting Pike in Chippewa Harbor RAY","accuracy":16,"date_taken":"2008-08-27 18:37:30","date_granularity":"0"},"geometry":{"type":"Point","coordinates":[-88.666266,48.021118]}},{"type":"Feature","properties":{"park":"Isle_Royale_National_Park","id":"3413911607","title":"2008-06-29 Isle Royale Day 3 (2N3) Paul's Pike in Chippewa Harbor RAY","accuracy":16,"date_taken":"2008-08-27 17:03:58","date_granularity":"0"},"geometry":{"type":"Point","coordinates":[-88.663187,48.022216]}},{"type":"Feature","properties":{"park":"Isle_Royale_National_Park","id":"3413911281","title":"2008-06-29 Isle Royale Day 3 (2N2) Paul's Pike in Chippewa Harbor RAY","accuracy":16,"date_taken":"2008-08-27 17:03:40","date_granularity":"0"},"geometry":{"type":"Point","coordinates":[-88.663187,48.022216]}},{"type":"Feature","properties":{"park":"Isle_Royale_National_Park","id":"3413910861","title":"2008-06-29 Isle Royale Day 3 (2m1A) Paul's Pike in Chippewa Harbor RAY","accuracy":16,"date_taken":"2008-08-27 16:58:00","date_granularity":"0"},"geometry":{"type":"Point","coordinates":[-88.663187,48.022216]}},{"type":"Feature","properties":{"park":"Isle_Royale_National_Park","id":"3413910451","title":"2008-06-29 Isle Royale Day 3 (2l1K) Rob's 43inch Pike Chippewa Harbor RAY","accuracy":16,"date_taken":"2008-08-27 15:05:14","date_granularity":"0"},"geometry":{"type":"Point","coordinates":[-88.666491,48.021706]}},{"type":"Feature","properties":{"park":"Isle_Royale_National_Park","id":"26795807874","title":"Rock Harbor","accuracy":15,"date_taken":"2012-07-08 05:47:50","date_granularity":"0"},"geometry":{"type":"Point","coordinates":[-88.482191,48.145586]}},{"type":"Feature","properties":{"park":"Isle_Royale_National_Park","id":"30940792467","title":"Isle Royale National Park (Keweenaw County, Michigan)","accuracy":15,"date_taken":"2018-07-15 09:54:23","date_granularity":"0"},"geometry":{"type":"Point","coordinates":[-88.481826,48.148128]}},{"type":"Feature","properties":{"park":"Isle_Royale_National_Park","id":"30940788757","title":"Isle Royale National Park (Keweenaw County, Michigan)","accuracy":15,"date_taken":"2018-07-15 10:55:23","date_granularity":"0"},"geometry":{"type":"Point","coordinates":[-88.478651,48.15117]}},{"type":"Feature","properties":{"park":"Isle_Royale_National_Park","id":"45830300532","title":"Isle Royale National Park (Keweenaw County, Michigan)","accuracy":15,"date_taken":"2018-07-15 11:03:47","date_granularity":"0"},"geometry":{"type":"Point","coordinates":[-88.478522,48.148715]}},{"type":"Feature","properties":{"park":"Isle_Royale_National_Park","id":"30940783427","title":"Rock Harbor (Isle Royale National Park, Michigan)","accuracy":16,"date_taken":"2018-07-15 09:46:25","date_granularity":"0"},"geometry":{"type":"Point","coordinates":[-88.484069,48.146041]}},{"type":"Feature","properties":{"park":"Isle_Royale_National_Park","id":"45830296182","title":"Rock Harbor Lodge (Isle Royale National Park, Michigan)","accuracy":16,"date_taken":"2018-07-15 09:49:43","date_granularity":"0"},"geometry":{"type":"Point","coordinates":[-88.4832,48.145225]}},{"type":"Feature","properties":{"park":"Isle_Royale_National_Park","id":"45880034871","title":"Rock Harbor (Isle Royale National Park, Michigan)","accuracy":16,"date_taken":"2018-07-15 09:50:20","date_granularity":"0"},"geometry":{"type":"Point","coordinates":[-88.483886,48.145734]}},{"type":"Feature","properties":{"park":"Isle_Royale_National_Park","id":"32008497288","title":"Isle Royale National Park Sign (Rock Harbor, Michigan)","accuracy":15,"date_taken":"2018-07-15 09:41:08","date_granularity":"0"},"geometry":{"type":"Point","coordinates":[-88.486032,48.146067]}},{"type":"Feature","properties":{"park":"Isle_Royale_National_Park","id":"44966700055","title":"Isle Royale National Park Visitor Center (Rock Harbor, Michigan)","accuracy":15,"date_taken":"2018-07-15 09:40:36","date_granularity":"0"},"geometry":{"type":"Point","coordinates":[-88.486032,48.146067]}},{"type":"Feature","properties":{"park":"Isle_Royale_National_Park","id":"44966697465","title":"Isle Royale National Park Visitor Center (Rock Harbor, Michigan)","accuracy":15,"date_taken":"2018-07-15 09:40:43","date_granularity":"0"},"geometry":{"type":"Point","coordinates":[-88.486032,48.146067]}},{"type":"Feature","properties":{"park":"Isle_Royale_National_Park","id":"32008495138","title":"Isle Royale National Park (Keweenaw County, Michigan)","accuracy":16,"date_taken":"2018-07-15 09:42:00","date_granularity":"0"},"geometry":{"type":"Point","coordinates":[-88.484069,48.146041]}},{"type":"Feature","properties":{"park":"Isle_Royale_National_Park","id":"44966694405","title":"Isle Royale National Park (Keweenaw County, Michigan)","accuracy":16,"date_taken":"2018-07-15 09:42:23","date_granularity":"0"},"geometry":{"type":"Point","coordinates":[-88.484069,48.146041]}},{"type":"Feature","properties":{"park":"Isle_Royale_National_Park","id":"32008494728","title":"Moose/Wolves Marker (Isle Royale National Park, Michigan)","accuracy":16,"date_taken":"2018-07-15 09:43:42","date_granularity":"0"},"geometry":{"type":"Point","coordinates":[-88.484069,48.146041]}},{"type":"Feature","properties":{"park":"Isle_Royale_National_Park","id":"32008493978","title":"Isle Royale National Park (Keweenaw County, Michigan)","accuracy":16,"date_taken":"2018-07-15 09:43:56","date_granularity":"0"},"geometry":{"type":"Point","coordinates":[-88.484069,48.146041]}},{"type":"Feature","properties":{"park":"Isle_Royale_National_Park","id":"45879983651","title":"Stephen Tyng Mather Monument (Isle Royale National Park, Michigan)","accuracy":16,"date_taken":"2018-07-15 09:45:51","date_granularity":"0"},"geometry":{"type":"Point","coordinates":[-88.484069,48.146041]}},{"type":"Feature","properties":{"park":"Isle_Royale_National_Park","id":"32008487498","title":"Isle Royale's Resorts Marker (Isle Royale National Park, Michigan)","accuracy":16,"date_taken":"2018-07-15 09:46:04","date_granularity":"0"},"geometry":{"type":"Point","coordinates":[-88.484069,48.146041]}},{"type":"Feature","properties":{"park":"Isle_Royale_National_Park","id":"45879980221","title":"Rock Harbor (Isle Royale National Park, Michigan)","accuracy":16,"date_taken":"2018-07-15 09:48:33","date_granularity":"0"},"geometry":{"type":"Point","coordinates":[-88.484069,48.146041]}},{"type":"Feature","properties":{"park":"Isle_Royale_National_Park","id":"30940731107","title":"Rock Harbor Lodge Bell (Isle Royale National Park, Michigan)","accuracy":16,"date_taken":"2018-07-15 09:49:22","date_granularity":"0"},"geometry":{"type":"Point","coordinates":[-88.4832,48.145225]}},{"type":"Feature","properties":{"park":"Isle_Royale_National_Park","id":"44063308600","title":"Rock Harbor Lodge Mailbox (Isle Royale National Park, Michigan)","accuracy":16,"date_taken":"2018-07-15 09:48:54","date_granularity":"0"},"geometry":{"type":"Point","coordinates":[-88.4832,48.145225]}},{"type":"Feature","properties":{"park":"Isle_Royale_National_Park","id":"44063307340","title":"Rock Harbor (Isle Royale National Park, Michigan)","accuracy":16,"date_taken":"2018-07-15 09:50:13","date_granularity":"0"},"geometry":{"type":"Point","coordinates":[-88.483886,48.145734]}},{"type":"Feature","properties":{"park":"Isle_Royale_National_Park","id":"30940715677","title":"Smithwick Mine (Isle Royale National Park, Michigan)","accuracy":15,"date_taken":"2018-07-15 09:58:33","date_granularity":"0"},"geometry":{"type":"Point","coordinates":[-88.481826,48.148128]}},{"type":"Feature","properties":{"park":"Isle_Royale_National_Park","id":"44063293210","title":"Smithwick Mine (Isle Royale National Park, Michigan)","accuracy":15,"date_taken":"2018-07-15 09:58:44","date_granularity":"0"},"geometry":{"type":"Point","coordinates":[-88.481826,48.148128]}},{"type":"Feature","properties":{"park":"Isle_Royale_National_Park","id":"44966663225","title":"Isle Royale National Park (Keweenaw County, Michigan)","accuracy":15,"date_taken":"2018-07-15 10:00:22","date_granularity":"0"},"geometry":{"type":"Point","coordinates":[-88.481826,48.148128]}},{"type":"Feature","properties":{"park":"Isle_Royale_National_Park","id":"44966662245","title":"Isle Royale National Park (Keweenaw County, Michigan)","accuracy":15,"date_taken":"2018-07-15 10:01:10","date_granularity":"0"},"geometry":{"type":"Point","coordinates":[-88.481826,48.148128]}},{"type":"Feature","properties":{"park":"Isle_Royale_National_Park","id":"44966660315","title":"Isle Royale National Park (Keweenaw County, Michigan)","accuracy":15,"date_taken":"2018-07-15 10:05:48","date_granularity":"0"},"geometry":{"type":"Point","coordinates":[-88.481826,48.148128]}},{"type":"Feature","properties":{"park":"Isle_Royale_National_Park","id":"44966659555","title":"Isle Royale National Park (Keweenaw County, Michigan)","accuracy":15,"date_taken":"2018-07-15 10:08:57","date_granularity":"0"},"geometry":{"type":"Point","coordinates":[-88.481826,48.148128]}},{"type":"Feature","properties":{"park":"Isle_Royale_National_Park","id":"44966658945","title":"Trees Marker (Isle Royale National Park, Michigan)","accuracy":15,"date_taken":"2018-07-15 10:10:05","date_granularity":"0"},"geometry":{"type":"Point","coordinates":[-88.478651,48.15117]}},{"type":"Feature","properties":{"park":"Isle_Royale_National_Park","id":"44966658445","title":"Isle Royale National Park (Keweenaw County, Michigan)","accuracy":15,"date_taken":"2018-07-15 10:17:55","date_granularity":"0"},"geometry":{"type":"Point","coordinates":[-88.478651,48.15117]}},{"type":"Feature","properties":{"park":"Isle_Royale_National_Park","id":"44966657695","title":"Isle Royale National Park (Keweenaw County, Michigan)","accuracy":15,"date_taken":"2018-07-15 10:18:04","date_granularity":"0"},"geometry":{"type":"Point","coordinates":[-88.478651,48.15117]}},{"type":"Feature","properties":{"park":"Isle_Royale_National_Park","id":"44966657255","title":"Isle Royale National Park (Keweenaw County, Michigan)","accuracy":15,"date_taken":"2018-07-15 10:20:21","date_granularity":"0"},"geometry":{"type":"Point","coordinates":[-88.478651,48.15117]}},{"type":"Feature","properties":{"park":"Isle_Royale_National_Park","id":"44966656555","title":"Isle Royale National Park (Keweenaw County, Michigan)","accuracy":15,"date_taken":"2018-07-15 10:30:22","date_granularity":"0"},"geometry":{"type":"Point","coordinates":[-88.478651,48.15117]}},{"type":"Feature","properties":{"park":"Isle_Royale_National_Park","id":"45155732894","title":"Isle Royale National Park (Keweenaw County, Michigan)","accuracy":15,"date_taken":"2018-07-15 10:38:03","date_granularity":"0"},"geometry":{"type":"Point","coordinates":[-88.478651,48.15117]}},{"type":"Feature","properties":{"park":"Isle_Royale_National_Park","id":"44966650265","title":"Isle Royale National Park (Keweenaw County, Michigan)","accuracy":15,"date_taken":"2018-07-15 10:39:12","date_granularity":"0"},"geometry":{"type":"Point","coordinates":[-88.478651,48.15117]}},{"type":"Feature","properties":{"park":"Isle_Royale_National_Park","id":"45155729184","title":"Elements of Change Marker (Isle Royale National Park, Michigan)","accuracy":15,"date_taken":"2018-07-15 10:45:54","date_granularity":"0"},"geometry":{"type":"Point","coordinates":[-88.478651,48.15117]}},{"type":"Feature","properties":{"park":"Isle_Royale_National_Park","id":"44966649155","title":"Stoll's Wilderness Marker (Isle Royale National Park, Michigan)","accuracy":15,"date_taken":"2018-07-15 10:50:21","date_granularity":"0"},"geometry":{"type":"Point","coordinates":[-88.478651,48.15117]}},{"type":"Feature","properties":{"park":"Isle_Royale_National_Park","id":"45155728184","title":"Isle Royale National Park (Keweenaw County, Michigan)","accuracy":15,"date_taken":"2018-07-15 10:50:53","date_granularity":"0"},"geometry":{"type":"Point","coordinates":[-88.478651,48.15117]}},{"type":"Feature","properties":{"park":"Isle_Royale_National_Park","id":"45879934961","title":"Superior's Impact Marker (Isle Royale National Park, Michigan)","accuracy":15,"date_taken":"2018-07-15 10:55:17","date_granularity":"0"},"geometry":{"type":"Point","coordinates":[-88.478651,48.15117]}},{"type":"Feature","properties":{"park":"Isle_Royale_National_Park","id":"44966638855","title":"Isle Royale National Park (Keweenaw County, Michigan)","accuracy":15,"date_taken":"2018-07-15 10:56:51","date_granularity":"0"},"geometry":{"type":"Point","coordinates":[-88.478522,48.148715]}},{"type":"Feature","properties":{"park":"Isle_Royale_National_Park","id":"32008444078","title":"Isle Royale National Park (Keweenaw County, Michigan)","accuracy":15,"date_taken":"2018-07-15 10:58:32","date_granularity":"0"},"geometry":{"type":"Point","coordinates":[-88.478522,48.148715]}},{"type":"Feature","properties":{"park":"Isle_Royale_National_Park","id":"32008425578","title":"Isle Royale National Park (Keweenaw County, Michigan)","accuracy":15,"date_taken":"2018-07-15 11:03:41","date_granularity":"0"},"geometry":{"type":"Point","coordinates":[-88.478522,48.148715]}},{"type":"Feature","properties":{"park":"Isle_Royale_National_Park","id":"44966590645","title":"Wet Spots Marker (Isle Royale National Park, Michigan)","accuracy":15,"date_taken":"2018-07-15 11:06:39","date_granularity":"0"},"geometry":{"type":"Point","coordinates":[-88.478522,48.148715]}},{"type":"Feature","properties":{"park":"Isle_Royale_National_Park","id":"44966590125","title":"Isle Royale: Just Tilted Rocks Marker (Isle Royale National Park, Michigan)","accuracy":15,"date_taken":"2018-07-15 11:17:01","date_granularity":"0"},"geometry":{"type":"Point","coordinates":[-88.478522,48.148715]}},{"type":"Feature","properties":{"park":"Isle_Royale_National_Park","id":"45155680984","title":"Rock Harbor (Isle Royale National Park, Michigan)","accuracy":16,"date_taken":"2018-07-15 11:17:11","date_granularity":"0"},"geometry":{"type":"Point","coordinates":[-88.483886,48.145734]}},{"type":"Feature","properties":{"park":"Isle_Royale_National_Park","id":"45155679554","title":"Rock Harbor (Isle Royale National Park, Michigan)","accuracy":16,"date_taken":"2018-07-15 11:17:31","date_granularity":"0"},"geometry":{"type":"Point","coordinates":[-88.483886,48.145734]}},{"type":"Feature","properties":{"park":"Isle_Royale_National_Park","id":"44966571165","title":"The Stoll Trail Marker (Isle Royale National Park, Michigan)","accuracy":16,"date_taken":"2018-07-15 11:24:28","date_granularity":"0"},"geometry":{"type":"Point","coordinates":[-88.484069,48.146041]}},{"type":"Feature","properties":{"park":"Isle_Royale_National_Park","id":"44966570075","title":"Medical Cabin (Isle Royale National Park, Michigan)","accuracy":16,"date_taken":"2018-07-15 11:28:53","date_granularity":"0"},"geometry":{"type":"Point","coordinates":[-88.484069,48.146041]}},{"type":"Feature","properties":{"park":"Isle_Royale_National_Park","id":"44966568885","title":"Rock Harbor (Isle Royale National Park, Michigan)","accuracy":16,"date_taken":"2018-07-15 11:29:05","date_granularity":"0"},"geometry":{"type":"Point","coordinates":[-88.483886,48.145734]}},{"type":"Feature","properties":{"park":"Isle_Royale_National_Park","id":"44966567095","title":"Isle Royale National Park (Keweenaw County, Michigan)","accuracy":16,"date_taken":"2018-07-15 11:29:50","date_granularity":"0"},"geometry":{"type":"Point","coordinates":[-88.484069,48.146041]}},{"type":"Feature","properties":{"park":"Isle_Royale_National_Park","id":"45155663024","title":"Rock Harbor Area Marker (Isle Royale National Park, Michigan)","accuracy":15,"date_taken":"2018-07-15 09:41:49","date_granularity":"0"},"geometry":{"type":"Point","coordinates":[-88.486032,48.146067]}},{"type":"Feature","properties":{"park":"Isle_Royale_National_Park","id":"45155662304","title":"Smithwick Mine Marker (Isle Royale National Park, Michigan)","accuracy":15,"date_taken":"2018-07-15 09:58:25","date_granularity":"0"},"geometry":{"type":"Point","coordinates":[-88.481826,48.148128]}},{"type":"Feature","properties":{"park":"Isle_Royale_National_Park","id":"8179869195","title":"Isle Royale National Park - NPS tug and barge near Rock Harbor","accuracy":16,"date_taken":"2007-07-31 13:34:35","date_granularity":"0"},"geometry":{"type":"Point","coordinates":[-88.54709,48.107452]}},{"type":"Feature","properties":{"park":"Isle_Royale_National_Park","id":"44801419724","title":"2018 09 03 20180903_112336","accuracy":16,"date_taken":"2018-09-03 11:23:36","date_granularity":"0"},"geometry":{"type":"Point","coordinates":[-88.520117,48.136491]}},{"type":"Feature","properties":{"park":"Isle_Royale_National_Park","id":"45476280012","title":"2018 09 03 20180903_112422","accuracy":16,"date_taken":"2018-09-03 11:24:22","date_granularity":"0"},"geometry":{"type":"Point","coordinates":[-88.520117,48.136491]}},{"type":"Feature","properties":{"park":"Isle_Royale_National_Park","id":"45476279452","title":"2018 09 03 20180903_112531","accuracy":16,"date_taken":"2018-09-03 11:25:31","date_granularity":"0"},"geometry":{"type":"Point","coordinates":[-88.520117,48.136491]}},{"type":"Feature","properties":{"park":"Isle_Royale_National_Park","id":"45476279192","title":"2018 09 03 20180903_124354","accuracy":16,"date_taken":"2018-09-03 12:43:54","date_granularity":"0"},"geometry":{"type":"Point","coordinates":[-88.491709,48.148136]}},{"type":"Feature","properties":{"park":"Isle_Royale_National_Park","id":"45476278792","title":"2018 09 03 20180903_125339","accuracy":16,"date_taken":"2018-09-03 12:53:39","date_granularity":"0"},"geometry":{"type":"Point","coordinates":[-88.495003,48.148255]}},{"type":"Feature","properties":{"park":"Isle_Royale_National_Park","id":"44613023405","title":"2018 09 03 20180903_150021","accuracy":16,"date_taken":"2018-09-03 15:00:21","date_granularity":"0"},"geometry":{"type":"Point","coordinates":[-88.445437,48.099261]}},{"type":"Feature","properties":{"park":"Isle_Royale_National_Park","id":"44064791712","title":"20180814-20180814_134212.jpg","accuracy":16,"date_taken":"2018-08-18 12:08:34","date_granularity":0},"geometry":{"type":"Point","coordinates":[-89.179723,47.905]}},{"type":"Feature","properties":{"park":"Isle_Royale_National_Park","id":"44113702581","title":"20180814-20180814_110207.jpg","accuracy":16,"date_taken":"2018-08-18 12:07:32","date_granularity":0},"geometry":{"type":"Point","coordinates":[-88.801389,47.976388]}},{"type":"Feature","properties":{"park":"Isle_Royale_National_Park","id":"44064775112","title":"20180814-20180814_110156.jpg","accuracy":16,"date_taken":"2018-08-18 12:07:31","date_granularity":0},"geometry":{"type":"Point","coordinates":[-88.801389,47.976388]}},{"type":"Feature","properties":{"park":"Isle_Royale_National_Park","id":"42304465160","title":"20180814-20180814_110144.jpg","accuracy":16,"date_taken":"2018-08-18 12:07:31","date_granularity":0},"geometry":{"type":"Point","coordinates":[-88.801389,47.976388]}},{"type":"Feature","properties":{"park":"Isle_Royale_National_Park","id":"29175853657","title":"20180814-20180814_134858.jpg","accuracy":16,"date_taken":"2018-08-14 13:48:58","date_granularity":"0"},"geometry":{"type":"Point","coordinates":[-89.158406,47.911986]}},{"type":"Feature","properties":{"park":"Isle_Royale_National_Park","id":"44064768882","title":"20180814-20180814_134821.jpg","accuracy":16,"date_taken":"2018-08-14 13:48:21","date_granularity":"0"},"geometry":{"type":"Point","coordinates":[-89.158689,47.912102]}},{"type":"Feature","properties":{"park":"Isle_Royale_National_Park","id":"43206720395","title":"20180814-20180814_134537.jpg","accuracy":16,"date_taken":"2018-08-14 13:45:37","date_granularity":"0"},"geometry":{"type":"Point","coordinates":[-89.166512,47.911569]}},{"type":"Feature","properties":{"park":"Isle_Royale_National_Park","id":"42304457080","title":"20180814-20180814_134351.jpg","accuracy":16,"date_taken":"2018-08-14 13:43:50","date_granularity":"0"},"geometry":{"type":"Point","coordinates":[-89.174212,47.909138]}},{"type":"Feature","properties":{"park":"Isle_Royale_National_Park","id":"44064754632","title":"20180814-20180814_133402.jpg","accuracy":16,"date_taken":"2018-08-14 13:34:02","date_granularity":"0"},"geometry":{"type":"Point","coordinates":[-89.21142,47.891972]}},{"type":"Feature","properties":{"park":"Isle_Royale_National_Park","id":"30245617368","title":"20180814-20180814_132559.jpg","accuracy":16,"date_taken":"2018-08-14 13:25:59","date_granularity":"0"},"geometry":{"type":"Point","coordinates":[-89.223978,47.876033]}},{"type":"Feature","properties":{"park":"Isle_Royale_National_Park","id":"44064736742","title":"20180814-20180814_132236.jpg","accuracy":16,"date_taken":"2018-08-14 13:22:36","date_granularity":"0"},"geometry":{"type":"Point","coordinates":[-89.231612,47.867063]}},{"type":"Feature","properties":{"park":"Isle_Royale_National_Park","id":"44113676831","title":"20180814-20180814_110907.jpg","accuracy":16,"date_taken":"2018-08-14 11:09:07","date_granularity":"0"},"geometry":{"type":"Point","coordinates":[-88.799948,47.984038]}},{"type":"Feature","properties":{"park":"Isle_Royale_National_Park","id":"43394940064","title":"20180814-20180814_110718.jpg","accuracy":16,"date_taken":"2018-08-14 11:07:18","date_granularity":"0"},"geometry":{"type":"Point","coordinates":[-88.800137,47.984025]}},{"type":"Feature","properties":{"park":"Isle_Royale_National_Park","id":"44064729322","title":"20180814-20180814_110704.jpg","accuracy":16,"date_taken":"2018-08-14 11:07:04","date_granularity":"0"},"geometry":{"type":"Point","coordinates":[-88.799973,47.983977]}},{"type":"Feature","properties":{"park":"Isle_Royale_National_Park","id":"30245600548","title":"20180814-20180814_110332.jpg","accuracy":16,"date_taken":"2018-08-14 11:03:32","date_granularity":"0"},"geometry":{"type":"Point","coordinates":[-88.801984,47.981316]}},{"type":"Feature","properties":{"park":"Isle_Royale_National_Park","id":"43394930184","title":"20180814-20180814_110244.jpg","accuracy":16,"date_taken":"2018-08-14 11:02:44","date_granularity":"0"},"geometry":{"type":"Point","coordinates":[-88.804506,47.979441]}},{"type":"Feature","properties":{"park":"Isle_Royale_National_Park","id":"43206671425","title":"20180814-20180814_105654.jpg","accuracy":16,"date_taken":"2018-08-14 10:56:54","date_granularity":"0"},"geometry":{"type":"Point","coordinates":[-88.782678,47.972694]}},{"type":"Feature","properties":{"park":"Isle_Royale_National_Park","id":"42304392910","title":"20180814-20180814_105514.jpg","accuracy":16,"date_taken":"2018-08-14 10:55:14","date_granularity":"0"},"geometry":{"type":"Point","coordinates":[-88.773995,47.974047]}},{"type":"Feature","properties":{"park":"Isle_Royale_National_Park","id":"44113650951","title":"20180814-20180814_105153.jpg","accuracy":16,"date_taken":"2018-08-14 10:51:53","date_granularity":"0"},"geometry":{"type":"Point","coordinates":[-88.75937,47.975955]}},{"type":"Feature","properties":{"park":"Isle_Royale_National_Park","id":"44113648661","title":"20180814-20180814_104846.jpg","accuracy":16,"date_taken":"2018-08-14 10:48:46","date_granularity":"0"},"geometry":{"type":"Point","coordinates":[-88.745889,47.978994]}},{"type":"Feature","properties":{"park":"Isle_Royale_National_Park","id":"43206663745","title":"20180814-20180814_102157.jpg","accuracy":16,"date_taken":"2018-08-14 10:21:57","date_granularity":"0"},"geometry":{"type":"Point","coordinates":[-88.640895,48.023083]}},{"type":"Feature","properties":{"park":"Isle_Royale_National_Park","id":"42304384890","title":"20180814-20180814_101931.jpg","accuracy":16,"date_taken":"2018-08-14 10:19:31","date_granularity":"0"},"geometry":{"type":"Point","coordinates":[-88.641045,48.028763]}},{"type":"Feature","properties":{"park":"Isle_Royale_National_Park","id":"29175803857","title":"20180814-20180814_101354.jpg","accuracy":16,"date_taken":"2018-08-14 10:13:54","date_granularity":"0"},"geometry":{"type":"Point","coordinates":[-88.650445,48.028827]}},{"type":"Feature","properties":{"park":"Isle_Royale_National_Park","id":"29175801787","title":"20180814-20180814_101033.jpg","accuracy":16,"date_taken":"2018-08-14 10:10:33","date_granularity":"0"},"geometry":{"type":"Point","coordinates":[-88.649701,48.02838]}},{"type":"Feature","properties":{"park":"Isle_Royale_National_Park","id":"42304378740","title":"20180814-20180814_100904.jpg","accuracy":16,"date_taken":"2018-08-14 10:09:04","date_granularity":"0"},"geometry":{"type":"Point","coordinates":[-88.644595,48.029277]}},{"type":"Feature","properties":{"park":"Isle_Royale_National_Park","id":"44064696622","title":"20180814-20180814_100844.jpg","accuracy":16,"date_taken":"2018-08-14 10:08:44","date_granularity":"0"},"geometry":{"type":"Point","coordinates":[-88.644595,48.029277]}},{"type":"Feature","properties":{"park":"Isle_Royale_National_Park","id":"44113636571","title":"20180814-20180814_100816.jpg","accuracy":16,"date_taken":"2018-08-14 10:08:16","date_granularity":"0"},"geometry":{"type":"Point","coordinates":[-88.644595,48.029277]}},{"type":"Feature","properties":{"park":"Isle_Royale_National_Park","id":"29175793747","title":"20180814-20180814_100711.jpg","accuracy":16,"date_taken":"2018-08-14 10:07:11","date_granularity":"0"},"geometry":{"type":"Point","coordinates":[-88.640398,48.028894]}},{"type":"Feature","properties":{"park":"Isle_Royale_National_Park","id":"43394900044","title":"20180814-20180814_100655.jpg","accuracy":16,"date_taken":"2018-08-14 10:06:55","date_granularity":"0"},"geometry":{"type":"Point","coordinates":[-88.638345,48.028408]}},{"type":"Feature","properties":{"park":"Isle_Royale_National_Park","id":"42304366160","title":"20180814-20180814_095110.jpg","accuracy":16,"date_taken":"2018-08-14 09:51:10","date_granularity":"0"},"geometry":{"type":"Point","coordinates":[-88.579362,48.055422]}},{"type":"Feature","properties":{"park":"Isle_Royale_National_Park","id":"44113616931","title":"20180814-20180814_094411.jpg","accuracy":16,"date_taken":"2018-08-14 09:44:11","date_granularity":"0"},"geometry":{"type":"Point","coordinates":[-88.570889,48.077513]}},{"type":"Feature","properties":{"park":"Isle_Royale_National_Park","id":"44113613821","title":"20180814-20180814_094406.jpg","accuracy":16,"date_taken":"2018-08-14 09:44:06","date_granularity":"0"},"geometry":{"type":"Point","coordinates":[-88.570889,48.077513]}},