{"type":"FeatureCollection","features":[{"type":"Feature","properties":{"park":"National_Park_of_American_Samoa","id":"4083054969","title":"Marching downhill","accuracy":16,"date_taken":"2009-11-01 22:56:08","date_granularity":"0"},"geometry":{"type":"Point","coordinates":[-170.689423,-14.26405]}},{"type":"Feature","properties":{"park":"National_Park_of_American_Samoa","id":"4083053629","title":"Back on the trail","accuracy":16,"date_taken":"2009-11-01 22:04:08","date_granularity":"0"},"geometry":{"type":"Point","coordinates":[-170.689423,-14.26405]}},{"type":"Feature","properties":{"park":"National_Park_of_American_Samoa","id":"4083052343","title":"","accuracy":16,"date_taken":"2009-11-01 21:54:25","date_granularity":"0"},"geometry":{"type":"Point","coordinates":[-170.689423,-14.26405]}},{"type":"Feature","properties":{"park":"National_Park_of_American_Samoa","id":"4083051073","title":"Map of Tutuila","accuracy":16,"date_taken":"2009-11-01 21:52:36","date_granularity":"0"},"geometry":{"type":"Point","coordinates":[-170.689423,-14.26405]}},{"type":"Feature","properties":{"park":"National_Park_of_American_Samoa","id":"4083050109","title":"Ken with hybiscus","accuracy":16,"date_taken":"2009-11-01 21:23:01","date_granularity":"0"},"geometry":{"type":"Point","coordinates":[-170.689423,-14.26405]}},{"type":"Feature","properties":{"park":"National_Park_of_American_Samoa","id":"4083808744","title":"Ken","accuracy":16,"date_taken":"2009-11-01 21:20:03","date_granularity":"0"},"geometry":{"type":"Point","coordinates":[-170.689423,-14.26405]}},{"type":"Feature","properties":{"park":"National_Park_of_American_Samoa","id":"4083046467","title":"Where we get out TV","accuracy":16,"date_taken":"2009-11-01 21:19:54","date_granularity":"0"},"geometry":{"type":"Point","coordinates":[-170.689423,-14.26405]}},{"type":"Feature","properties":{"park":"National_Park_of_American_Samoa","id":"4083808046","title":"View of the Manua islands, 60 miles to the east","accuracy":16,"date_taken":"2009-11-01 21:19:48","date_granularity":"0"},"geometry":{"type":"Point","coordinates":[-170.689423,-14.26405]}},{"type":"Feature","properties":{"park":"National_Park_of_American_Samoa","id":"4083045781","title":"View of Upolu, Western Samoa, 60 miles to the west","accuracy":16,"date_taken":"2009-11-01 21:19:41","date_granularity":"0"},"geometry":{"type":"Point","coordinates":[-170.689423,-14.26405]}},{"type":"Feature","properties":{"park":"National_Park_of_American_Samoa","id":"4083807242","title":"","accuracy":16,"date_taken":"2009-11-01 21:18:20","date_granularity":"0"},"geometry":{"type":"Point","coordinates":[-170.689423,-14.26405]}},{"type":"Feature","properties":{"park":"National_Park_of_American_Samoa","id":"4083806072","title":"","accuracy":16,"date_taken":"2009-11-01 21:17:46","date_granularity":"0"},"geometry":{"type":"Point","coordinates":[-170.689423,-14.26405]}},{"type":"Feature","properties":{"park":"National_Park_of_American_Samoa","id":"4083043773","title":"Eastern side of the harbor","accuracy":16,"date_taken":"2009-11-01 21:16:11","date_granularity":"0"},"geometry":{"type":"Point","coordinates":[-170.689423,-14.26405]}},{"type":"Feature","properties":{"park":"National_Park_of_American_Samoa","id":"4083805266","title":"Cable car equipment","accuracy":16,"date_taken":"2009-11-01 20:42:52","date_granularity":"0"},"geometry":{"type":"Point","coordinates":[-170.689423,-14.26405]}},{"type":"Feature","properties":{"park":"National_Park_of_American_Samoa","id":"4083043015","title":"Breakers Point","accuracy":16,"date_taken":"2009-11-01 20:42:32","date_granularity":"0"},"geometry":{"type":"Point","coordinates":[-170.689423,-14.26405]}},{"type":"Feature","properties":{"park":"National_Park_of_American_Samoa","id":"4083042047","title":"Boats lifted onto land by the Sept. 29th tsunami","accuracy":16,"date_taken":"2009-11-01 20:41:03","date_granularity":"0"},"geometry":{"type":"Point","coordinates":[-170.689423,-14.26405]}},{"type":"Feature","properties":{"park":"National_Park_of_American_Samoa","id":"4083801858","title":"Remnants of the cable car system","accuracy":16,"date_taken":"2009-11-01 20:39:48","date_granularity":"0"},"geometry":{"type":"Point","coordinates":[-170.689423,-14.26405]}},{"type":"Feature","properties":{"park":"National_Park_of_American_Samoa","id":"4083039661","title":"Clear afternoon on the Pacific","accuracy":16,"date_taken":"2009-11-01 20:39:37","date_granularity":"0"},"geometry":{"type":"Point","coordinates":[-170.689423,-14.26405]}},{"type":"Feature","properties":{"park":"National_Park_of_American_Samoa","id":"4083039311","title":"The bottom of Pago harbor","accuracy":16,"date_taken":"2009-11-01 20:39:31","date_granularity":"0"},"geometry":{"type":"Point","coordinates":[-170.689423,-14.26405]}},{"type":"Feature","properties":{"park":"National_Park_of_American_Samoa","id":"4083799988","title":"Norfolk Island Pine","accuracy":16,"date_taken":"2009-11-01 20:17:49","date_granularity":"0"},"geometry":{"type":"Point","coordinates":[-170.689423,-14.26405]}},{"type":"Feature","properties":{"park":"National_Park_of_American_Samoa","id":"4083798794","title":"Gross (with flower)","accuracy":16,"date_taken":"2009-11-01 20:07:25","date_granularity":"0"},"geometry":{"type":"Point","coordinates":[-170.689423,-14.26405]}},{"type":"Feature","properties":{"park":"National_Park_of_American_Samoa","id":"4057098658","title":"DAZ_5947","accuracy":16,"date_taken":"2009-10-24 13:17:30","date_granularity":"0"},"geometry":{"type":"Point","coordinates":[-170.71563,-14.270465]}},{"type":"Feature","properties":{"park":"National_Park_of_American_Samoa","id":"4056358181","title":"DAZ_5944","accuracy":16,"date_taken":"2009-10-24 13:11:11","date_granularity":"0"},"geometry":{"type":"Point","coordinates":[-170.71563,-14.270465]}},{"type":"Feature","properties":{"park":"National_Park_of_American_Samoa","id":"4057095414","title":"DAZ_5942","accuracy":16,"date_taken":"2009-10-24 13:10:19","date_granularity":"0"},"geometry":{"type":"Point","coordinates":[-170.71563,-14.270465]}},{"type":"Feature","properties":{"park":"National_Park_of_American_Samoa","id":"4039227594","title":"DAZ_5924","accuracy":16,"date_taken":"2009-10-23 14:20:13","date_granularity":"0"},"geometry":{"type":"Point","coordinates":[-170.663455,-14.249102]}},{"type":"Feature","properties":{"park":"National_Park_of_American_Samoa","id":"4039227012","title":"DAZ_5925","accuracy":16,"date_taken":"2009-10-23 14:16:25","date_granularity":"0"},"geometry":{"type":"Point","coordinates":[-170.661621,-14.248577]}},{"type":"Feature","properties":{"park":"National_Park_of_American_Samoa","id":"4038476087","title":"DAZ_5911","accuracy":16,"date_taken":"2009-10-23 14:08:15","date_granularity":"0"},"geometry":{"type":"Point","coordinates":[-170.661706,-14.248582]}},{"type":"Feature","properties":{"park":"National_Park_of_American_Samoa","id":"4038461295","title":"DAZ_5910","accuracy":16,"date_taken":"2009-10-23 14:10:12","date_granularity":"0"},"geometry":{"type":"Point","coordinates":[-170.661621,-14.248577]}},{"type":"Feature","properties":{"park":"National_Park_of_American_Samoa","id":"31498954507","title":"","accuracy":16,"date_taken":"2018-12-04 11:16:12","date_granularity":"0"},"geometry":{"type":"Point","coordinates":[-170.671037,-14.240789]}},{"type":"Feature","properties":{"park":"National_Park_of_American_Samoa","id":"45525756555","title":"","accuracy":16,"date_taken":"2018-12-04 10:29:58","date_granularity":"0"},"geometry":{"type":"Point","coordinates":[-170.662445,-14.248692]}},{"type":"Feature","properties":{"park":"National_Park_of_American_Samoa","id":"31485474407","title":"","accuracy":16,"date_taken":"2018-12-04 10:10:39","date_granularity":"0"},"geometry":{"type":"Point","coordinates":[-170.655014,-14.251714]}},{"type":"Feature","properties":{"park":"National_Park_of_American_Samoa","id":"46374546592","title":"","accuracy":16,"date_taken":"2018-12-04 11:11:15","date_granularity":"0"},"geometry":{"type":"Point","coordinates":[-170.671142,-14.240862]}},{"type":"Feature","properties":{"park":"National_Park_of_American_Samoa","id":"45512308465","title":"","accuracy":16,"date_taken":"2018-12-04 11:11:28","date_granularity":"0"},"geometry":{"type":"Point","coordinates":[-170.671142,-14.240862]}},{"type":"Feature","properties":{"park":"National_Park_of_American_Samoa","id":"44608309440","title":"","accuracy":16,"date_taken":"2018-12-04 10:17:30","date_granularity":"0"},"geometry":{"type":"Point","coordinates":[-170.662506,-14.248753]}},{"type":"Feature","properties":{"park":"National_Park_of_American_Samoa","id":"45701947034","title":"","accuracy":16,"date_taken":"2018-12-04 11:18:09","date_granularity":"0"},"geometry":{"type":"Point","coordinates":[-170.671264,-14.240856]}},{"type":"Feature","properties":{"park":"National_Park_of_American_Samoa","id":"32552962368","title":"","accuracy":16,"date_taken":"2018-12-04 10:52:50","date_granularity":"0"},"geometry":{"type":"Point","coordinates":[-170.671539,-14.241395]}},{"type":"Feature","properties":{"park":"National_Park_of_American_Samoa","id":"44608186200","title":"","accuracy":16,"date_taken":"2018-12-04 11:13:14","date_granularity":"0"},"geometry":{"type":"Point","coordinates":[-170.671137,-14.24087]}},{"type":"Feature","properties":{"park":"National_Park_of_American_Samoa","id":"32552960138","title":"","accuracy":16,"date_taken":"2018-12-04 10:21:16","date_granularity":"0"},"geometry":{"type":"Point","coordinates":[-170.661745,-14.248406]}},{"type":"Feature","properties":{"park":"National_Park_of_American_Samoa","id":"31485171357","title":"","accuracy":16,"date_taken":"2018-12-04 10:24:04","date_granularity":"0"},"geometry":{"type":"Point","coordinates":[-170.661542,-14.2485]}},{"type":"Feature","properties":{"park":"National_Park_of_American_Samoa","id":"45701764564","title":"","accuracy":16,"date_taken":"2018-12-04 11:14:49","date_granularity":"0"},"geometry":{"type":"Point","coordinates":[-170.671075,-14.240845]}},{"type":"Feature","properties":{"park":"National_Park_of_American_Samoa","id":"46424575641","title":"","accuracy":16,"date_taken":"2018-12-04 10:53:46","date_granularity":"0"},"geometry":{"type":"Point","coordinates":[-170.671189,-14.241928]}},{"type":"Feature","properties":{"park":"National_Park_of_American_Samoa","id":"46424575251","title":"","accuracy":16,"date_taken":"2018-12-04 10:09:50","date_granularity":"0"},"geometry":{"type":"Point","coordinates":[-170.654984,-14.251698]}},{"type":"Feature","properties":{"park":"National_Park_of_American_Samoa","id":"45701749904","title":"","accuracy":16,"date_taken":"2018-12-04 11:41:12","date_granularity":"0"},"geometry":{"type":"Point","coordinates":[-170.659028,-14.254984]}},{"type":"Feature","properties":{"park":"National_Park_of_American_Samoa","id":"45701747254","title":"","accuracy":16,"date_taken":"2018-12-04 10:25:58","date_granularity":"0"},"geometry":{"type":"Point","coordinates":[-170.661545,-14.248423]}},{"type":"Feature","properties":{"park":"National_Park_of_American_Samoa","id":"45701744024","title":"","accuracy":16,"date_taken":"2018-12-04 11:14:50","date_granularity":"0"},"geometry":{"type":"Point","coordinates":[-170.671075,-14.240845]}},{"type":"Feature","properties":{"park":"National_Park_of_American_Samoa","id":"45701743604","title":"","accuracy":16,"date_taken":"2018-12-04 10:10:32","date_granularity":"0"},"geometry":{"type":"Point","coordinates":[-170.655014,-14.251709]}},{"type":"Feature","properties":{"park":"National_Park_of_American_Samoa","id":"45512127015","title":"","accuracy":16,"date_taken":"2018-12-04 11:08:19","date_granularity":"0"},"geometry":{"type":"Point","coordinates":[-170.67117,-14.240809]}},{"type":"Feature","properties":{"park":"National_Park_of_American_Samoa","id":"2309149697","title":"National Park of American Samoa - Pola Island and Valava Straight National Natural Landmark","accuracy":16,"date_taken":"2008-03-03 19:12:32","date_granularity":"0"},"geometry":{"type":"Point","coordinates":[-170.669174,-14.239093]}},{"type":"Feature","properties":{"park":"National_Park_of_American_Samoa","id":"33589362925","title":"Ofu Beach Pastel Sunrise","accuracy":16,"date_taken":"2017-02-04 10:11:36","date_granularity":"0"},"geometry":{"type":"Point","coordinates":[-169.655748,-14.17947]}},{"type":"Feature","properties":{"park":"National_Park_of_American_Samoa","id":"33342653015","title":"Ofu Beach","accuracy":16,"date_taken":"2017-02-02 18:34:05","date_granularity":"0"},"geometry":{"type":"Point","coordinates":[-169.65397,-14.177375]}},{"type":"Feature","properties":{"park":"National_Park_of_American_Samoa","id":"15749528271","title":"IMG_8199","accuracy":15,"date_taken":"2011-06-19 18:15:06","date_granularity":"0"},"geometry":{"type":"Point","coordinates":[-170.704536,-14.265506]}},{"type":"Feature","properties":{"park":"National_Park_of_American_Samoa","id":"15751414505","title":"IMG_8189","accuracy":15,"date_taken":"2011-06-19 17:10:41","date_granularity":"0"},"geometry":{"type":"Point","coordinates":[-170.704536,-14.265506]}},{"type":"Feature","properties":{"park":"National_Park_of_American_Samoa","id":"14692087226","title":"AmSamoa 324","accuracy":16,"date_taken":"2014-06-27 15:46:07","date_granularity":"0"},"geometry":{"type":"Point","coordinates":[-170.671173,-14.240864]}},{"type":"Feature","properties":{"park":"National_Park_of_American_Samoa","id":"14692087176","title":"AmSamoa 592","accuracy":16,"date_taken":"2014-06-27 17:35:04","date_granularity":"0"},"geometry":{"type":"Point","coordinates":[-170.671173,-14.240864]}},{"type":"Feature","properties":{"park":"National_Park_of_American_Samoa","id":"13318599365","title":"National Park of American Samoa","accuracy":16,"date_taken":"2014-03-21 17:36:58","date_granularity":"0"},"geometry":{"type":"Point","coordinates":[-170.67133,-14.240674]}},{"type":"Feature","properties":{"park":"National_Park_of_American_Samoa","id":"13318919654","title":"Ogetu Ridge","accuracy":16,"date_taken":"2014-03-21 17:33:04","date_granularity":"0"},"geometry":{"type":"Point","coordinates":[-170.65543,-14.266733]}},{"type":"Feature","properties":{"park":"National_Park_of_American_Samoa","id":"13132376075","title":"IMG_3197","accuracy":16,"date_taken":"2014-03-05 15:30:37","date_granularity":"0"},"geometry":{"type":"Point","coordinates":[-170.655306,-14.266828]}},{"type":"Feature","properties":{"park":"National_Park_of_American_Samoa","id":"13132668354","title":"IMG_3199","accuracy":16,"date_taken":"2014-03-05 15:51:01","date_granularity":"0"},"geometry":{"type":"Point","coordinates":[-170.66177,-14.248409]}},{"type":"Feature","properties":{"park":"National_Park_of_American_Samoa","id":"13132667464","title":"IMG_3200","accuracy":16,"date_taken":"2014-03-05 15:51:40","date_granularity":"0"},"geometry":{"type":"Point","coordinates":[-170.661945,-14.248409]}},{"type":"Feature","properties":{"park":"National_Park_of_American_Samoa","id":"13132373965","title":"IMG_3202","accuracy":16,"date_taken":"2014-03-05 16:14:15","date_granularity":"0"},"geometry":{"type":"Point","coordinates":[-170.66155,-14.248675]}},{"type":"Feature","properties":{"park":"National_Park_of_American_Samoa","id":"13132373305","title":"IMG_3201","accuracy":16,"date_taken":"2014-03-05 16:14:01","date_granularity":"0"},"geometry":{"type":"Point","coordinates":[-170.661531,-14.248487]}},{"type":"Feature","properties":{"park":"National_Park_of_American_Samoa","id":"13132371815","title":"IMG_3203","accuracy":16,"date_taken":"2014-03-05 16:19:28","date_granularity":"0"},"geometry":{"type":"Point","coordinates":[-170.663876,-14.249523]}},{"type":"Feature","properties":{"park":"National_Park_of_American_Samoa","id":"13132371395","title":"IMG_3204","accuracy":16,"date_taken":"2014-03-05 16:19:35","date_granularity":"0"},"geometry":{"type":"Point","coordinates":[-170.663937,-14.249481]}},{"type":"Feature","properties":{"park":"National_Park_of_American_Samoa","id":"13132663484","title":"IMG_3206","accuracy":16,"date_taken":"2014-03-05 16:22:29","date_granularity":"0"},"geometry":{"type":"Point","coordinates":[-170.66402,-14.249362]}},{"type":"Feature","properties":{"park":"National_Park_of_American_Samoa","id":"13132369055","title":"IMG_3207","accuracy":16,"date_taken":"2014-03-05 16:22:49","date_granularity":"0"},"geometry":{"type":"Point","coordinates":[-170.663923,-14.249384]}},{"type":"Feature","properties":{"park":"National_Park_of_American_Samoa","id":"13132660474","title":"IMG_3209","accuracy":16,"date_taken":"2014-03-05 16:23:01","date_granularity":"0"},"geometry":{"type":"Point","coordinates":[-170.663959,-14.249403]}},{"type":"Feature","properties":{"park":"National_Park_of_American_Samoa","id":"13132461933","title":"IMG_3235","accuracy":16,"date_taken":"2014-03-05 17:26:20","date_granularity":"0"},"geometry":{"type":"Point","coordinates":[-170.671209,-14.240881]}},{"type":"Feature","properties":{"park":"National_Park_of_American_Samoa","id":"10581325014","title":"Samoa américaines, Mt Alava","accuracy":16,"date_taken":"2013-07-31 12:31:41","date_granularity":"0"},"geometry":{"type":"Point","coordinates":[-170.687499,-14.265006]}},{"type":"Feature","properties":{"park":"National_Park_of_American_Samoa","id":"10581534263","title":"Samoa américaines, Tutuila","accuracy":16,"date_taken":"2013-07-31 15:25:34","date_granularity":"0"},"geometry":{"type":"Point","coordinates":[-170.671416,-14.240039]}},{"type":"Feature","properties":{"park":"National_Park_of_American_Samoa","id":"10581307214","title":"Samoa américaines, Pago Pago","accuracy":16,"date_taken":"2013-07-31 12:35:40","date_granularity":"0"},"geometry":{"type":"Point","coordinates":[-170.687499,-14.265006]}},{"type":"Feature","properties":{"park":"National_Park_of_American_Samoa","id":"8746657159","title":"130417 Lower Sauma Ridge Trail","accuracy":16,"date_taken":"2013-04-17 12:58:24","date_granularity":"0"},"geometry":{"type":"Point","coordinates":[-170.661717,-14.2485]}},{"type":"Feature","properties":{"park":"National_Park_of_American_Samoa","id":"8747754406","title":"130417 Tuafanua Trail","accuracy":16,"date_taken":"2013-04-17 11:11:40","date_granularity":"0"},"geometry":{"type":"Point","coordinates":[-170.678667,-14.244867]}},{"type":"Feature","properties":{"park":"National_Park_of_American_Samoa","id":"8747735146","title":"130417 Vai'ava Strait National Natural Landmark","accuracy":16,"date_taken":"2013-04-17 09:42:43","date_granularity":"0"},"geometry":{"type":"Point","coordinates":[-170.671633,-14.2414]}},{"type":"Feature","properties":{"park":"National_Park_of_American_Samoa","id":"8747698882","title":"130417 Pola Island","accuracy":16,"date_taken":"2013-04-17 08:39:30","date_granularity":"0"},"geometry":{"type":"Point","coordinates":[-170.664433,-14.249683]}},{"type":"Feature","properties":{"park":"National_Park_of_American_Samoa","id":"5586431554","title":"dead coconut crab (2)","accuracy":16,"date_taken":"2010-02-10 03:45:18","date_granularity":"0"},"geometry":{"type":"Point","coordinates":[-170.671185,-14.240591]}},{"type":"Feature","properties":{"park":"National_Park_of_American_Samoa","id":"5586431260","title":"dead coconut crab (1)","accuracy":16,"date_taken":"2010-02-10 03:44:51","date_granularity":"0"},"geometry":{"type":"Point","coordinates":[-170.671185,-14.240591]}},{"type":"Feature","properties":{"park":"National_Park_of_American_Samoa","id":"5586430786","title":"dead coconut crab (3)","accuracy":16,"date_taken":"2010-02-10 03:44:01","date_granularity":"0"},"geometry":{"type":"Point","coordinates":[-170.671185,-14.240591]}},{"type":"Feature","properties":{"park":"National_Park_of_American_Samoa","id":"5586429938","title":"laying an Egg (1)","accuracy":16,"date_taken":"2010-02-10 03:33:51","date_granularity":"0"},"geometry":{"type":"Point","coordinates":[-170.671185,-14.240591]}},{"type":"Feature","properties":{"park":"National_Park_of_American_Samoa","id":"5586429456","title":"laying an Egg (2)","accuracy":16,"date_taken":"2010-02-10 03:33:15","date_granularity":"0"},"geometry":{"type":"Point","coordinates":[-170.671185,-14.240591]}},{"type":"Feature","properties":{"park":"National_Park_of_American_Samoa","id":"5586428954","title":"Vai'ava Strait (25)","accuracy":16,"date_taken":"2010-12-31 15:33:15","date_granularity":"0"},"geometry":{"type":"Point","coordinates":[-170.671185,-14.240591]}},{"type":"Feature","properties":{"park":"National_Park_of_American_Samoa","id":"5585837281","title":"Vai'ava Strait (23)","accuracy":16,"date_taken":"2010-12-31 15:31:48","date_granularity":"0"},"geometry":{"type":"Point","coordinates":[-170.671185,-14.240591]}},{"type":"Feature","properties":{"park":"National_Park_of_American_Samoa","id":"5585836631","title":"Vai'ava Strait (20)","accuracy":16,"date_taken":"2010-12-31 15:31:36","date_granularity":"0"},"geometry":{"type":"Point","coordinates":[-170.671185,-14.240591]}},{"type":"Feature","properties":{"park":"National_Park_of_American_Samoa","id":"5586427542","title":"Vai'ava Strait (19)","accuracy":16,"date_taken":"2010-12-31 15:31:32","date_granularity":"0"},"geometry":{"type":"Point","coordinates":[-170.671185,-14.240591]}},{"type":"Feature","properties":{"park":"National_Park_of_American_Samoa","id":"5586427354","title":"Vai'ava Strait (18)","accuracy":16,"date_taken":"2010-12-31 15:31:29","date_granularity":"0"},"geometry":{"type":"Point","coordinates":[-170.671185,-14.240591]}},{"type":"Feature","properties":{"park":"National_Park_of_American_Samoa","id":"5586426842","title":"Vai'ava Strait (16)","accuracy":16,"date_taken":"2010-12-31 15:31:19","date_granularity":"0"},"geometry":{"type":"Point","coordinates":[-170.671185,-14.240591]}},{"type":"Feature","properties":{"park":"National_Park_of_American_Samoa","id":"5586426574","title":"Vai'ava Strait (15)","accuracy":16,"date_taken":"2010-12-31 15:30:46","date_granularity":"0"},"geometry":{"type":"Point","coordinates":[-170.671185,-14.240591]}},{"type":"Feature","properties":{"park":"National_Park_of_American_Samoa","id":"5585835265","title":"Vai'ava Strait (14)","accuracy":16,"date_taken":"2010-12-31 15:30:42","date_granularity":"0"},"geometry":{"type":"Point","coordinates":[-170.671185,-14.240591]}},{"type":"Feature","properties":{"park":"National_Park_of_American_Samoa","id":"5586426146","title":"Vai'ava Strait (13)","accuracy":16,"date_taken":"2010-12-31 15:25:05","date_granularity":"0"},"geometry":{"type":"Point","coordinates":[-170.671185,-14.240591]}},{"type":"Feature","properties":{"park":"National_Park_of_American_Samoa","id":"5585834833","title":"Vai'ava Strait (12)","accuracy":16,"date_taken":"2010-12-31 15:24:55","date_granularity":"0"},"geometry":{"type":"Point","coordinates":[-170.671185,-14.240591]}},{"type":"Feature","properties":{"park":"National_Park_of_American_Samoa","id":"5586425218","title":"Vai'ava Strait (10)","accuracy":16,"date_taken":"2010-12-31 15:24:48","date_granularity":"0"},"geometry":{"type":"Point","coordinates":[-170.671185,-14.240591]}},{"type":"Feature","properties":{"park":"National_Park_of_American_Samoa","id":"5585833685","title":"Vai'ava Strait (8)","accuracy":16,"date_taken":"2010-12-31 15:24:33","date_granularity":"0"},"geometry":{"type":"Point","coordinates":[-170.671185,-14.240591]}},{"type":"Feature","properties":{"park":"National_Park_of_American_Samoa","id":"5585833201","title":"Vai'ava Strait (6)","accuracy":16,"date_taken":"2010-12-31 15:23:49","date_granularity":"0"},"geometry":{"type":"Point","coordinates":[-170.671185,-14.240591]}},{"type":"Feature","properties":{"park":"National_Park_of_American_Samoa","id":"5585832965","title":"Vai'ava Strait (5)","accuracy":16,"date_taken":"2010-12-31 14:36:37","date_granularity":"0"},"geometry":{"type":"Point","coordinates":[-170.671185,-14.240591]}},{"type":"Feature","properties":{"park":"National_Park_of_American_Samoa","id":"5586423570","title":"Vai'ava Strait (4)","accuracy":16,"date_taken":"2010-12-31 14:22:00","date_granularity":"0"},"geometry":{"type":"Point","coordinates":[-170.671185,-14.240591]}},{"type":"Feature","properties":{"park":"National_Park_of_American_Samoa","id":"5585832301","title":"Vai'ava Strait (3)","accuracy":16,"date_taken":"2010-12-31 14:21:56","date_granularity":"0"},"geometry":{"type":"Point","coordinates":[-170.671185,-14.240591]}},{"type":"Feature","properties":{"park":"National_Park_of_American_Samoa","id":"5586422832","title":"Vai'ava Strait (1)","accuracy":16,"date_taken":"2010-12-31 14:19:51","date_granularity":"0"},"geometry":{"type":"Point","coordinates":[-170.671185,-14.240591]}},{"type":"Feature","properties":{"park":"National_Park_of_American_Samoa","id":"5586337544","title":"Sea Creatures","accuracy":16,"date_taken":"2011-04-03 12:25:35","date_granularity":"0"},"geometry":{"type":"Point","coordinates":[-170.671185,-14.240591]}},{"type":"Feature","properties":{"park":"National_Park_of_American_Samoa","id":"5586321558","title":"beach walk 3","accuracy":16,"date_taken":"2011-04-03 12:20:51","date_granularity":"0"},"geometry":{"type":"Point","coordinates":[-170.671185,-14.240591]}},{"type":"Feature","properties":{"park":"National_Park_of_American_Samoa","id":"5586309266","title":"beach walk 2","accuracy":16,"date_taken":"2011-04-03 12:17:02","date_granularity":"0"},"geometry":{"type":"Point","coordinates":[-170.671185,-14.240591]}},{"type":"Feature","properties":{"park":"National_Park_of_American_Samoa","id":"5585701909","title":"Beach walk 1","accuracy":16,"date_taken":"2011-04-03 12:12:16","date_granularity":"0"},"geometry":{"type":"Point","coordinates":[-170.671185,-14.240591]}},{"type":"Feature","properties":{"park":"National_Park_of_American_Samoa","id":"5586278652","title":"First walk to Rocky Beach","accuracy":16,"date_taken":"2011-04-03 12:07:51","date_granularity":"0"},"geometry":{"type":"Point","coordinates":[-170.671185,-14.240591]}},{"type":"Feature","properties":{"park":"National_Park_of_American_Samoa","id":"5586263836","title":"Vai'ava Strait 1","accuracy":16,"date_taken":"2011-04-03 12:03:28","date_granularity":"0"},"geometry":{"type":"Point","coordinates":[-170.671185,-14.240591]}},{"type":"Feature","properties":{"park":"National_Park_of_American_Samoa","id":"5534308572","title":"DSC_0398.jpg","accuracy":16,"date_taken":"2011-03-06 01:19:34","date_granularity":"0"},"geometry":{"type":"Point","coordinates":[-170.661698,-14.248503]}},{"type":"Feature","properties":{"park":"National_Park_of_American_Samoa","id":"8746648379","title":"130417 Pola Island","accuracy":16,"date_taken":"2013-04-17 12:48:16","date_granularity":"0"},"geometry":{"type":"Point","coordinates":[-170.661717,-14.2485]}}]}