{"type":"FeatureCollection","features":[{"type":"Feature","properties":{"park":"Redwood_National_Park","id":"7645034336","title":"P1000775","accuracy":16,"date_taken":"2012-07-21 16:56:41","date_granularity":"0"},"geometry":{"type":"Point","coordinates":[-123.989042,41.257405]}},{"type":"Feature","properties":{"park":"Redwood_National_Park","id":"7645034020","title":"P1000776","accuracy":16,"date_taken":"2012-07-21 16:56:49","date_granularity":"0"},"geometry":{"type":"Point","coordinates":[-123.989042,41.257405]}},{"type":"Feature","properties":{"park":"Redwood_National_Park","id":"7645032746","title":"P1000779","accuracy":16,"date_taken":"2012-07-21 16:57:40","date_granularity":"0"},"geometry":{"type":"Point","coordinates":[-123.989042,41.257405]}},{"type":"Feature","properties":{"park":"Redwood_National_Park","id":"7335749484","title":"Mossy Forest","accuracy":15,"date_taken":"2012-05-27 16:51:05","date_granularity":"0"},"geometry":{"type":"Point","coordinates":[-124.002773,41.227857]}},{"type":"Feature","properties":{"park":"Redwood_National_Park","id":"7162233016","title":"Common Ringlet","accuracy":16,"date_taken":"2011-10-09 11:26:05","date_granularity":"0"},"geometry":{"type":"Point","coordinates":[-123.893616,41.15887]}},{"type":"Feature","properties":{"park":"Redwood_National_Park","id":"7162232114","title":"Mylitta Crescent","accuracy":16,"date_taken":"2011-10-09 11:27:53","date_granularity":"0"},"geometry":{"type":"Point","coordinates":[-123.893616,41.15887]}},{"type":"Feature","properties":{"park":"Redwood_National_Park","id":"7162231878","title":"Western Yellow-bellied Racer","accuracy":16,"date_taken":"2011-10-09 13:44:34","date_granularity":"0"},"geometry":{"type":"Point","coordinates":[-123.893616,41.15887]}},{"type":"Feature","properties":{"park":"Redwood_National_Park","id":"7162231650","title":"Ring-necked Snake","accuracy":16,"date_taken":"2011-10-09 14:40:52","date_granularity":"0"},"geometry":{"type":"Point","coordinates":[-123.893616,41.15887]}},{"type":"Feature","properties":{"park":"Redwood_National_Park","id":"7162230746","title":"Ring-necked Snake","accuracy":16,"date_taken":"2011-10-09 14:49:12","date_granularity":"0"},"geometry":{"type":"Point","coordinates":[-123.893616,41.15887]}},{"type":"Feature","properties":{"park":"Redwood_National_Park","id":"7162230182","title":"Wandering Salamander","accuracy":16,"date_taken":"2011-10-09 15:32:11","date_granularity":"0"},"geometry":{"type":"Point","coordinates":[-123.893616,41.15887]}},{"type":"Feature","properties":{"park":"Redwood_National_Park","id":"7036813485","title":"Shaggy Ink Cap","accuracy":16,"date_taken":"2011-07-15 11:49:01","date_granularity":"0"},"geometry":{"type":"Point","coordinates":[-124.004218,41.21391]}},{"type":"Feature","properties":{"park":"Redwood_National_Park","id":"6825148022","title":"Redwood Glade","accuracy":15,"date_taken":"2012-03-03 14:15:47","date_granularity":"0"},"geometry":{"type":"Point","coordinates":[-124.002556,41.200542]}},{"type":"Feature","properties":{"park":"Redwood_National_Park","id":"6824991374","title":"Dangling Fern","accuracy":15,"date_taken":"2012-03-03 14:59:30","date_granularity":"0"},"geometry":{"type":"Point","coordinates":[-124.001312,41.202447]}},{"type":"Feature","properties":{"park":"Redwood_National_Park","id":"6970560079","title":"Redwoods and River","accuracy":15,"date_taken":"2012-03-03 14:00:01","date_granularity":"0"},"geometry":{"type":"Point","coordinates":[-124.002556,41.200542]}},{"type":"Feature","properties":{"park":"Redwood_National_Park","id":"6819983250","title":"Under my Umbrella","accuracy":15,"date_taken":"2012-03-03 14:51:05","date_granularity":"0"},"geometry":{"type":"Point","coordinates":[-124.001312,41.202447]}},{"type":"Feature","properties":{"park":"Redwood_National_Park","id":"6201834843","title":"Bigleaf Maple","accuracy":16,"date_taken":"2011-06-19 14:15:27","date_granularity":"0"},"geometry":{"type":"Point","coordinates":[-123.996849,41.229459]}},{"type":"Feature","properties":{"park":"Redwood_National_Park","id":"6202299242","title":"Redwoods","accuracy":16,"date_taken":"2011-06-19 13:58:49","date_granularity":"0"},"geometry":{"type":"Point","coordinates":[-123.996849,41.229459]}},{"type":"Feature","properties":{"park":"Redwood_National_Park","id":"6200738302","title":"Some of the Tallest","accuracy":16,"date_taken":"2011-09-27 15:10:24","date_granularity":"0"},"geometry":{"type":"Point","coordinates":[-123.992643,41.377581]}},{"type":"Feature","properties":{"park":"Redwood_National_Park","id":"6200734232","title":"From the Redwood Forest","accuracy":16,"date_taken":"2011-09-27 15:09:43","date_granularity":"0"},"geometry":{"type":"Point","coordinates":[-123.992643,41.377581]}},{"type":"Feature","properties":{"park":"Redwood_National_Park","id":"6138092435","title":"\"goosepen\"","accuracy":16,"date_taken":"2011-09-11 14:25:17","date_granularity":"0"},"geometry":{"type":"Point","coordinates":[-123.974141,41.199258]}},{"type":"Feature","properties":{"park":"Redwood_National_Park","id":"6067970675","title":"Think with me","accuracy":15,"date_taken":"2011-08-07 09:00:17","date_granularity":"0"},"geometry":{"type":"Point","coordinates":[-124.001741,41.323475]}},{"type":"Feature","properties":{"park":"Redwood_National_Park","id":"5960488620","title":"Tall Trees #10","accuracy":16,"date_taken":"2011-06-13 11:38:29","date_granularity":"0"},"geometry":{"type":"Point","coordinates":[-124.001344,41.204142]}},{"type":"Feature","properties":{"park":"Redwood_National_Park","id":"5956613261","title":"Tall Trees # 9","accuracy":16,"date_taken":"2011-06-13 11:32:48","date_granularity":"0"},"geometry":{"type":"Point","coordinates":[-124.001344,41.204142]}},{"type":"Feature","properties":{"park":"Redwood_National_Park","id":"5953847620","title":"Tall Trees #7","accuracy":16,"date_taken":"2011-06-13 11:17:51","date_granularity":"0"},"geometry":{"type":"Point","coordinates":[-124.001344,41.204142]}},{"type":"Feature","properties":{"park":"Redwood_National_Park","id":"5953845488","title":"Tall Trees # 6","accuracy":16,"date_taken":"2011-06-13 11:15:14","date_granularity":"0"},"geometry":{"type":"Point","coordinates":[-124.001344,41.204142]}},{"type":"Feature","properties":{"park":"Redwood_National_Park","id":"5947453519","title":"Tall Trees # 5","accuracy":16,"date_taken":"2011-06-13 11:14:53","date_granularity":"0"},"geometry":{"type":"Point","coordinates":[-124.001344,41.204142]}},{"type":"Feature","properties":{"park":"Redwood_National_Park","id":"5942465458","title":"Tall Trees Trail # 3","accuracy":16,"date_taken":"2011-06-13 10:49:36","date_granularity":"0"},"geometry":{"type":"Point","coordinates":[-124.001344,41.204142]}},{"type":"Feature","properties":{"park":"Redwood_National_Park","id":"5939387142","title":"Tall Trees # 1","accuracy":16,"date_taken":"2011-06-13 11:29:39","date_granularity":"0"},"geometry":{"type":"Point","coordinates":[-124.001344,41.204142]}},{"type":"Feature","properties":{"park":"Redwood_National_Park","id":"5913863347","title":"Redwood National and State Parks","accuracy":16,"date_taken":"2011-07-04 09:58:48","date_granularity":"0"},"geometry":{"type":"Point","coordinates":[-124.003589,41.208769]}},{"type":"Feature","properties":{"park":"Redwood_National_Park","id":"5914423988","title":"Redwood National and State Parks","accuracy":16,"date_taken":"2011-07-04 09:57:09","date_granularity":"0"},"geometry":{"type":"Point","coordinates":[-124.0046,41.208188]}},{"type":"Feature","properties":{"park":"Redwood_National_Park","id":"5913862909","title":"Redwood National and State Parks","accuracy":16,"date_taken":"2011-07-04 09:56:54","date_granularity":"0"},"geometry":{"type":"Point","coordinates":[-124.0047,41.208261]}},{"type":"Feature","properties":{"park":"Redwood_National_Park","id":"5914417394","title":"Redwood National and State Parks","accuracy":16,"date_taken":"2011-07-03 12:26:53","date_granularity":"0"},"geometry":{"type":"Point","coordinates":[-123.997489,41.208588]}},{"type":"Feature","properties":{"park":"Redwood_National_Park","id":"5913855981","title":"Redwood National and State Parks","accuracy":16,"date_taken":"2011-07-03 11:40:15","date_granularity":"0"},"geometry":{"type":"Point","coordinates":[-123.992381,41.208019]}},{"type":"Feature","properties":{"park":"Redwood_National_Park","id":"5913855741","title":"Redwood National and State Parks","accuracy":16,"date_taken":"2011-07-03 11:40:03","date_granularity":"0"},"geometry":{"type":"Point","coordinates":[-123.992381,41.208019]}},{"type":"Feature","properties":{"park":"Redwood_National_Park","id":"5914416726","title":"Redwood National and State Parks","accuracy":16,"date_taken":"2011-07-03 11:39:32","date_granularity":"0"},"geometry":{"type":"Point","coordinates":[-123.992381,41.208019]}},{"type":"Feature","properties":{"park":"Redwood_National_Park","id":"5759714900","title":"All Been Living Alone","accuracy":16,"date_taken":"2011-05-18 15:08:08","date_granularity":"0"},"geometry":{"type":"Point","coordinates":[-123.994789,41.385309]}},{"type":"Feature","properties":{"park":"Redwood_National_Park","id":"5653526482","title":"Sunset Continuum","accuracy":15,"date_taken":"2010-12-28 09:37:34","date_granularity":"0"},"geometry":{"type":"Point","coordinates":[-124.003898,41.41893]}},{"type":"Feature","properties":{"park":"Redwood_National_Park","id":"5548098348","title":"Smooth v Rough","accuracy":16,"date_taken":"2010-08-03 16:18:39","date_granularity":"0"},"geometry":{"type":"Point","coordinates":[-124.004628,41.213179]}},{"type":"Feature","properties":{"park":"Redwood_National_Park","id":"5037555016","title":"Ken-Snapdragons060609a","accuracy":15,"date_taken":"2009-06-06 15:54:48","date_granularity":"0"},"geometry":{"type":"Point","coordinates":[-123.889603,41.146369]}},{"type":"Feature","properties":{"park":"Redwood_National_Park","id":"5037521682","title":"Ken-Snapdragons060609b","accuracy":15,"date_taken":"2009-06-06 15:55:01","date_granularity":"0"},"geometry":{"type":"Point","coordinates":[-123.889603,41.14649]}},{"type":"Feature","properties":{"park":"Redwood_National_Park","id":"4655602896","title":"Redwood","accuracy":16,"date_taken":"2001-08-29 11:34:36","date_granularity":"0"},"geometry":{"type":"Point","coordinates":[-124.003898,41.41893]}},{"type":"Feature","properties":{"park":"Redwood_National_Park","id":"4513301381","title":"Redwood Creek Basin","accuracy":16,"date_taken":"2010-01-17 14:57:03","date_granularity":"0"},"geometry":{"type":"Point","coordinates":[-123.989156,41.257924]}},{"type":"Feature","properties":{"park":"Redwood_National_Park","id":"4463611560","title":"Entering Tall Trees Grove - off Bald Hills Road","accuracy":16,"date_taken":"2010-01-17 11:02:51","date_granularity":"0"},"geometry":{"type":"Point","coordinates":[-123.987139,41.254008]}},{"type":"Feature","properties":{"park":"Redwood_National_Park","id":"4152633642","title":"Near the Dolason Barn","accuracy":15,"date_taken":"2009-11-26 14:57:01","date_granularity":"0"},"geometry":{"type":"Point","coordinates":[-123.968653,41.204473]}},{"type":"Feature","properties":{"park":"Redwood_National_Park","id":"4151868113","title":"Dolason Prairie Trailhead","accuracy":15,"date_taken":"2009-11-26 13:22:49","date_granularity":"0"},"geometry":{"type":"Point","coordinates":[-123.951165,41.205667]}},{"type":"Feature","properties":{"park":"Redwood_National_Park","id":"4079126965","title":"Eleven Nineteen AM","accuracy":15,"date_taken":"2009-07-08 14:19:00","date_granularity":"0"},"geometry":{"type":"Point","coordinates":[-123.997964,41.207908]}},{"type":"Feature","properties":{"park":"Redwood_National_Park","id":"3985180169","title":"Eleven Forty-Four AM","accuracy":15,"date_taken":"2009-07-08 14:44:33","date_granularity":"0"},"geometry":{"type":"Point","coordinates":[-123.98271,41.204674]}},{"type":"Feature","properties":{"park":"Redwood_National_Park","id":"3955927561","title":"childhoods past","accuracy":16,"date_taken":"2009-09-26 12:36:22","date_granularity":0},"geometry":{"type":"Point","coordinates":[-123.988094,41.205328]}},{"type":"Feature","properties":{"park":"Redwood_National_Park","id":"3882865622","title":"DSCN0698","accuracy":16,"date_taken":"2009-07-27 04:49:47","date_granularity":"0"},"geometry":{"type":"Point","coordinates":[-123.993428,41.395419]}},{"type":"Feature","properties":{"park":"Redwood_National_Park","id":"3882068927","title":"DSCN0697","accuracy":16,"date_taken":"2009-07-27 04:49:36","date_granularity":"0"},"geometry":{"type":"Point","coordinates":[-123.993428,41.395419]}},{"type":"Feature","properties":{"park":"Redwood_National_Park","id":"3882863198","title":"DSCN0696","accuracy":16,"date_taken":"2009-07-27 04:49:29","date_granularity":"0"},"geometry":{"type":"Point","coordinates":[-123.993428,41.395419]}},{"type":"Feature","properties":{"park":"Redwood_National_Park","id":"3758703429","title":"DSC_2137","accuracy":16,"date_taken":"2009-07-23 11:25:24","date_granularity":"0"},"geometry":{"type":"Point","coordinates":[-123.994834,41.382166]}},{"type":"Feature","properties":{"park":"Redwood_National_Park","id":"3629997261","title":"Panorama of Bald Hills Road","accuracy":16,"date_taken":"2009-06-15 16:25:34","date_granularity":"0"},"geometry":{"type":"Point","coordinates":[-123.967301,41.227764]}},{"type":"Feature","properties":{"park":"Redwood_National_Park","id":"3561939700","title":"Field 2","accuracy":16,"date_taken":"2009-05-24 15:43:34","date_granularity":"0"},"geometry":{"type":"Point","coordinates":[-123.907048,41.13854]}},{"type":"Feature","properties":{"park":"Redwood_National_Park","id":"3561936888","title":"Brodiaea","accuracy":16,"date_taken":"2009-05-24 15:31:43","date_granularity":"0"},"geometry":{"type":"Point","coordinates":[-123.910675,41.137498]}},{"type":"Feature","properties":{"park":"Redwood_National_Park","id":"3561118673","title":"Field 1","accuracy":16,"date_taken":"2009-05-24 15:30:33","date_granularity":"0"},"geometry":{"type":"Point","coordinates":[-123.910675,41.137498]}},{"type":"Feature","properties":{"park":"Redwood_National_Park","id":"3561111579","title":"Madrone Branch","accuracy":16,"date_taken":"2009-05-24 15:26:13","date_granularity":"0"},"geometry":{"type":"Point","coordinates":[-123.912616,41.137061]}},{"type":"Feature","properties":{"park":"Redwood_National_Park","id":"3561925752","title":"Leaf on a Leaf","accuracy":16,"date_taken":"2009-05-24 15:23:25","date_granularity":"0"},"geometry":{"type":"Point","coordinates":[-123.912616,41.137061]}},{"type":"Feature","properties":{"park":"Redwood_National_Park","id":"3561106749","title":"Fire Remnants","accuracy":16,"date_taken":"2009-05-24 15:21:22","date_granularity":"0"},"geometry":{"type":"Point","coordinates":[-123.912616,41.137061]}},{"type":"Feature","properties":{"park":"Redwood_National_Park","id":"3561103213","title":"Debris 2","accuracy":16,"date_taken":"2009-05-24 15:19:09","date_granularity":"0"},"geometry":{"type":"Point","coordinates":[-123.91296,41.136948]}},{"type":"Feature","properties":{"park":"Redwood_National_Park","id":"3561916718","title":"Debris 1","accuracy":16,"date_taken":"2009-05-24 15:17:39","date_granularity":"0"},"geometry":{"type":"Point","coordinates":[-123.91296,41.136948]}},{"type":"Feature","properties":{"park":"Redwood_National_Park","id":"3561094195","title":"Inside Home 1","accuracy":16,"date_taken":"2009-05-24 15:14:08","date_granularity":"0"},"geometry":{"type":"Point","coordinates":[-123.91296,41.136948]}},{"type":"Feature","properties":{"park":"Redwood_National_Park","id":"3561092669","title":"Lyons Ranch Homes","accuracy":16,"date_taken":"2009-05-24 15:11:34","date_granularity":"0"},"geometry":{"type":"Point","coordinates":[-123.91296,41.136948]}},{"type":"Feature","properties":{"park":"Redwood_National_Park","id":"3561088537","title":"Inside Barn 2","accuracy":16,"date_taken":"2009-05-24 15:09:47","date_granularity":"0"},"geometry":{"type":"Point","coordinates":[-123.913228,41.136665]}},{"type":"Feature","properties":{"park":"Redwood_National_Park","id":"3561904232","title":"Inside Barn 1","accuracy":16,"date_taken":"2009-05-24 15:08:08","date_granularity":"0"},"geometry":{"type":"Point","coordinates":[-123.913228,41.136665]}},{"type":"Feature","properties":{"park":"Redwood_National_Park","id":"3561084847","title":"Lyons Ranch Barn","accuracy":16,"date_taken":"2009-05-24 15:03:40","date_granularity":"0"},"geometry":{"type":"Point","coordinates":[-123.912895,41.136496]}},{"type":"Feature","properties":{"park":"Redwood_National_Park","id":"3561079591","title":"Wild Iris","accuracy":16,"date_taken":"2009-05-24 14:44:54","date_granularity":"0"},"geometry":{"type":"Point","coordinates":[-123.909795,41.135098]}},{"type":"Feature","properties":{"park":"Redwood_National_Park","id":"3233682405","title":"","accuracy":16,"date_taken":"2007-07-25 09:58:56","date_granularity":"0"},"geometry":{"type":"Point","coordinates":[-123.95874,41.322685]}},{"type":"Feature","properties":{"park":"Redwood_National_Park","id":"3059854025","title":"Tall Trees Trail, Redwoods NP","accuracy":15,"date_taken":"2008-09-20 14:25:04","date_granularity":"0"},"geometry":{"type":"Point","coordinates":[-123.986999,41.254116]}},{"type":"Feature","properties":{"park":"Redwood_National_Park","id":"3059853803","title":"Tall Trees Trail, Redwoods NP","accuracy":16,"date_taken":"2008-09-20 14:05:18","date_granularity":"0"},"geometry":{"type":"Point","coordinates":[-123.993136,41.208276]}},{"type":"Feature","properties":{"park":"Redwood_National_Park","id":"3059849503","title":"Tall Trees Trail, Redwoods NP","accuracy":16,"date_taken":"2008-09-20 11:43:23","date_granularity":"0"},"geometry":{"type":"Point","coordinates":[-123.993136,41.208276]}},{"type":"Feature","properties":{"park":"Redwood_National_Park","id":"2721160381","title":"IMG_0997","accuracy":16,"date_taken":"2008-07-14 17:09:07","date_granularity":"0"},"geometry":{"type":"Point","coordinates":[-123.993211,41.208194]}},{"type":"Feature","properties":{"park":"Redwood_National_Park","id":"2706193614","title":"Heavy Snow, Bald Hills, Redwood National Park, CA","accuracy":16,"date_taken":"2008-07-27 00:50:32","date_granularity":"0"},"geometry":{"type":"Point","coordinates":[-123.939685,41.193898]}},{"type":"Feature","properties":{"park":"Redwood_National_Park","id":"2552311949","title":"IMG_2801","accuracy":16,"date_taken":"2008-05-28 13:57:58","date_granularity":"0"},"geometry":{"type":"Point","coordinates":[-123.994972,41.380416]}},{"type":"Feature","properties":{"park":"Redwood_National_Park","id":"2027798263","title":"Giant Redwoods:Northern California","accuracy":16,"date_taken":"2007-11-14 17:03:24","date_granularity":"0"},"geometry":{"type":"Point","coordinates":[-123.992815,41.374618]}},{"type":"Feature","properties":{"park":"Redwood_National_Park","id":"2028596648","title":"Avenue of the Giants:Humboldt Redwood Forest CA","accuracy":16,"date_taken":"2007-11-14 16:55:03","date_granularity":"0"},"geometry":{"type":"Point","coordinates":[-123.992815,41.374618]}},{"type":"Feature","properties":{"park":"Redwood_National_Park","id":"45566313485","title":"","accuracy":16,"date_taken":"2018-07-05 11:19:16","date_granularity":"0"},"geometry":{"type":"Point","coordinates":[-123.997628,41.208594]}},{"type":"Feature","properties":{"park":"Redwood_National_Park","id":"31537824727","title":"","accuracy":16,"date_taken":"2018-07-05 11:20:24","date_granularity":"0"},"geometry":{"type":"Point","coordinates":[-123.997445,41.208488]}},{"type":"Feature","properties":{"park":"Redwood_National_Park","id":"45753994434","title":"","accuracy":16,"date_taken":"2018-07-05 11:19:17","date_granularity":"0"},"geometry":{"type":"Point","coordinates":[-123.997628,41.208594]}},{"type":"Feature","properties":{"park":"Redwood_National_Park","id":"32604704778","title":"","accuracy":16,"date_taken":"2018-07-05 11:19:08","date_granularity":"0"},"geometry":{"type":"Point","coordinates":[-123.997498,41.208625]}},{"type":"Feature","properties":{"park":"Redwood_National_Park","id":"46476837551","title":"","accuracy":16,"date_taken":"2018-07-05 11:19:12","date_granularity":"0"},"geometry":{"type":"Point","coordinates":[-123.997628,41.208594]}},{"type":"Feature","properties":{"park":"Redwood_National_Park","id":"45752684034","title":"","accuracy":16,"date_taken":"2018-07-05 11:19:08","date_granularity":"0"},"geometry":{"type":"Point","coordinates":[-123.997498,41.208625]}},{"type":"Feature","properties":{"park":"Redwood_National_Park","id":"45752511804","title":"","accuracy":16,"date_taken":"2018-07-05 11:19:18","date_granularity":"0"},"geometry":{"type":"Point","coordinates":[-123.997628,41.208594]}},{"type":"Feature","properties":{"park":"Redwood_National_Park","id":"31522157897","title":"","accuracy":16,"date_taken":"2018-07-05 11:20:24","date_granularity":"0"},"geometry":{"type":"Point","coordinates":[-123.997445,41.208488]}},{"type":"Feature","properties":{"park":"Redwood_National_Park","id":"46401202582","title":"","accuracy":16,"date_taken":"2018-07-05 11:20:38","date_granularity":"0"},"geometry":{"type":"Point","coordinates":[-123.997498,41.208497]}},{"type":"Feature","properties":{"park":"Redwood_National_Park","id":"30757633537","title":"amethyst","accuracy":16,"date_taken":"2017-05-27 20:42:43","date_granularity":"0"},"geometry":{"type":"Point","coordinates":[-123.977256,41.225967]}},{"type":"Feature","properties":{"park":"Redwood_National_Park","id":"43067451200","title":"IMG_5563","accuracy":16,"date_taken":"2018-09-02 11:47:25","date_granularity":"0"},"geometry":{"type":"Point","coordinates":[-124.003973,41.213836]}},{"type":"Feature","properties":{"park":"Redwood_National_Park","id":"44879516861","title":"IMG_5570","accuracy":16,"date_taken":"2018-09-02 11:56:58","date_granularity":"0"},"geometry":{"type":"Point","coordinates":[-124.003973,41.213836]}},{"type":"Feature","properties":{"park":"Redwood_National_Park","id":"44879511821","title":"IMG_5574","accuracy":16,"date_taken":"2018-09-02 12:00:39","date_granularity":"0"},"geometry":{"type":"Point","coordinates":[-124.003973,41.213836]}},{"type":"Feature","properties":{"park":"Redwood_National_Park","id":"44879503071","title":"IMG_5575","accuracy":16,"date_taken":"2018-09-02 12:01:19","date_granularity":"0"},"geometry":{"type":"Point","coordinates":[-124.003973,41.213836]}},{"type":"Feature","properties":{"park":"Redwood_National_Park","id":"29942672457","title":"IMG_5581","accuracy":16,"date_taken":"2018-09-02 12:02:32","date_granularity":"0"},"geometry":{"type":"Point","coordinates":[-124.003973,41.213836]}},{"type":"Feature","properties":{"park":"Redwood_National_Park","id":"29942667187","title":"IMG_5594","accuracy":16,"date_taken":"2018-09-02 12:12:23","date_granularity":"0"},"geometry":{"type":"Point","coordinates":[-124.003973,41.213836]}},{"type":"Feature","properties":{"park":"Redwood_National_Park","id":"44879476811","title":"IMG_5629","accuracy":16,"date_taken":"2018-09-02 12:29:54","date_granularity":"0"},"geometry":{"type":"Point","coordinates":[-124.003973,41.213836]}},{"type":"Feature","properties":{"park":"Redwood_National_Park","id":"44158820124","title":"IMG_5578","accuracy":16,"date_taken":"2018-09-02 12:01:50","date_granularity":"0"},"geometry":{"type":"Point","coordinates":[-124.003973,41.213836]}},{"type":"Feature","properties":{"park":"Redwood_National_Park","id":"29942645757","title":"IMG_5588","accuracy":16,"date_taken":"2018-09-02 12:09:50","date_granularity":"0"},"geometry":{"type":"Point","coordinates":[-124.003973,41.213836]}},{"type":"Feature","properties":{"park":"Redwood_National_Park","id":"29942636817","title":"IMG_5593","accuracy":16,"date_taken":"2018-09-02 12:11:29","date_granularity":"0"},"geometry":{"type":"Point","coordinates":[-124.003973,41.213836]}},{"type":"Feature","properties":{"park":"Redwood_National_Park","id":"29942618837","title":"IMG_5598","accuracy":16,"date_taken":"2018-09-02 12:13:38","date_granularity":"0"},"geometry":{"type":"Point","coordinates":[-124.003973,41.213836]}},{"type":"Feature","properties":{"park":"Redwood_National_Park","id":"29942590377","title":"IMG_5612","accuracy":16,"date_taken":"2018-09-02 12:20:25","date_granularity":"0"},"geometry":{"type":"Point","coordinates":[-124.003973,41.213836]}},{"type":"Feature","properties":{"park":"Redwood_National_Park","id":"29942582667","title":"IMG_5615","accuracy":16,"date_taken":"2018-09-02 12:22:24","date_granularity":"0"},"geometry":{"type":"Point","coordinates":[-124.003973,41.213836]}},{"type":"Feature","properties":{"park":"Redwood_National_Park","id":"44158730044","title":"IMG_5631","accuracy":16,"date_taken":"2018-09-02 14:18:40","date_granularity":"0"},"geometry":{"type":"Point","coordinates":[-124.003973,41.213836]}},{"type":"Feature","properties":{"park":"Redwood_National_Park","id":"43305947692","title":"","accuracy":16,"date_taken":"2018-07-05 10:29:28","date_granularity":"0"},"geometry":{"type":"Point","coordinates":[-123.989425,41.258022]}},{"type":"Feature","properties":{"park":"Redwood_National_Park","id":"41545442120","title":"","accuracy":16,"date_taken":"2018-07-05 10:31:41","date_granularity":"0"},"geometry":{"type":"Point","coordinates":[-123.989478,41.258236]}},{"type":"Feature","properties":{"park":"Redwood_National_Park","id":"43304669732","title":"","accuracy":16,"date_taken":"2018-07-05 10:29:57","date_granularity":"0"},"geometry":{"type":"Point","coordinates":[-123.989442,41.258061]}},{"type":"Feature","properties":{"park":"Redwood_National_Park","id":"28484147497","title":"","accuracy":16,"date_taken":"2018-07-05 10:31:42","date_granularity":"0"},"geometry":{"type":"Point","coordinates":[-123.989478,41.258236]}},{"type":"Feature","properties":{"park":"Redwood_National_Park","id":"40522009881","title":"Redwood Creek Overlook and Pacific Coast, California","accuracy":16,"date_taken":"2016-08-15 13:54:26","date_granularity":"0"},"geometry":{"type":"Point","coordinates":[-123.989339,41.258138]}},{"type":"Feature","properties":{"park":"Redwood_National_Park","id":"26651131678","title":"Mountains of Humboldt County, California","accuracy":16,"date_taken":"2016-08-15 14:23:41","date_granularity":"0"},"geometry":{"type":"Point","coordinates":[-123.893806,41.159036]}},{"type":"Feature","properties":{"park":"Redwood_National_Park","id":"40521964471","title":"Redwood Picnic Spot, California","accuracy":16,"date_taken":"2016-08-15 14:08:35","date_granularity":"0"},"geometry":{"type":"Point","coordinates":[-123.950906,41.205472]}},{"type":"Feature","properties":{"park":"Redwood_National_Park","id":"37151101754","title":"Gigantic Redwood","accuracy":15,"date_taken":"2017-10-07 09:43:27","date_granularity":"0"},"geometry":{"type":"Point","coordinates":[-123.985755,41.226328]}},{"type":"Feature","properties":{"park":"Redwood_National_Park","id":"36724065523","title":"Evergreen haze","accuracy":16,"date_taken":"2017-08-23 12:28:55","date_granularity":"0"},"geometry":{"type":"Point","coordinates":[-123.989373,41.257988]}},{"type":"Feature","properties":{"park":"Redwood_National_Park","id":"36457858173","title":"Sap","accuracy":16,"date_taken":"2017-08-23 13:41:25","date_granularity":"0"},"geometry":{"type":"Point","coordinates":[-123.997139,41.207802]}},{"type":"Feature","properties":{"park":"Redwood_National_Park","id":"36122830575","title":"IMG_1647","accuracy":16,"date_taken":"2015-07-07 15:07:39","date_granularity":"0"},"geometry":{"type":"Point","coordinates":[-123.951273,41.205441]}},{"type":"Feature","properties":{"park":"Redwood_National_Park","id":"34127805533","title":"Lost Man Creek, Redwood National Park, Humboldt County, CA, Late May 2017","accuracy":16,"date_taken":"2017-05-26 19:22:10","date_granularity":"0"},"geometry":{"type":"Point","coordinates":[-124.001119,41.323426]}},{"type":"Feature","properties":{"park":"Redwood_National_Park","id":"34665891231","title":"May 13, 2017 Spring Super Bloom on Bald Hills Road, Humboldt County, California_DSC7957 (3)","accuracy":15,"date_taken":"2017-05-13 14:32:49","date_granularity":"0"},"geometry":{"type":"Point","coordinates":[-123.93862,41.185173]}},{"type":"Feature","properties":{"park":"Redwood_National_Park","id":"33955713584","title":"May 13, 2017 Spring Super Bloom on Bald Hills Road, Humboldt County, California_DSC8089","accuracy":15,"date_taken":"2017-05-13 17:18:52","date_granularity":"0"},"geometry":{"type":"Point","coordinates":[-123.932311,41.18929]}},{"type":"Feature","properties":{"park":"Redwood_National_Park","id":"33959708845","title":"Spring Break: Hike & Kayak the Redwoods 03/24/17","accuracy":16,"date_taken":"2017-03-30 11:31:04","date_granularity":"0"},"geometry":{"type":"Point","coordinates":[-123.960834,41.205555]}},{"type":"Feature","properties":{"park":"Redwood_National_Park","id":"33918574616","title":"Spring Break: Hike & Kayak the Redwoods 03/24/17","accuracy":16,"date_taken":"2017-03-30 11:46:38","date_granularity":"0"},"geometry":{"type":"Point","coordinates":[-123.962223,41.205555]}},{"type":"Feature","properties":{"park":"Redwood_National_Park","id":"33959708595","title":"Spring Break: Hike & Kayak the Redwoods 03/24/17","accuracy":16,"date_taken":"2017-03-30 11:40:17","date_granularity":"0"},"geometry":{"type":"Point","coordinates":[-123.962223,41.205555]}},{"type":"Feature","properties":{"park":"Redwood_National_Park","id":"33918574436","title":"Spring Break: Hike & Kayak the Redwoods 03/24/17","accuracy":16,"date_taken":"2017-03-30 11:46:46","date_granularity":"0"},"geometry":{"type":"Point","coordinates":[-123.964445,41.206111]}},{"type":"Feature","properties":{"park":"Redwood_National_Park","id":"33146551513","title":"Spring Break: Hike & Kayak the Redwoods 03/24/17","accuracy":16,"date_taken":"2017-03-30 11:50:05","date_granularity":"0"},"geometry":{"type":"Point","coordinates":[-123.964445,41.206111]}},{"type":"Feature","properties":{"park":"Redwood_National_Park","id":"33959707625","title":"Spring Break: Hike & Kayak the Redwoods 03/24/17","accuracy":16,"date_taken":"2017-03-30 13:55:11","date_granularity":"0"},"geometry":{"type":"Point","coordinates":[-123.9775,41.204166]}},{"type":"Feature","properties":{"park":"Redwood_National_Park","id":"33959707845","title":"Spring Break: Hike & Kayak the Redwoods 03/24/17","accuracy":16,"date_taken":"2017-03-30 13:06:15","date_granularity":"0"},"geometry":{"type":"Point","coordinates":[-123.975278,41.203055]}},{"type":"Feature","properties":{"park":"Redwood_National_Park","id":"33146550913","title":"Spring Break: Hike & Kayak the Redwoods 03/24/17","accuracy":16,"date_taken":"2017-03-30 13:14:55","date_granularity":"0"},"geometry":{"type":"Point","coordinates":[-123.975278,41.203055]}},{"type":"Feature","properties":{"park":"Redwood_National_Park","id":"33918567996","title":"Spring Break: Hike & Kayak the Redwoods 03/24/17","accuracy":16,"date_taken":"2017-03-30 14:09:35","date_granularity":"0"},"geometry":{"type":"Point","coordinates":[-123.988056,41.200555]}},{"type":"Feature","properties":{"park":"Redwood_National_Park","id":"33959702015","title":"Spring Break: Hike & Kayak the Redwoods 03/24/17","accuracy":16,"date_taken":"2017-03-30 14:15:00","date_granularity":"0"},"geometry":{"type":"Point","coordinates":[-123.991112,41.200833]}},{"type":"Feature","properties":{"park":"Redwood_National_Park","id":"33267185622","title":"Redwood National Park","accuracy":16,"date_taken":"2009-04-22 12:06:58","date_granularity":"0"},"geometry":{"type":"Point","coordinates":[-123.9895,41.257833]}},{"type":"Feature","properties":{"park":"Redwood_National_Park","id":"32608640813","title":"Redwood National Park","accuracy":16,"date_taken":"2009-04-22 12:10:12","date_granularity":"0"},"geometry":{"type":"Point","coordinates":[-123.989334,41.258]}},{"type":"Feature","properties":{"park":"Redwood_National_Park","id":"33422876195","title":"Petasites frigidus - sweet coltsfoot","accuracy":16,"date_taken":"2009-04-22 16:32:26","date_granularity":"0"},"geometry":{"type":"Point","coordinates":[-123.9985,41.2195]}},{"type":"Feature","properties":{"park":"Redwood_National_Park","id":"33267140192","title":"Petasites frigidus - sweet coltsfoot","accuracy":16,"date_taken":"2009-04-22 16:33:39","date_granularity":"0"},"geometry":{"type":"Point","coordinates":[-123.997834,41.219833]}},{"type":"Feature","properties":{"park":"Redwood_National_Park","id":"33039763140","title":"Ribes sanguineum - red-flowered currant","accuracy":16,"date_taken":"2009-04-22 16:55:43","date_granularity":"0"},"geometry":{"type":"Point","coordinates":[-123.986834,41.244333]}},{"type":"Feature","properties":{"park":"Redwood_National_Park","id":"32608605133","title":"Vaccinium ovatum - evergreen huckleberry","accuracy":16,"date_taken":"2009-04-22 16:58:29","date_granularity":"0"},"geometry":{"type":"Point","coordinates":[-123.987167,41.244166]}},{"type":"Feature","properties":{"park":"Redwood_National_Park","id":"32608561733","title":"Vaccinium ovatum - evergreen huckleberry","accuracy":16,"date_taken":"2009-04-22 17:00:26","date_granularity":"0"},"geometry":{"type":"Point","coordinates":[-123.987167,41.244166]}},{"type":"Feature","properties":{"park":"Redwood_National_Park","id":"33267058282","title":"Banana slug","accuracy":16,"date_taken":"2009-04-22 13:15:56","date_granularity":"0"},"geometry":{"type":"Point","coordinates":[-124.000834,41.2095]}},{"type":"Feature","properties":{"park":"Redwood_National_Park","id":"33049975442","title":"Glimpse of a Giant","accuracy":16,"date_taken":"2017-02-25 10:24:44","date_granularity":"0"},"geometry":{"type":"Point","coordinates":[-124.001784,41.324555]}},{"type":"Feature","properties":{"park":"Redwood_National_Park","id":"32786960890","title":"Morning in the Redwoods","accuracy":16,"date_taken":"2017-02-25 10:37:31","date_granularity":"0"},"geometry":{"type":"Point","coordinates":[-124.001784,41.324555]}},{"type":"Feature","properties":{"park":"Redwood_National_Park","id":"31284834301","title":"Bald Hills Lupine and Mists","accuracy":16,"date_taken":"2016-05-07 06:56:23","date_granularity":"0"},"geometry":{"type":"Point","coordinates":[-123.892562,41.148919]}},{"type":"Feature","properties":{"park":"Redwood_National_Park","id":"30668588636","title":"Redwood National Park?, Yes, The Bald Hills, Humboldt County, CA, Soring 2016","accuracy":16,"date_taken":"2016-05-08 02:18:12","date_granularity":"0"},"geometry":{"type":"Point","coordinates":[-123.902424,41.136681]}},{"type":"Feature","properties":{"park":"Redwood_National_Park","id":"28545702484","title":"Redwood National & State Parks","accuracy":15,"date_taken":"2015-07-19 19:28:36","date_granularity":"0"},"geometry":{"type":"Point","coordinates":[-123.985004,41.208396]}},{"type":"Feature","properties":{"park":"Redwood_National_Park","id":"29061760012","title":"Redwood National & State Parks","accuracy":15,"date_taken":"2015-07-19 18:29:20","date_granularity":"0"},"geometry":{"type":"Point","coordinates":[-123.985004,41.208396]}},{"type":"Feature","properties":{"park":"Redwood_National_Park","id":"28481291043","title":"Everybody needs this #johnmuir","accuracy":16,"date_taken":"2016-08-19 22:42:57","date_granularity":0},"geometry":{"type":"Point","coordinates":[-123.993415,41.207466]}},{"type":"Feature","properties":{"park":"Redwood_National_Park","id":"33477887221","title":"6.29.2016_driving_to_oregon.54","accuracy":16,"date_taken":"2016-06-29 12:03:53","date_granularity":"0"},"geometry":{"type":"Point","coordinates":[-123.99382,41.357997]}},{"type":"Feature","properties":{"park":"Redwood_National_Park","id":"33477775341","title":"6.29.2016_driving_to_oregon.53","accuracy":16,"date_taken":"2016-06-29 12:02:50","date_granularity":"0"},"geometry":{"type":"Point","coordinates":[-123.99382,41.357997]}},{"type":"Feature","properties":{"park":"Redwood_National_Park","id":"27459679656","title":"Klamath to Trinidad, CA","accuracy":16,"date_taken":"2016-06-05 12:57:55","date_granularity":"0"},"geometry":{"type":"Point","coordinates":[-123.994853,41.38968]}},{"type":"Feature","properties":{"park":"Redwood_National_Park","id":"26460511523","title":"Foggy Redwoods","accuracy":15,"date_taken":"2016-05-16 22:10:31","date_granularity":0},"geometry":{"type":"Point","coordinates":[-123.996584,41.235704]}},{"type":"Feature","properties":{"park":"Redwood_National_Park","id":"27054482085","title":"Lady Bird Johnson Grove - Redwood National Park - California - USA","accuracy":16,"date_taken":"2016-05-06 13:23:32","date_granularity":"0"},"geometry":{"type":"Point","coordinates":[-123.989395,41.258716]}},{"type":"Feature","properties":{"park":"Redwood_National_Park","id":"26449206764","title":"Reedwood Creek Overlook - Redwood National Park - California - USA","accuracy":16,"date_taken":"2016-05-06 13:08:13","date_granularity":"0"},"geometry":{"type":"Point","coordinates":[-123.989395,41.258716]}},{"type":"Feature","properties":{"park":"Redwood_National_Park","id":"27021519886","title":"Reedwood Creek Overlook - Redwood National Park - California - USA","accuracy":16,"date_taken":"2016-05-06 13:07:29","date_granularity":"0"},"geometry":{"type":"Point","coordinates":[-123.989395,41.258716]}},{"type":"Feature","properties":{"park":"Redwood_National_Park","id":"26986272911","title":"Reedwood Creek Overlook - Redwood National Park - California - USA","accuracy":16,"date_taken":"2016-05-06 13:04:49","date_granularity":"0"},"geometry":{"type":"Point","coordinates":[-123.989395,41.258716]}},{"type":"Feature","properties":{"park":"Redwood_National_Park","id":"26513163450","title":"Trillium albidum","accuracy":16,"date_taken":"2016-04-25 12:33:38","date_granularity":"0"},"geometry":{"type":"Point","coordinates":[-123.890053,41.154613]}},{"type":"Feature","properties":{"park":"Redwood_National_Park","id":"26621077201","title":"Bald Hills Road, Redwood National and State Parks","accuracy":16,"date_taken":"2016-04-25 13:28:24","date_granularity":"0"},"geometry":{"type":"Point","coordinates":[-123.890053,41.154613]}},{"type":"Feature","properties":{"park":"Redwood_National_Park","id":"26687199355","title":"Bald Hills Road, Redwood National and State Parks","accuracy":16,"date_taken":"2016-04-25 13:52:41","date_granularity":"0"},"geometry":{"type":"Point","coordinates":[-123.897117,41.161433]}},{"type":"Feature","properties":{"park":"Redwood_National_Park","id":"26621076461","title":"Bald Hills Road, Redwood National and State Parks","accuracy":16,"date_taken":"2016-04-25 13:53:42","date_granularity":"0"},"geometry":{"type":"Point","coordinates":[-123.897117,41.161433]}},{"type":"Feature","properties":{"park":"Redwood_National_Park","id":"26244371646","title":"Redwood N.P.","accuracy":16,"date_taken":"2016-04-03 13:19:04","date_granularity":"0"},"geometry":{"type":"Point","coordinates":[-123.997323,41.208308]}},{"type":"Feature","properties":{"park":"Redwood_National_Park","id":"26270267745","title":"Redwood N.P.","accuracy":16,"date_taken":"2016-04-03 14:34:09","date_granularity":"0"},"geometry":{"type":"Point","coordinates":[-123.99755,41.208575]}},{"type":"Feature","properties":{"park":"Redwood_National_Park","id":"25974193491","title":"Fallen Tall Trees.","accuracy":16,"date_taken":"2015-07-17 14:09:34","date_granularity":"0"},"geometry":{"type":"Point","coordinates":[-123.997223,41.208333]}},{"type":"Feature","properties":{"park":"Redwood_National_Park","id":"23406368753","title":"Redwood Creek Overlook - Snow","accuracy":16,"date_taken":"2012-03-18 12:00:41","date_granularity":"0"},"geometry":{"type":"Point","coordinates":[-123.989334,41.258]}},{"type":"Feature","properties":{"park":"Redwood_National_Park","id":"23406356033","title":"Redwood Creek Overlook","accuracy":16,"date_taken":"2012-03-18 11:58:03","date_granularity":"0"},"geometry":{"type":"Point","coordinates":[-123.989334,41.257833]}},{"type":"Feature","properties":{"park":"Redwood_National_Park","id":"23104352844","title":"Redwood NP","accuracy":15,"date_taken":"2013-06-29 21:04:34","date_granularity":"0"},"geometry":{"type":"Point","coordinates":[-123.996934,41.209041]}},{"type":"Feature","properties":{"park":"Redwood_National_Park","id":"22906638543","title":"Bald Hills Road","accuracy":16,"date_taken":"2012-03-18 11:55:09","date_granularity":"0"},"geometry":{"type":"Point","coordinates":[-123.989334,41.266833]}},{"type":"Feature","properties":{"park":"Redwood_National_Park","id":"21039074769","title":"The Bridge (Explored)","accuracy":15,"date_taken":"2015-05-24 08:35:32","date_granularity":"0"},"geometry":{"type":"Point","coordinates":[-123.97067,41.324989]}},{"type":"Feature","properties":{"park":"Redwood_National_Park","id":"20359683894","title":"D70-0806-042 - The Big Tree","accuracy":15,"date_taken":"2015-08-06 00:00:27","date_granularity":"0"},"geometry":{"type":"Point","coordinates":[-123.991506,41.372138]}},{"type":"Feature","properties":{"park":"Redwood_National_Park","id":"20794356938","title":"D70-0806-043 - The Big Tree","accuracy":15,"date_taken":"2015-08-06 00:00:26","date_granularity":"0"},"geometry":{"type":"Point","coordinates":[-123.991506,41.372138]}},{"type":"Feature","properties":{"park":"Redwood_National_Park","id":"20794354898","title":"D70-0806-046 - The Big Tree","accuracy":15,"date_taken":"2015-08-06 00:00:23","date_granularity":"0"},"geometry":{"type":"Point","coordinates":[-123.991506,41.372138]}},{"type":"Feature","properties":{"park":"Redwood_National_Park","id":"20794213490","title":"D70-0806-048 - The Big Tree","accuracy":15,"date_taken":"2015-08-06 00:00:21","date_granularity":"0"},"geometry":{"type":"Point","coordinates":[-123.991506,41.372138]}},{"type":"Feature","properties":{"park":"Redwood_National_Park","id":"20956036216","title":"D70-0806-049 - Sign","accuracy":15,"date_taken":"2015-08-06 00:00:20","date_granularity":"0"},"geometry":{"type":"Point","coordinates":[-123.991506,41.372138]}},{"type":"Feature","properties":{"park":"Redwood_National_Park","id":"20989759931","title":"D70-0806-050 - Alice","accuracy":15,"date_taken":"2015-08-06 00:00:18","date_granularity":"0"},"geometry":{"type":"Point","coordinates":[-123.991506,41.372138]}},{"type":"Feature","properties":{"park":"Redwood_National_Park","id":"20956034466","title":"D70-0806-052 - Bob","accuracy":15,"date_taken":"2015-08-06 00:00:16","date_granularity":"0"},"geometry":{"type":"Point","coordinates":[-123.991506,41.372138]}},{"type":"Feature","properties":{"park":"Redwood_National_Park","id":"20794350308","title":"D70-0806-053 - Bob","accuracy":15,"date_taken":"2015-08-06 00:00:15","date_granularity":"0"},"geometry":{"type":"Point","coordinates":[-123.991506,41.372138]}},{"type":"Feature","properties":{"park":"Redwood_National_Park","id":"20956032926","title":"D70-0806-054 - Bob","accuracy":15,"date_taken":"2015-08-06 00:00:14","date_granularity":"0"},"geometry":{"type":"Point","coordinates":[-123.991506,41.372138]}},{"type":"Feature","properties":{"park":"Redwood_National_Park","id":"20795484519","title":"D70-0806-055 - Bob","accuracy":15,"date_taken":"2015-08-06 00:00:13","date_granularity":"0"},"geometry":{"type":"Point","coordinates":[-123.991506,41.372138]}},{"type":"Feature","properties":{"park":"Redwood_National_Park","id":"19852322631","title":"IMG_2949","accuracy":16,"date_taken":"2015-07-06 22:53:15","date_granularity":"0"},"geometry":{"type":"Point","coordinates":[-123.994798,41.383266]}},{"type":"Feature","properties":{"park":"Redwood_National_Park","id":"19224766224","title":"IMG_2948","accuracy":16,"date_taken":"2015-07-06 22:53:11","date_granularity":"0"},"geometry":{"type":"Point","coordinates":[-123.994775,41.382236]}},{"type":"Feature","properties":{"park":"Redwood_National_Park","id":"19191815174","title":"Redwood Creek Overlook","accuracy":16,"date_taken":"2015-06-08 14:48:49","date_granularity":"0"},"geometry":{"type":"Point","coordinates":[-123.989595,41.258197]}},{"type":"Feature","properties":{"park":"Redwood_National_Park","id":"19626394720","title":"Redwood Creek Overlook","accuracy":16,"date_taken":"2015-06-08 14:43:01","date_granularity":"0"},"geometry":{"type":"Point","coordinates":[-123.989281,41.257919]}},{"type":"Feature","properties":{"park":"Redwood_National_Park","id":"19136273763","title":"Hiking Tall Trees Trail","accuracy":16,"date_taken":"2015-06-08 10:55:44","date_granularity":"0"},"geometry":{"type":"Point","coordinates":[-123.997637,41.208675]}},{"type":"Feature","properties":{"park":"Redwood_National_Park","id":"19569135260","title":"Hiking Tall Trees Trail","accuracy":16,"date_taken":"2015-06-08 10:47:54","date_granularity":"0"},"geometry":{"type":"Point","coordinates":[-123.996042,41.207083]}},{"type":"Feature","properties":{"park":"Redwood_National_Park","id":"18902903078","title":"Tall Trees Trail","accuracy":16,"date_taken":"2015-06-08 10:55:03","date_granularity":"0"},"geometry":{"type":"Point","coordinates":[-123.997475,41.208508]}},{"type":"Feature","properties":{"park":"Redwood_National_Park","id":"18468034744","title":"Tall Trees Trail","accuracy":16,"date_taken":"2015-06-08 10:54:12","date_granularity":"0"},"geometry":{"type":"Point","coordinates":[-123.997475,41.208508]}},{"type":"Feature","properties":{"park":"Redwood_National_Park","id":"18902838350","title":"Tall Trees Trail","accuracy":16,"date_taken":"2015-06-08 10:53:28","date_granularity":"0"},"geometry":{"type":"Point","coordinates":[-123.997467,41.208513]}},{"type":"Feature","properties":{"park":"Redwood_National_Park","id":"19064332996","title":"Tall Trees Trail","accuracy":16,"date_taken":"2015-06-08 10:51:59","date_granularity":"0"},"geometry":{"type":"Point","coordinates":[-123.996873,41.2081]}},{"type":"Feature","properties":{"park":"Redwood_National_Park","id":"18902880218","title":"Tall Trees Trail","accuracy":16,"date_taken":"2015-06-08 10:42:05","date_granularity":"0"},"geometry":{"type":"Point","coordinates":[-123.994775,41.207011]}},{"type":"Feature","properties":{"park":"Redwood_National_Park","id":"19064322426","title":"Tall Trees Trail","accuracy":16,"date_taken":"2015-06-08 10:41:31","date_granularity":"0"},"geometry":{"type":"Point","coordinates":[-123.994775,41.207011]}},{"type":"Feature","properties":{"park":"Redwood_National_Park","id":"17767428416","title":"IMG_9892","accuracy":16,"date_taken":"2015-04-24 12:02:47","date_granularity":"0"},"geometry":{"type":"Point","coordinates":[-123.989403,41.258419]}},{"type":"Feature","properties":{"park":"Redwood_National_Park","id":"17793672685","title":"IMG_9894","accuracy":16,"date_taken":"2015-04-24 12:47:37","date_granularity":"0"},"geometry":{"type":"Point","coordinates":[-123.951217,41.205563]}},{"type":"Feature","properties":{"park":"Redwood_National_Park","id":"17173339953","title":"IMG_9893","accuracy":16,"date_taken":"2015-04-24 12:02:50","date_granularity":"0"},"geometry":{"type":"Point","coordinates":[-123.989648,41.258305]}},{"type":"Feature","properties":{"park":"Redwood_National_Park","id":"16384190462","title":"Ruffed Grouse","accuracy":16,"date_taken":"2015-01-24 16:40:05","date_granularity":"0"},"geometry":{"type":"Point","coordinates":[-123.990062,41.229569]}},{"type":"Feature","properties":{"park":"Redwood_National_Park","id":"16384190192","title":"Ruffed Grouse","accuracy":16,"date_taken":"2015-01-24 16:39:47","date_granularity":"0"},"geometry":{"type":"Point","coordinates":[-123.989645,41.230511]}},{"type":"Feature","properties":{"park":"Redwood_National_Park","id":"15854627077","title":"Ruffed Grouse","accuracy":15,"date_taken":"2014-12-13 10:24:00","date_granularity":"0"},"geometry":{"type":"Point","coordinates":[-123.969361,41.20197]}},{"type":"Feature","properties":{"park":"Redwood_National_Park","id":"15382172207","title":"Redwood forest","accuracy":16,"date_taken":"2014-09-19 11:57:29","date_granularity":"0"},"geometry":{"type":"Point","coordinates":[-123.989364,41.25795]}},{"type":"Feature","properties":{"park":"Redwood_National_Park","id":"15382549160","title":"Bald Hills Road from Trinity to Redwoods","accuracy":16,"date_taken":"2014-09-19 11:24:32","date_granularity":"0"},"geometry":{"type":"Point","coordinates":[-123.862342,41.141205]}},{"type":"Feature","properties":{"park":"Redwood_National_Park","id":"15007332177","title":"2014-09-04 16.07.30","accuracy":16,"date_taken":"2014-09-04 16:07:30","date_granularity":"0"},"geometry":{"type":"Point","coordinates":[-123.993067,41.207922]}},{"type":"Feature","properties":{"park":"Redwood_National_Park","id":"15190864361","title":"2014-09-04 16.39.03","accuracy":16,"date_taken":"2014-09-04 16:39:03","date_granularity":"0"},"geometry":{"type":"Point","coordinates":[-123.99302,41.207869]}},{"type":"Feature","properties":{"park":"Redwood_National_Park","id":"15007331777","title":"2014-09-04 17.05.53","accuracy":16,"date_taken":"2014-09-04 17:05:53","date_granularity":"0"},"geometry":{"type":"Point","coordinates":[-123.992967,41.207872]}},{"type":"Feature","properties":{"park":"Redwood_National_Park","id":"14812204493","title":"Redwoods and Elk-062","accuracy":16,"date_taken":"2014-07-30 14:21:54","date_granularity":"0"},"geometry":{"type":"Point","coordinates":[-123.951364,41.204688]}},{"type":"Feature","properties":{"park":"Redwood_National_Park","id":"14792013772","title":"Redwoods and Elk-061","accuracy":16,"date_taken":"2014-07-30 14:17:36","date_granularity":"0"},"geometry":{"type":"Point","coordinates":[-123.951325,41.20473]}},{"type":"Feature","properties":{"park":"Redwood_National_Park","id":"14605654730","title":"Redwoods and Elk-059","accuracy":16,"date_taken":"2014-07-30 13:51:58","date_granularity":"0"},"geometry":{"type":"Point","coordinates":[-123.951242,41.205444]}},{"type":"Feature","properties":{"park":"Redwood_National_Park","id":"14451327161","title":"_6170024.NEF","accuracy":16,"date_taken":"2014-06-17 15:11:58","date_granularity":"0"},"geometry":{"type":"Point","coordinates":[-123.915342,41.138761]}},{"type":"Feature","properties":{"park":"Redwood_National_Park","id":"14056031012","title":"IMG_8798","accuracy":16,"date_taken":"2014-04-26 15:11:29","date_granularity":"0"},"geometry":{"type":"Point","coordinates":[-123.882855,41.151495]}},{"type":"Feature","properties":{"park":"Redwood_National_Park","id":"14056017971","title":"IMG_8802","accuracy":16,"date_taken":"2014-04-26 15:14:24","date_granularity":"0"},"geometry":{"type":"Point","coordinates":[-123.882855,41.151495]}},{"type":"Feature","properties":{"park":"Redwood_National_Park","id":"14036088416","title":"IMG_8806","accuracy":16,"date_taken":"2014-04-26 15:15:05","date_granularity":"0"},"geometry":{"type":"Point","coordinates":[-123.882855,41.151495]}},{"type":"Feature","properties":{"park":"Redwood_National_Park","id":"14059219555","title":"IMG_8809","accuracy":16,"date_taken":"2014-04-26 15:16:41","date_granularity":"0"},"geometry":{"type":"Point","coordinates":[-123.882855,41.151495]}},{"type":"Feature","properties":{"park":"Redwood_National_Park","id":"14079246733","title":"IMG_8814","accuracy":16,"date_taken":"2014-04-26 15:18:12","date_granularity":"0"},"geometry":{"type":"Point","coordinates":[-123.882855,41.151495]}},{"type":"Feature","properties":{"park":"Redwood_National_Park","id":"14056000991","title":"IMG_8819","accuracy":16,"date_taken":"2014-04-26 15:20:10","date_granularity":"0"},"geometry":{"type":"Point","coordinates":[-123.881878,41.150655]}},{"type":"Feature","properties":{"park":"Redwood_National_Park","id":"14056008562","title":"IMG_8821","accuracy":16,"date_taken":"2014-04-26 15:38:43","date_granularity":"0"},"geometry":{"type":"Point","coordinates":[-123.889667,41.154832]}},{"type":"Feature","properties":{"park":"Redwood_National_Park","id":"14056003762","title":"IMG_8823","accuracy":16,"date_taken":"2014-04-26 15:38:56","date_granularity":"0"},"geometry":{"type":"Point","coordinates":[-123.889667,41.154832]}},{"type":"Feature","properties":{"park":"Redwood_National_Park","id":"14036062336","title":"IMG_8831","accuracy":16,"date_taken":"2014-04-26 15:42:45","date_granularity":"0"},"geometry":{"type":"Point","coordinates":[-123.889667,41.154832]}},{"type":"Feature","properties":{"park":"Redwood_National_Park","id":"14059197245","title":"IMG_8839","accuracy":16,"date_taken":"2014-04-26 15:44:55","date_granularity":"0"},"geometry":{"type":"Point","coordinates":[-123.889667,41.154832]}},{"type":"Feature","properties":{"park":"Redwood_National_Park","id":"14079227373","title":"IMG_8843","accuracy":16,"date_taken":"2014-04-26 15:53:33","date_granularity":"0"},"geometry":{"type":"Point","coordinates":[-123.891985,41.157885]}},{"type":"Feature","properties":{"park":"Redwood_National_Park","id":"14055986082","title":"IMG_8851","accuracy":16,"date_taken":"2014-04-26 15:59:02","date_granularity":"0"},"geometry":{"type":"Point","coordinates":[-123.891985,41.157885]}},{"type":"Feature","properties":{"park":"Redwood_National_Park","id":"13428470935","title":"Elk Prairie","accuracy":16,"date_taken":"2012-09-08 21:04:34","date_granularity":"0"},"geometry":{"type":"Point","coordinates":[-124.004631,41.21318]}},{"type":"Feature","properties":{"park":"Redwood_National_Park","id":"13428468445","title":"Elk Prairie","accuracy":16,"date_taken":"2012-09-08 21:09:47","date_granularity":"0"},"geometry":{"type":"Point","coordinates":[-124.004631,41.21318]}},{"type":"Feature","properties":{"park":"Redwood_National_Park","id":"13428584703","title":"Elk Prairie","accuracy":16,"date_taken":"2012-09-08 21:14:55","date_granularity":"0"},"geometry":{"type":"Point","coordinates":[-124.004631,41.21318]}},{"type":"Feature","properties":{"park":"Redwood_National_Park","id":"13428582033","title":"Elk Prairie","accuracy":16,"date_taken":"2012-09-08 21:15:23","date_granularity":"0"},"geometry":{"type":"Point","coordinates":[-124.004631,41.21318]}},{"type":"Feature","properties":{"park":"Redwood_National_Park","id":"13428580253","title":"Elk Prairie","accuracy":16,"date_taken":"2012-09-08 21:15:38","date_granularity":"0"},"geometry":{"type":"Point","coordinates":[-124.004631,41.21318]}},{"type":"Feature","properties":{"park":"Redwood_National_Park","id":"13428456615","title":"Elk Prairie","accuracy":16,"date_taken":"2012-09-08 21:15:54","date_granularity":"0"},"geometry":{"type":"Point","coordinates":[-124.004631,41.21318]}},{"type":"Feature","properties":{"park":"Redwood_National_Park","id":"13428574063","title":"Elk Prairie","accuracy":16,"date_taken":"2012-09-09 10:26:28","date_granularity":"0"},"geometry":{"type":"Point","coordinates":[-124.004631,41.21318]}},{"type":"Feature","properties":{"park":"Redwood_National_Park","id":"11917846933","title":"Into the Redwoods","accuracy":15,"date_taken":"2012-06-30 00:04:07","date_granularity":"0"},"geometry":{"type":"Point","coordinates":[-124.004616,41.275839]}},{"type":"Feature","properties":{"park":"Redwood_National_Park","id":"11081004405","title":"","accuracy":16,"date_taken":"2013-11-26 09:55:31","date_granularity":"0"},"geometry":{"type":"Point","coordinates":[-123.863123,41.141116]}},{"type":"Feature","properties":{"park":"Redwood_National_Park","id":"11081082606","title":"","accuracy":16,"date_taken":"2013-11-26 09:55:01","date_granularity":"0"},"geometry":{"type":"Point","coordinates":[-123.863123,41.141138]}},{"type":"Feature","properties":{"park":"Redwood_National_Park","id":"11081076274","title":"","accuracy":16,"date_taken":"2013-11-26 09:42:47","date_granularity":"0"},"geometry":{"type":"Point","coordinates":[-123.890128,41.155666]}},{"type":"Feature","properties":{"park":"Redwood_National_Park","id":"11081115203","title":"","accuracy":16,"date_taken":"2013-11-26 09:19:04","date_granularity":"0"},"geometry":{"type":"Point","coordinates":[-123.989328,41.257947]}},{"type":"Feature","properties":{"park":"Redwood_National_Park","id":"10200700225","title":"American Black Bear","accuracy":16,"date_taken":"2012-04-20 19:39:13","date_granularity":"0"},"geometry":{"type":"Point","coordinates":[-123.862083,41.141109]}},{"type":"Feature","properties":{"park":"Redwood_National_Park","id":"9760677553","title":"USA/Canada 2013","accuracy":16,"date_taken":"2013-07-12 16:32:06","date_granularity":"0"},"geometry":{"type":"Point","coordinates":[-123.989415,41.257995]}},{"type":"Feature","properties":{"park":"Redwood_National_Park","id":"9760599086","title":"USA/Canada 2013","accuracy":16,"date_taken":"2013-07-12 16:31:41","date_granularity":"0"},"geometry":{"type":"Point","coordinates":[-123.989426,41.258003]}},{"type":"Feature","properties":{"park":"Redwood_National_Park","id":"9556863205","title":"Photo","accuracy":16,"date_taken":"2013-08-15 15:21:38","date_granularity":"0"},"geometry":{"type":"Point","coordinates":[-123.872611,41.14713]}},{"type":"Feature","properties":{"park":"Redwood_National_Park","id":"9503308526","title":"somatic","accuracy":16,"date_taken":"2013-06-29 01:57:32","date_granularity":"0"},"geometry":{"type":"Point","coordinates":[-123.968524,41.194673]}},{"type":"Feature","properties":{"park":"Redwood_National_Park","id":"9372853286","title":"","accuracy":16,"date_taken":"2013-07-24 23:12:14","date_granularity":"0"},"geometry":{"type":"Point","coordinates":[-124.004631,41.21318]}},{"type":"Feature","properties":{"park":"Redwood_National_Park","id":"9370076019","title":"","accuracy":16,"date_taken":"2013-07-24 23:11:59","date_granularity":"0"},"geometry":{"type":"Point","coordinates":[-124.004631,41.21318]}},{"type":"Feature","properties":{"park":"Redwood_National_Park","id":"9370075505","title":"","accuracy":16,"date_taken":"2013-07-24 23:10:57","date_granularity":"0"},"geometry":{"type":"Point","coordinates":[-124.004631,41.21318]}},{"type":"Feature","properties":{"park":"Redwood_National_Park","id":"9372851932","title":"","accuracy":16,"date_taken":"2013-07-24 23:08:08","date_granularity":"0"},"geometry":{"type":"Point","coordinates":[-124.004631,41.21318]}},{"type":"Feature","properties":{"park":"Redwood_National_Park","id":"9370074133","title":"","accuracy":16,"date_taken":"2013-07-24 23:06:57","date_granularity":"0"},"geometry":{"type":"Point","coordinates":[-124.004631,41.21318]}},{"type":"Feature","properties":{"park":"Redwood_National_Park","id":"9370073611","title":"","accuracy":16,"date_taken":"2013-07-24 23:06:05","date_granularity":"0"},"geometry":{"type":"Point","coordinates":[-124.004631,41.21318]}},{"type":"Feature","properties":{"park":"Redwood_National_Park","id":"9370073171","title":"","accuracy":16,"date_taken":"2013-07-24 23:05:48","date_granularity":"0"},"geometry":{"type":"Point","coordinates":[-124.004631,41.21318]}},{"type":"Feature","properties":{"park":"Redwood_National_Park","id":"9370072639","title":"","accuracy":16,"date_taken":"2013-07-24 23:05:07","date_granularity":"0"},"geometry":{"type":"Point","coordinates":[-124.004631,41.21318]}},{"type":"Feature","properties":{"park":"Redwood_National_Park","id":"9372849292","title":"","accuracy":16,"date_taken":"2013-07-24 23:04:58","date_granularity":"0"},"geometry":{"type":"Point","coordinates":[-124.004631,41.21318]}},{"type":"Feature","properties":{"park":"Redwood_National_Park","id":"9372848768","title":"","accuracy":16,"date_taken":"2013-07-24 23:04:07","date_granularity":"0"},"geometry":{"type":"Point","coordinates":[-124.004631,41.21318]}},{"type":"Feature","properties":{"park":"Redwood_National_Park","id":"9370071329","title":"","accuracy":16,"date_taken":"2013-07-24 23:03:34","date_granularity":"0"},"geometry":{"type":"Point","coordinates":[-124.004631,41.21318]}},{"type":"Feature","properties":{"park":"Redwood_National_Park","id":"9372847732","title":"","accuracy":16,"date_taken":"2013-07-24 23:02:54","date_granularity":"0"},"geometry":{"type":"Point","coordinates":[-124.004628,41.213177]}},{"type":"Feature","properties":{"park":"Redwood_National_Park","id":"9370070117","title":"","accuracy":16,"date_taken":"2013-07-24 23:02:40","date_granularity":"0"},"geometry":{"type":"Point","coordinates":[-124.004628,41.213177]}},{"type":"Feature","properties":{"park":"Redwood_National_Park","id":"9372845976","title":"","accuracy":16,"date_taken":"2013-07-24 23:01:28","date_granularity":"0"},"geometry":{"type":"Point","coordinates":[-124.004628,41.213177]}},{"type":"Feature","properties":{"park":"Redwood_National_Park","id":"9372845464","title":"","accuracy":16,"date_taken":"2013-07-24 23:00:42","date_granularity":"0"},"geometry":{"type":"Point","coordinates":[-124.004628,41.213177]}},{"type":"Feature","properties":{"park":"Redwood_National_Park","id":"9372844918","title":"","accuracy":16,"date_taken":"2013-07-24 22:59:16","date_granularity":"0"},"geometry":{"type":"Point","coordinates":[-124.004628,41.213177]}},{"type":"Feature","properties":{"park":"Redwood_National_Park","id":"9372843134","title":"","accuracy":16,"date_taken":"2013-07-24 22:57:28","date_granularity":"0"},"geometry":{"type":"Point","coordinates":[-124.004628,41.213177]}},{"type":"Feature","properties":{"park":"Redwood_National_Park","id":"9372842424","title":"","accuracy":16,"date_taken":"2013-07-24 22:57:08","date_granularity":"0"},"geometry":{"type":"Point","coordinates":[-124.004628,41.213177]}},{"type":"Feature","properties":{"park":"Redwood_National_Park","id":"9370064307","title":"","accuracy":16,"date_taken":"2013-07-24 22:55:56","date_granularity":"0"},"geometry":{"type":"Point","coordinates":[-124.004628,41.213177]}},{"type":"Feature","properties":{"park":"Redwood_National_Park","id":"9372840612","title":"","accuracy":16,"date_taken":"2013-07-24 22:55:31","date_granularity":"0"},"geometry":{"type":"Point","coordinates":[-124.004628,41.213177]}},{"type":"Feature","properties":{"park":"Redwood_National_Park","id":"9370062843","title":"","accuracy":16,"date_taken":"2013-07-24 22:53:47","date_granularity":"0"},"geometry":{"type":"Point","coordinates":[-124.004628,41.213177]}},{"type":"Feature","properties":{"park":"Redwood_National_Park","id":"9370062269","title":"","accuracy":16,"date_taken":"2013-07-24 22:53:27","date_granularity":"0"},"geometry":{"type":"Point","coordinates":[-124.004628,41.213177]}},{"type":"Feature","properties":{"park":"Redwood_National_Park","id":"9370061695","title":"","accuracy":16,"date_taken":"2013-07-24 22:53:08","date_granularity":"0"},"geometry":{"type":"Point","coordinates":[-124.004628,41.213177]}},{"type":"Feature","properties":{"park":"Redwood_National_Park","id":"8906913091","title":"264047_100567756790477_658531396_n_edited-1.jpg","accuracy":16,"date_taken":"2013-05-11 16:15:03","date_granularity":"0"},"geometry":{"type":"Point","coordinates":[-124.004627,41.213178]}},{"type":"Feature","properties":{"park":"Redwood_National_Park","id":"8883924547","title":"flying into the valley","accuracy":16,"date_taken":"2013-03-01 15:31:47","date_granularity":"0"},"geometry":{"type":"Point","coordinates":[-123.949156,41.173027]}},{"type":"Feature","properties":{"park":"Redwood_National_Park","id":"8884542042","title":"flying into the valley","accuracy":16,"date_taken":"2013-03-01 15:32:01","date_granularity":"0"},"geometry":{"type":"Point","coordinates":[-123.957214,41.187894]}},{"type":"Feature","properties":{"park":"Redwood_National_Park","id":"8884540466","title":"flying into the valley","accuracy":16,"date_taken":"2013-03-01 15:32:05","date_granularity":"0"},"geometry":{"type":"Point","coordinates":[-123.959945,41.19228]}},{"type":"Feature","properties":{"park":"Redwood_National_Park","id":"8884538758","title":"","accuracy":16,"date_taken":"2013-03-01 15:32:33","date_granularity":"0"},"geometry":{"type":"Point","coordinates":[-123.982112,41.222238]}},{"type":"Feature","properties":{"park":"Redwood_National_Park","id":"8638298789","title":"Ranunculus repens","accuracy":16,"date_taken":"2011-07-16 17:39:24","date_granularity":"0"},"geometry":{"type":"Point","coordinates":[-123.988898,41.258678]}},{"type":"Feature","properties":{"park":"Redwood_National_Park","id":"8417740451","title":"Snow on the Bald Hills, Redwood National Park, January 2013","accuracy":15,"date_taken":"2013-01-10 22:43:30","date_granularity":"0"},"geometry":{"type":"Point","coordinates":[-123.894796,41.146377]}},{"type":"Feature","properties":{"park":"Redwood_National_Park","id":"8151197283","title":"Bark","accuracy":16,"date_taken":"2012-09-03 20:08:30","date_granularity":"0"},"geometry":{"type":"Point","coordinates":[-123.995014,41.206327]}},{"type":"Feature","properties":{"park":"Redwood_National_Park","id":"8055777028","title":"PA010224","accuracy":16,"date_taken":"2012-10-01 15:05:11","date_granularity":"0"},"geometry":{"type":"Point","coordinates":[-124.001945,41.3825]}},{"type":"Feature","properties":{"park":"Redwood_National_Park","id":"8055774077","title":"PA010226","accuracy":16,"date_taken":"2012-10-01 15:24:54","date_granularity":"0"},"geometry":{"type":"Point","coordinates":[-124.001945,41.3825]}},{"type":"Feature","properties":{"park":"Redwood_National_Park","id":"7853611596","title":"Mountain Bluebird","accuracy":16,"date_taken":"2012-04-20 19:21:51","date_granularity":"0"},"geometry":{"type":"Point","coordinates":[-123.893616,41.15887]}},{"type":"Feature","properties":{"park":"Redwood_National_Park","id":"7845577950","title":"DSC_0515","accuracy":16,"date_taken":"2012-08-02 15:43:29","date_granularity":"0"},"geometry":{"type":"Point","coordinates":[-124.000259,41.209966]}},{"type":"Feature","properties":{"park":"Redwood_National_Park","id":"7845576758","title":"DSC_0516","accuracy":16,"date_taken":"2012-08-02 15:50:23","date_granularity":"0"},"geometry":{"type":"Point","coordinates":[-123.999814,41.209205]}},{"type":"Feature","properties":{"park":"Redwood_National_Park","id":"7712463104","title":"Guidebook said 500ft.","accuracy":16,"date_taken":"2012-08-04 12:44:56","date_granularity":"0"},"geometry":{"type":"Point","coordinates":[-123.994861,41.389636]}},{"type":"Feature","properties":{"park":"Redwood_National_Park","id":"7645034954","title":"P1000774","accuracy":16,"date_taken":"2012-07-21 16:56:33","date_granularity":"0"},"geometry":{"type":"Point","coordinates":[-123.989042,41.257405]}},{"type":"Feature","properties":{"park":"Redwood_National_Park","id":"2415867170","title":"beach","accuracy":16,"date_taken":"2008-05-08 20:55:33","date_granularity":"0"},"geometry":{"type":"Point","coordinates":[-124.097083,41.270202]}},{"type":"Feature","properties":{"park":"Redwood_National_Park","id":"2415044095","title":"beach look","accuracy":16,"date_taken":"2008-05-08 20:55:04","date_granularity":"0"},"geometry":{"type":"Point","coordinates":[-124.097083,41.270202]}},{"type":"Feature","properties":{"park":"Redwood_National_Park","id":"2415865228","title":"beach stroll","accuracy":16,"date_taken":"2008-05-08 20:52:48","date_granularity":"0"},"geometry":{"type":"Point","coordinates":[-124.097083,41.270202]}},{"type":"Feature","properties":{"park":"Redwood_National_Park","id":"2415864478","title":"beach run","accuracy":16,"date_taken":"2008-05-08 20:50:50","date_granularity":"0"},"geometry":{"type":"Point","coordinates":[-124.097083,41.270202]}},{"type":"Feature","properties":{"park":"Redwood_National_Park","id":"2415040715","title":"beach wet","accuracy":16,"date_taken":"2008-05-08 20:50:42","date_granularity":"0"},"geometry":{"type":"Point","coordinates":[-124.097083,41.270202]}},{"type":"Feature","properties":{"park":"Redwood_National_Park","id":"2415039019","title":"beach road","accuracy":16,"date_taken":"2008-05-08 20:46:41","date_granularity":"0"},"geometry":{"type":"Point","coordinates":[-124.097533,41.266723]}},{"type":"Feature","properties":{"park":"Redwood_National_Park","id":"419755839","title":"The sea bares its fangs","accuracy":15,"date_taken":"2006-05-22 18:35:45","date_granularity":"0"},"geometry":{"type":"Point","coordinates":[-124.099169,41.26213]}},{"type":"Feature","properties":{"park":"Redwood_National_Park","id":"419755738","title":"Frustration","accuracy":15,"date_taken":"2006-05-22 16:47:19","date_granularity":"0"},"geometry":{"type":"Point","coordinates":[-124.098676,41.26142]}},{"type":"Feature","properties":{"park":"Redwood_National_Park","id":"2429464605","title":"04202008(010)","accuracy":16,"date_taken":"2008-04-20 16:57:02","date_granularity":"0"},"geometry":{"type":"Point","coordinates":[-124.04962,41.52276]}},{"type":"Feature","properties":{"park":"Redwood_National_Park","id":"2430265308","title":"04202008(007)","accuracy":16,"date_taken":"2008-04-20 16:48:26","date_granularity":"0"},"geometry":{"type":"Point","coordinates":[-124.07004,41.49938]}},{"type":"Feature","properties":{"park":"Redwood_National_Park","id":"2034909685","title":"Wisps of fog in the early morning light along the Newton P. Drury Scenic Byway in Prairie Grove State Park - radar16","accuracy":16,"date_taken":"2007-10-29 10:39:34","date_granularity":"0"},"geometry":{"type":"Point","coordinates":[-124.041523,41.465193]}},{"type":"Feature","properties":{"park":"Redwood_National_Park","id":"2034908189","title":"radar15","accuracy":16,"date_taken":"2007-10-29 10:39:25","date_granularity":"0"},"geometry":{"type":"Point","coordinates":[-124.041523,41.465193]}},{"type":"Feature","properties":{"park":"Redwood_National_Park","id":"2035704772","title":"radar14","accuracy":16,"date_taken":"2007-10-29 10:22:28","date_granularity":"0"},"geometry":{"type":"Point","coordinates":[-124.078795,41.521808]}},{"type":"Feature","properties":{"park":"Redwood_National_Park","id":"2035701258","title":"radar12","accuracy":16,"date_taken":"2007-10-29 10:20:38","date_granularity":"0"},"geometry":{"type":"Point","coordinates":[-124.078795,41.521808]}},{"type":"Feature","properties":{"park":"Redwood_National_Park","id":"2035697282","title":"radar10","accuracy":16,"date_taken":"2007-10-29 10:19:27","date_granularity":"0"},"geometry":{"type":"Point","coordinates":[-124.078795,41.521808]}},{"type":"Feature","properties":{"park":"Redwood_National_Park","id":"2034896099","title":"radar08","accuracy":16,"date_taken":"2007-10-29 10:17:32","date_granularity":"0"},"geometry":{"type":"Point","coordinates":[-124.078795,41.521808]}},{"type":"Feature","properties":{"park":"Redwood_National_Park","id":"2034894573","title":"radar07","accuracy":16,"date_taken":"2007-10-29 10:15:39","date_granularity":"0"},"geometry":{"type":"Point","coordinates":[-124.078795,41.521808]}},{"type":"Feature","properties":{"park":"Redwood_National_Park","id":"1556636311","title":"US-101 North - Del Norte County","accuracy":16,"date_taken":"2006-10-01 00:00:00","date_granularity":"4"},"geometry":{"type":"Point","coordinates":[-124.037232,41.464566]}},{"type":"Feature","properties":{"park":"Redwood_National_Park","id":"1556636869","title":"US-101 Exit 765 Onramp","accuracy":16,"date_taken":"2006-10-01 00:00:00","date_granularity":"4"},"geometry":{"type":"Point","coordinates":[-124.038134,41.467127]}},{"type":"Feature","properties":{"park":"Redwood_National_Park","id":"1429089055","title":"Pacific Sunset","accuracy":15,"date_taken":"2007-09-15 19:38:56","date_granularity":"0"},"geometry":{"type":"Point","coordinates":[-124.074268,41.50836]}},{"type":"Feature","properties":{"park":"Redwood_National_Park","id":"749385798","title":"river end","accuracy":16,"date_taken":"2006-08-25 22:36:38","date_granularity":"0"},"geometry":{"type":"Point","coordinates":[-124.076328,41.535832]}},{"type":"Feature","properties":{"park":"Redwood_National_Park","id":"515690195","title":"20040318-033 Coastal Drive - Radar Station","accuracy":15,"date_taken":"2004-03-18 13:16:05","date_granularity":"0"},"geometry":{"type":"Point","coordinates":[-124.06562,41.479004]}},{"type":"Feature","properties":{"park":"Redwood_National_Park","id":"254945345","title":"Northern California Coast","accuracy":16,"date_taken":"2006-09-09 12:43:21","date_granularity":"0"},"geometry":{"type":"Point","coordinates":[-124.079235,41.509734]}},{"type":"Feature","properties":{"park":"Redwood_National_Park","id":"35889972","title":"0705-171427","accuracy":16,"date_taken":"2005-07-05 17:14:27","date_granularity":"0"},"geometry":{"type":"Point","coordinates":[-124.079755,41.534461]}},{"type":"Feature","properties":{"park":"Redwood_National_Park","id":"22168023","title":"A banana slug and some leaves and grass and stuff","accuracy":16,"date_taken":"2005-06-03 13:17:11","date_granularity":"0"},"geometry":{"type":"Point","coordinates":[-124.078881,41.526885]}},{"type":"Feature","properties":{"park":"Redwood_National_Park","id":"22168022","title":"A sizeable banana slug","accuracy":16,"date_taken":"2005-06-03 15:18:35","date_granularity":"0"},"geometry":{"type":"Point","coordinates":[-124.078881,41.526885]}},{"type":"Feature","properties":{"park":"Redwood_National_Park","id":"22166869","title":"Bob and Christina on a desolate planet far from earth","accuracy":15,"date_taken":"2005-06-03 01:49:44","date_granularity":"0"},"geometry":{"type":"Point","coordinates":[-124.080061,41.532965]}},{"type":"Feature","properties":{"park":"Redwood_National_Park","id":"22166866","title":"A banana slug eating a cheerio","accuracy":16,"date_taken":"2005-06-03 14:25:19","date_granularity":"0"},"geometry":{"type":"Point","coordinates":[-124.077959,41.526214]}},{"type":"Feature","properties":{"park":"Redwood_National_Park","id":"7451108448","title":"IMG_0327","accuracy":16,"date_taken":"2012-06-23 16:05:24","date_granularity":"0"},"geometry":{"type":"Point","coordinates":[-124.092539,41.28324]}},{"type":"Feature","properties":{"park":"Redwood_National_Park","id":"7451106272","title":"IMG_0326","accuracy":16,"date_taken":"2012-06-23 16:04:10","date_granularity":"0"},"geometry":{"type":"Point","coordinates":[-124.092539,41.28324]}},{"type":"Feature","properties":{"park":"Redwood_National_Park","id":"7451104582","title":"IMG_0325","accuracy":16,"date_taken":"2012-06-23 16:04:05","date_granularity":"0"},"geometry":{"type":"Point","coordinates":[-124.092539,41.28324]}},{"type":"Feature","properties":{"park":"Redwood_National_Park","id":"7451102944","title":"IMG_0324","accuracy":16,"date_taken":"2012-06-23 16:01:42","date_granularity":"0"},"geometry":{"type":"Point","coordinates":[-124.092539,41.28324]}},{"type":"Feature","properties":{"park":"Redwood_National_Park","id":"7451101808","title":"IMG_0323","accuracy":16,"date_taken":"2012-06-23 16:01:39","date_granularity":"0"},"geometry":{"type":"Point","coordinates":[-124.092539,41.28324]}},{"type":"Feature","properties":{"park":"Redwood_National_Park","id":"7451100532","title":"IMG_0322","accuracy":16,"date_taken":"2012-06-23 16:01:38","date_granularity":"0"},"geometry":{"type":"Point","coordinates":[-124.092539,41.28324]}},{"type":"Feature","properties":{"park":"Redwood_National_Park","id":"7451099292","title":"IMG_0321","accuracy":16,"date_taken":"2012-06-23 16:00:03","date_granularity":"0"},"geometry":{"type":"Point","coordinates":[-124.092539,41.28324]}},{"type":"Feature","properties":{"park":"Redwood_National_Park","id":"7451098064","title":"IMG_0320","accuracy":16,"date_taken":"2012-06-23 16:00:00","date_granularity":"0"},"geometry":{"type":"Point","coordinates":[-124.092539,41.28324]}},{"type":"Feature","properties":{"park":"Redwood_National_Park","id":"7451096870","title":"IMG_0319","accuracy":16,"date_taken":"2012-06-23 15:59:53","date_granularity":"0"},"geometry":{"type":"Point","coordinates":[-124.092539,41.28324]}},{"type":"Feature","properties":{"park":"Redwood_National_Park","id":"7451095112","title":"IMG_0318","accuracy":16,"date_taken":"2012-06-23 15:59:32","date_granularity":"0"},"geometry":{"type":"Point","coordinates":[-124.092539,41.28324]}},{"type":"Feature","properties":{"park":"Redwood_National_Park","id":"7451093524","title":"IMG_0317","accuracy":16,"date_taken":"2012-06-23 15:59:31","date_granularity":"0"},"geometry":{"type":"Point","coordinates":[-124.092539,41.28324]}},{"type":"Feature","properties":{"park":"Redwood_National_Park","id":"7451091924","title":"IMG_0316","accuracy":16,"date_taken":"2012-06-23 15:57:37","date_granularity":"0"},"geometry":{"type":"Point","coordinates":[-124.092539,41.28324]}},{"type":"Feature","properties":{"park":"Redwood_National_Park","id":"7451090908","title":"IMG_0315","accuracy":16,"date_taken":"2012-06-23 15:57:29","date_granularity":"0"},"geometry":{"type":"Point","coordinates":[-124.092539,41.28324]}},{"type":"Feature","properties":{"park":"Redwood_National_Park","id":"7451089784","title":"IMG_0314","accuracy":16,"date_taken":"2012-06-23 15:57:28","date_granularity":"0"},"geometry":{"type":"Point","coordinates":[-124.092539,41.28324]}},{"type":"Feature","properties":{"park":"Redwood_National_Park","id":"7451088852","title":"IMG_0313","accuracy":16,"date_taken":"2012-06-23 15:57:05","date_granularity":"0"},"geometry":{"type":"Point","coordinates":[-124.092539,41.28324]}},{"type":"Feature","properties":{"park":"Redwood_National_Park","id":"7451087614","title":"IMG_0312","accuracy":16,"date_taken":"2012-06-23 15:56:58","date_granularity":"0"},"geometry":{"type":"Point","coordinates":[-124.092539,41.28324]}},{"type":"Feature","properties":{"park":"Redwood_National_Park","id":"7396451082","title":"Fishing Boy, Flying Seagull, and Thundering Breakers","accuracy":16,"date_taken":"2012-06-18 16:02:01","date_granularity":0},"geometry":{"type":"Point","coordinates":[-124.090299,41.28657]}},{"type":"Feature","properties":{"park":"Redwood_National_Park","id":"7185004129","title":"","accuracy":16,"date_taken":"2012-06-07 11:11:51","date_granularity":"0"},"geometry":{"type":"Point","coordinates":[-124.091667,41.283]}},{"type":"Feature","properties":{"park":"Redwood_National_Park","id":"7370236864","title":"","accuracy":16,"date_taken":"2012-06-07 11:11:03","date_granularity":"0"},"geometry":{"type":"Point","coordinates":[-124.091667,41.283]}},{"type":"Feature","properties":{"park":"Redwood_National_Park","id":"7185001019","title":"","accuracy":16,"date_taken":"2012-06-07 11:11:01","date_granularity":"0"},"geometry":{"type":"Point","coordinates":[-124.091667,41.283]}},{"type":"Feature","properties":{"park":"Redwood_National_Park","id":"7370233576","title":"","accuracy":16,"date_taken":"2012-06-07 11:10:39","date_granularity":"0"},"geometry":{"type":"Point","coordinates":[-124.0915,41.283167]}},{"type":"Feature","properties":{"park":"Redwood_National_Park","id":"7184996569","title":"","accuracy":16,"date_taken":"2012-06-07 11:12:00","date_granularity":"0"},"geometry":{"type":"Point","coordinates":[-124.091667,41.283]}},{"type":"Feature","properties":{"park":"Redwood_National_Park","id":"7184995497","title":"","accuracy":16,"date_taken":"2012-06-07 11:12:10","date_granularity":"0"},"geometry":{"type":"Point","coordinates":[-124.091667,41.283]}},{"type":"Feature","properties":{"park":"Redwood_National_Park","id":"7178737745","title":"DSCN0945","accuracy":16,"date_taken":"2012-06-05 12:48:09","date_granularity":"0"},"geometry":{"type":"Point","coordinates":[-124.091075,41.286811]}},{"type":"Feature","properties":{"park":"Redwood_National_Park","id":"7156232097","title":"Coastal Rabbit","accuracy":16,"date_taken":"2012-05-27 10:34:10","date_granularity":"0"},"geometry":{"type":"Point","coordinates":[-124.091435,41.286922]}},{"type":"Feature","properties":{"park":"Redwood_National_Park","id":"6861227299","title":"","accuracy":16,"date_taken":"2011-11-03 10:50:33","date_granularity":"0"},"geometry":{"type":"Point","coordinates":[-124.090833,41.286833]}},{"type":"Feature","properties":{"park":"Redwood_National_Park","id":"6814935613","title":"Redwood National and State Parks","accuracy":16,"date_taken":"2012-01-12 13:56:07","date_granularity":"0"},"geometry":{"type":"Point","coordinates":[-124.090951,41.286856]}},{"type":"Feature","properties":{"park":"Redwood_National_Park","id":"6814935113","title":"Redwood National and State Parks","accuracy":16,"date_taken":"2012-01-12 14:06:24","date_granularity":"0"},"geometry":{"type":"Point","coordinates":[-124.090951,41.286856]}},{"type":"Feature","properties":{"park":"Redwood_National_Park","id":"6814934935","title":"Redwood National and State Parks","accuracy":16,"date_taken":"2012-01-12 14:05:37","date_granularity":"0"},"geometry":{"type":"Point","coordinates":[-124.090951,41.286856]}},{"type":"Feature","properties":{"park":"Redwood_National_Park","id":"6814934493","title":"Redwood National and State Parks","accuracy":16,"date_taken":"2012-01-12 14:03:46","date_granularity":"0"},"geometry":{"type":"Point","coordinates":[-124.090951,41.286856]}},{"type":"Feature","properties":{"park":"Redwood_National_Park","id":"6784895633","title":"","accuracy":16,"date_taken":"2011-11-03 10:50:33","date_granularity":"0"},"geometry":{"type":"Point","coordinates":[-124.090833,41.286833]}},{"type":"Feature","properties":{"park":"Redwood_National_Park","id":"6705362903","title":"IMG_1069","accuracy":16,"date_taken":"2012-01-09 16:48:52","date_granularity":"0"},"geometry":{"type":"Point","coordinates":[-124.093333,41.283833]}},{"type":"Feature","properties":{"park":"Redwood_National_Park","id":"6705362161","title":"IMG_1067","accuracy":16,"date_taken":"2012-01-09 16:48:02","date_granularity":"0"},"geometry":{"type":"Point","coordinates":[-124.0935,41.283833]}},{"type":"Feature","properties":{"park":"Redwood_National_Park","id":"6480696933","title":"20111014-068","accuracy":16,"date_taken":"2011-10-14 17:43:41","date_granularity":"0"},"geometry":{"type":"Point","coordinates":[-124.09182,41.287408]}},{"type":"Feature","properties":{"park":"Redwood_National_Park","id":"6480694245","title":"20111014-067","accuracy":16,"date_taken":"2011-10-14 17:43:18","date_granularity":"0"},"geometry":{"type":"Point","coordinates":[-124.09182,41.287408]}},{"type":"Feature","properties":{"park":"Redwood_National_Park","id":"6046982355","title":"","accuracy":16,"date_taken":"2011-08-08 17:04:32","date_granularity":"0"},"geometry":{"type":"Point","coordinates":[-124.093333,41.280833]}},{"type":"Feature","properties":{"park":"Redwood_National_Park","id":"5932412026","title":"Redwood National and State Parks, CA","accuracy":16,"date_taken":"2010-08-03 21:11:15","date_granularity":"0"},"geometry":{"type":"Point","coordinates":[-124.092264,41.28345]}},{"type":"Feature","properties":{"park":"Redwood_National_Park","id":"5798296560","title":"Redwood Creek Beach","accuracy":16,"date_taken":"2011-05-29 11:24:19","date_granularity":"0"},"geometry":{"type":"Point","coordinates":[-124.092516,41.28415]}},{"type":"Feature","properties":{"park":"Redwood_National_Park","id":"5797744211","title":"Redwood Creek Beach","accuracy":16,"date_taken":"2011-05-29 11:22:23","date_granularity":"0"},"geometry":{"type":"Point","coordinates":[-124.092516,41.28415]}},{"type":"Feature","properties":{"park":"Redwood_National_Park","id":"5772444266","title":"IMAG0245","accuracy":16,"date_taken":"2011-05-28 10:10:32","date_granularity":"0"},"geometry":{"type":"Point","coordinates":[-124.094556,41.275394]}},{"type":"Feature","properties":{"park":"Redwood_National_Park","id":"5767036937","title":"","accuracy":16,"date_taken":"2010-11-02 17:16:30","date_granularity":"0"},"geometry":{"type":"Point","coordinates":[-124.0945,41.2755]}},{"type":"Feature","properties":{"park":"Redwood_National_Park","id":"5607620154","title":"Together at the beach","accuracy":16,"date_taken":"2011-04-10 11:27:36","date_granularity":"0"},"geometry":{"type":"Point","coordinates":[-124.0925,41.287167]}},{"type":"Feature","properties":{"park":"Redwood_National_Park","id":"5607033631","title":"\"No Dish Washing\"","accuracy":16,"date_taken":"2011-04-10 11:19:12","date_granularity":"0"},"geometry":{"type":"Point","coordinates":[-124.091333,41.286833]}},{"type":"Feature","properties":{"park":"Redwood_National_Park","id":"5607032207","title":"The Pacific.","accuracy":16,"date_taken":"2011-04-10 11:10:19","date_granularity":"0"},"geometry":{"type":"Point","coordinates":[-124.093167,41.287167]}},{"type":"Feature","properties":{"park":"Redwood_National_Park","id":"5607616192","title":"Warning!","accuracy":16,"date_taken":"2011-04-10 11:07:26","date_granularity":"0"},"geometry":{"type":"Point","coordinates":[-124.091833,41.286833]}},{"type":"Feature","properties":{"park":"Redwood_National_Park","id":"5463695023","title":"","accuracy":16,"date_taken":"2010-08-02 11:29:48","date_granularity":"0"},"geometry":{"type":"Point","coordinates":[-124.091333,41.2855]}},{"type":"Feature","properties":{"park":"Redwood_National_Park","id":"5463694839","title":"","accuracy":16,"date_taken":"2010-08-02 11:29:44","date_granularity":"0"},"geometry":{"type":"Point","coordinates":[-124.091333,41.2855]}},{"type":"Feature","properties":{"park":"Redwood_National_Park","id":"5463693103","title":"","accuracy":16,"date_taken":"2010-08-02 11:26:52","date_granularity":"0"},"geometry":{"type":"Point","coordinates":[-124.091333,41.2855]}},{"type":"Feature","properties":{"park":"Redwood_National_Park","id":"5464292370","title":"","accuracy":16,"date_taken":"2010-08-02 11:26:43","date_granularity":"0"},"geometry":{"type":"Point","coordinates":[-124.091333,41.2855]}},{"type":"Feature","properties":{"park":"Redwood_National_Park","id":"5463692693","title":"","accuracy":16,"date_taken":"2010-08-02 11:26:19","date_granularity":"0"},"geometry":{"type":"Point","coordinates":[-124.091333,41.2855]}},{"type":"Feature","properties":{"park":"Redwood_National_Park","id":"5409158163","title":"Through the Sequoiahs","accuracy":16,"date_taken":"2011-02-01 21:14:25","date_granularity":"0"},"geometry":{"type":"Point","coordinates":[-124.092957,41.284377]}},{"type":"Feature","properties":{"park":"Redwood_National_Park","id":"5304377626","title":"1990-xcountry-sheet18a-13","accuracy":15,"date_taken":"1990-09-01 00:00:00","date_granularity":"4"},"geometry":{"type":"Point","coordinates":[-124.089814,41.293511]}},{"type":"Feature","properties":{"park":"Redwood_National_Park","id":"5304373918","title":"1990-xcountry-sheet18a-16","accuracy":15,"date_taken":"1990-09-01 00:00:00","date_granularity":"4"},"geometry":{"type":"Point","coordinates":[-124.089814,41.293511]}},{"type":"Feature","properties":{"park":"Redwood_National_Park","id":"5303780199","title":"1990-xcountry-sheet18a-15","accuracy":15,"date_taken":"1990-09-01 00:00:00","date_granularity":"4"},"geometry":{"type":"Point","coordinates":[-124.089814,41.293511]}},{"type":"Feature","properties":{"park":"Redwood_National_Park","id":"5304371866","title":"1990-xcountry-sheet18a-08","accuracy":15,"date_taken":"1990-09-01 00:00:00","date_granularity":"4"},"geometry":{"type":"Point","coordinates":[-124.089814,41.293511]}},{"type":"Feature","properties":{"park":"Redwood_National_Park","id":"5303777789","title":"1990-xcountry-sheet18a-07","accuracy":15,"date_taken":"1990-09-01 00:00:00","date_granularity":"4"},"geometry":{"type":"Point","coordinates":[-124.089814,41.293511]}},{"type":"Feature","properties":{"park":"Redwood_National_Park","id":"5303776791","title":"1990-xcountry-sheet18a-06","accuracy":15,"date_taken":"1990-09-01 00:00:00","date_granularity":"4"},"geometry":{"type":"Point","coordinates":[-124.089814,41.293511]}},{"type":"Feature","properties":{"park":"Redwood_National_Park","id":"5303774529","title":"1990-xcountry-sheet18a-11","accuracy":15,"date_taken":"1990-09-01 00:00:00","date_granularity":"4"},"geometry":{"type":"Point","coordinates":[-124.089814,41.293511]}},{"type":"Feature","properties":{"park":"Redwood_National_Park","id":"5304365990","title":"1990-xcountry-sheet18a-09","accuracy":15,"date_taken":"1990-09-01 00:00:00","date_granularity":"4"},"geometry":{"type":"Point","coordinates":[-124.089814,41.293511]}},{"type":"Feature","properties":{"park":"Redwood_National_Park","id":"5291645802","title":"Incoming","accuracy":16,"date_taken":"2010-12-25 06:35:53","date_granularity":"0"},"geometry":{"type":"Point","coordinates":[-124.082964,41.332236]}},{"type":"Feature","properties":{"park":"Redwood_National_Park","id":"4958333532","title":"Redwoods","accuracy":16,"date_taken":"2010-07-13 03:57:55","date_granularity":"0"},"geometry":{"type":"Point","coordinates":[-124.085136,41.323312]}},{"type":"Feature","properties":{"park":"Redwood_National_Park","id":"4957739203","title":"Green","accuracy":16,"date_taken":"2010-07-13 00:53:57","date_granularity":"0"},"geometry":{"type":"Point","coordinates":[-124.085136,41.323312]}},{"type":"Feature","properties":{"park":"Redwood_National_Park","id":"4957738043","title":"Fern Canyon","accuracy":16,"date_taken":"2010-07-12 23:32:17","date_granularity":"0"},"geometry":{"type":"Point","coordinates":[-124.085136,41.323312]}},{"type":"Feature","properties":{"park":"Redwood_National_Park","id":"4957737409","title":"Elk","accuracy":16,"date_taken":"2010-07-12 22:19:02","date_granularity":"0"},"geometry":{"type":"Point","coordinates":[-124.085136,41.323312]}},{"type":"Feature","properties":{"park":"Redwood_National_Park","id":"4958329844","title":"Elk","accuracy":16,"date_taken":"2010-07-12 22:18:47","date_granularity":"0"},"geometry":{"type":"Point","coordinates":[-124.085136,41.323312]}},{"type":"Feature","properties":{"park":"Redwood_National_Park","id":"4958329308","title":"l","accuracy":16,"date_taken":"2010-07-12 22:01:15","date_granularity":"0"},"geometry":{"type":"Point","coordinates":[-124.085136,41.323312]}},{"type":"Feature","properties":{"park":"Redwood_National_Park","id":"4957735225","title":"k","accuracy":16,"date_taken":"2010-07-12 21:55:55","date_granularity":"0"},"geometry":{"type":"Point","coordinates":[-124.085136,41.323312]}},{"type":"Feature","properties":{"park":"Redwood_National_Park","id":"4958326872","title":"Redwoods","accuracy":16,"date_taken":"2010-07-12 21:54:59","date_granularity":"0"},"geometry":{"type":"Point","coordinates":[-124.085136,41.323312]}},{"type":"Feature","properties":{"park":"Redwood_National_Park","id":"4957732343","title":"Redwoods","accuracy":16,"date_taken":"2010-07-12 21:48:54","date_granularity":"0"},"geometry":{"type":"Point","coordinates":[-124.085136,41.323312]}},{"type":"Feature","properties":{"park":"Redwood_National_Park","id":"4957731185","title":"Redwoods","accuracy":16,"date_taken":"2010-07-12 21:44:32","date_granularity":"0"},"geometry":{"type":"Point","coordinates":[-124.085136,41.323312]}},{"type":"Feature","properties":{"park":"Redwood_National_Park","id":"4957730645","title":"Redwoods","accuracy":16,"date_taken":"2010-07-12 21:42:10","date_granularity":"0"},"geometry":{"type":"Point","coordinates":[-124.085136,41.323312]}},{"type":"Feature","properties":{"park":"Redwood_National_Park","id":"4958323596","title":"Redwood National Park","accuracy":16,"date_taken":"2010-07-12 20:46:30","date_granularity":"0"},"geometry":{"type":"Point","coordinates":[-124.085136,41.323312]}},{"type":"Feature","properties":{"park":"Redwood_National_Park","id":"4958323224","title":"Redwood National Park","accuracy":16,"date_taken":"2010-07-12 20:46:07","date_granularity":"0"},"geometry":{"type":"Point","coordinates":[-124.085136,41.323312]}},{"type":"Feature","properties":{"park":"Redwood_National_Park","id":"4958322738","title":"Redwoods","accuracy":16,"date_taken":"2010-07-12 10:38:35","date_granularity":"0"},"geometry":{"type":"Point","coordinates":[-124.085136,41.323312]}},{"type":"Feature","properties":{"park":"Redwood_National_Park","id":"4958321546","title":"Redwoods","accuracy":16,"date_taken":"2010-07-12 10:25:43","date_granularity":"0"},"geometry":{"type":"Point","coordinates":[-124.085136,41.323312]}},{"type":"Feature","properties":{"park":"Redwood_National_Park","id":"4957726699","title":"Redwoods","accuracy":16,"date_taken":"2010-07-12 10:21:51","date_granularity":"0"},"geometry":{"type":"Point","coordinates":[-124.085136,41.323312]}},{"type":"Feature","properties":{"park":"Redwood_National_Park","id":"4957725969","title":"Redwoods","accuracy":16,"date_taken":"2010-07-12 09:53:39","date_granularity":"0"},"geometry":{"type":"Point","coordinates":[-124.085136,41.323312]}},{"type":"Feature","properties":{"park":"Redwood_National_Park","id":"4957725243","title":"Redwoods","accuracy":16,"date_taken":"2010-07-12 09:43:44","date_granularity":"0"},"geometry":{"type":"Point","coordinates":[-124.085136,41.323312]}},{"type":"Feature","properties":{"park":"Redwood_National_Park","id":"4958317424","title":"Redwood National Park","accuracy":16,"date_taken":"2010-07-12 09:20:43","date_granularity":"0"},"geometry":{"type":"Point","coordinates":[-124.085136,41.323312]}},{"type":"Feature","properties":{"park":"Redwood_National_Park","id":"4845189539","title":"Chris at the Beach","accuracy":16,"date_taken":"2010-07-30 23:16:09","date_granularity":"0"},"geometry":{"type":"Point","coordinates":[-124.093344,41.283796]}},{"type":"Feature","properties":{"park":"Redwood_National_Park","id":"4842528021","title":"IMG_2409","accuracy":16,"date_taken":"2010-07-23 14:47:14","date_granularity":"0"},"geometry":{"type":"Point","coordinates":[-124.091059,41.286763]}},{"type":"Feature","properties":{"park":"Redwood_National_Park","id":"4843143578","title":"IMG_2408","accuracy":16,"date_taken":"2010-07-23 14:46:19","date_granularity":"0"},"geometry":{"type":"Point","coordinates":[-124.0912,41.286755]}},{"type":"Feature","properties":{"park":"Redwood_National_Park","id":"4836105615","title":"Waves","accuracy":16,"date_taken":"2010-03-31 20:06:39","date_granularity":"0"},"geometry":{"type":"Point","coordinates":[-124.091826,41.293063]}},{"type":"Feature","properties":{"park":"Redwood_National_Park","id":"4806949024","title":"Redwood Seals","accuracy":16,"date_taken":"2010-03-31 19:44:57","date_granularity":"0"},"geometry":{"type":"Point","coordinates":[-124.091826,41.293063]}},{"type":"Feature","properties":{"park":"Redwood_National_Park","id":"4618091598","title":"Elk","accuracy":16,"date_taken":"2010-05-12 16:24:25","date_granularity":"0"},"geometry":{"type":"Point","coordinates":[-124.094667,41.279]}},{"type":"Feature","properties":{"park":"Redwood_National_Park","id":"3828580093","title":"At the beach","accuracy":16,"date_taken":"2009-08-16 22:33:52","date_granularity":"0"},"geometry":{"type":"Point","coordinates":[-124.094005,41.278723]}},{"type":"Feature","properties":{"park":"Redwood_National_Park","id":"3627445719","title":"Redwood Creek Beach","accuracy":16,"date_taken":"2004-09-12 15:58:20","date_granularity":"0"},"geometry":{"type":"Point","coordinates":[-124.092853,41.283627]}},{"type":"Feature","properties":{"park":"Redwood_National_Park","id":"3628095196","title":"Redwood Creek Beach","accuracy":16,"date_taken":"2004-09-12 15:58:00","date_granularity":"0"},"geometry":{"type":"Point","coordinates":[-124.092853,41.283627]}},{"type":"Feature","properties":{"park":"Redwood_National_Park","id":"3550663857","title":"Ocean at Redwood Visitor Center","accuracy":16,"date_taken":"2009-03-28 13:06:26","date_granularity":"0"},"geometry":{"type":"Point","coordinates":[-124.09214,41.286896]}},{"type":"Feature","properties":{"park":"Redwood_National_Park","id":"3528407261","title":"Giant wrench on a beach in Northern California","accuracy":16,"date_taken":"2009-04-07 12:38:47","date_granularity":"0"},"geometry":{"type":"Point","coordinates":[-124.09152,41.293688]}},{"type":"Feature","properties":{"park":"Redwood_National_Park","id":"3489521153","title":"At the Mouth of Redwood Creek","accuracy":16,"date_taken":"2009-04-30 18:29:03","date_granularity":"0"},"geometry":{"type":"Point","coordinates":[-124.091745,41.292906]}},{"type":"Feature","properties":{"park":"Redwood_National_Park","id":"3490337400","title":"At the Mouth of Redwood Creek","accuracy":16,"date_taken":"2009-04-30 18:29:01","date_granularity":"0"},"geometry":{"type":"Point","coordinates":[-124.091745,41.292906]}},{"type":"Feature","properties":{"park":"Redwood_National_Park","id":"3396243806","title":"Ocean at Redwood Visitor Center","accuracy":16,"date_taken":"2009-03-28 13:08:26","date_granularity":"0"},"geometry":{"type":"Point","coordinates":[-124.09214,41.286896]}},{"type":"Feature","properties":{"park":"Redwood_National_Park","id":"3396243538","title":"Ocean at Redwood Visitor Center","accuracy":16,"date_taken":"2009-03-28 13:06:26","date_granularity":"0"},"geometry":{"type":"Point","coordinates":[-124.09214,41.286896]}},{"type":"Feature","properties":{"park":"Redwood_National_Park","id":"3093382628","title":"Northern Harrier","accuracy":15,"date_taken":"2008-12-07 13:54:19","date_granularity":"0"},"geometry":{"type":"Point","coordinates":[-124.095929,41.271261]}},{"type":"Feature","properties":{"park":"Redwood_National_Park","id":"3092541287","title":"Northern Harrier","accuracy":15,"date_taken":"2008-12-07 13:54:21","date_granularity":"0"},"geometry":{"type":"Point","coordinates":[-124.095929,41.271261]}},{"type":"Feature","properties":{"park":"Redwood_National_Park","id":"2628924572","title":"A Carved Coast","accuracy":16,"date_taken":"2007-09-28 16:24:14","date_granularity":"0"},"geometry":{"type":"Point","coordinates":[-124.082679,41.328099]}},{"type":"Feature","properties":{"park":"Redwood_National_Park","id":"2590612349","title":"The occasional oil spill would be worth cheaper gas -- NOT","accuracy":16,"date_taken":"2008-06-18 15:33:55","date_granularity":"0"},"geometry":{"type":"Point","coordinates":[-124.091247,41.291058]}},{"type":"Feature","properties":{"park":"Redwood_National_Park","id":"2591428130","title":"Boring. Needs some women.","accuracy":16,"date_taken":"2008-06-18 15:24:59","date_granularity":"0"},"geometry":{"type":"Point","coordinates":[-124.09245,41.288891]}},{"type":"Feature","properties":{"park":"Redwood_National_Park","id":"2591420228","title":"Not quite Rehoboth Beach","accuracy":16,"date_taken":"2008-06-18 15:05:49","date_granularity":"0"},"geometry":{"type":"Point","coordinates":[-124.089038,41.288052]}},{"type":"Feature","properties":{"park":"Redwood_National_Park","id":"2553132136","title":"IMG_2796","accuracy":16,"date_taken":"2008-05-28 13:36:28","date_granularity":"0"},"geometry":{"type":"Point","coordinates":[-124.094833,41.275388]}},{"type":"Feature","properties":{"park":"Redwood_National_Park","id":"2471853873","title":"Hazy","accuracy":16,"date_taken":"2008-04-30 16:22:30","date_granularity":"0"},"geometry":{"type":"Point","coordinates":[-124.091654,41.286294]}},{"type":"Feature","properties":{"park":"Redwood_National_Park","id":"2471834751","title":"IMG_0264","accuracy":16,"date_taken":"2008-04-30 16:22:09","date_granularity":"0"},"geometry":{"type":"Point","coordinates":[-124.091654,41.286294]}},{"type":"Feature","properties":{"park":"Redwood_National_Park","id":"2472627662","title":"Sounds of the surf","accuracy":16,"date_taken":"2008-05-06 18:23:44","date_granularity":"0"},"geometry":{"type":"Point","coordinates":[-124.091654,41.286294]}},{"type":"Feature","properties":{"park":"Redwood_National_Park","id":"2472229782","title":"Fun in the sun","accuracy":16,"date_taken":"2008-04-30 16:21:53","date_granularity":"0"},"geometry":{"type":"Point","coordinates":[-124.091654,41.286294]}},{"type":"Feature","properties":{"park":"Redwood_National_Park","id":"2472220620","title":"At the ocean","accuracy":16,"date_taken":"2008-04-30 16:21:49","date_granularity":"0"},"geometry":{"type":"Point","coordinates":[-124.091654,41.286294]}},{"type":"Feature","properties":{"park":"Redwood_National_Park","id":"2471389997","title":"IMG_0637","accuracy":16,"date_taken":"2008-04-30 16:20:45","date_granularity":"0"},"geometry":{"type":"Point","coordinates":[-124.091654,41.286294]}},{"type":"Feature","properties":{"park":"Redwood_National_Park","id":"2471381543","title":"IMG_0636","accuracy":16,"date_taken":"2008-04-30 16:20:13","date_granularity":"0"},"geometry":{"type":"Point","coordinates":[-124.091654,41.286294]}},{"type":"Feature","properties":{"park":"Redwood_National_Park","id":"2471372393","title":"IMG_0635","accuracy":16,"date_taken":"2008-04-30 16:20:09","date_granularity":"0"},"geometry":{"type":"Point","coordinates":[-124.091654,41.286294]}},{"type":"Feature","properties":{"park":"Redwood_National_Park","id":"2472186366","title":"IMG_0634","accuracy":16,"date_taken":"2008-04-30 16:20:05","date_granularity":"0"},"geometry":{"type":"Point","coordinates":[-124.091654,41.286294]}},{"type":"Feature","properties":{"park":"Redwood_National_Park","id":"2472176220","title":"IMG_0633","accuracy":16,"date_taken":"2008-04-30 16:20:03","date_granularity":"0"},