{"type":"FeatureCollection","features":[{"type":"Feature","properties":{"park":"Virgin_Islands_National_Park","id":"33582777481","title":"East End II","accuracy":16,"date_taken":"2008-01-21 15:56:59","date_granularity":"0"},"geometry":{"type":"Point","coordinates":[-64.685944,18.352072]}},{"type":"Feature","properties":{"park":"Virgin_Islands_National_Park","id":"33582773791","title":"Rounding the Bend","accuracy":16,"date_taken":"2008-01-21 15:42:44","date_granularity":"0"},"geometry":{"type":"Point","coordinates":[-64.724096,18.354231]}},{"type":"Feature","properties":{"park":"Virgin_Islands_National_Park","id":"476074608","title":"_MG_6712.jpg","accuracy":16,"date_taken":"2006-08-14 14:22:15","date_granularity":"0"},"geometry":{"type":"Point","coordinates":[-64.735575,18.356887]}},{"type":"Feature","properties":{"park":"Virgin_Islands_National_Park","id":"476084465","title":"_MG_6697.jpg","accuracy":16,"date_taken":"2006-08-14 14:12:44","date_granularity":"0"},"geometry":{"type":"Point","coordinates":[-64.735575,18.356887]}},{"type":"Feature","properties":{"park":"Virgin_Islands_National_Park","id":"168580893","title":"Donkey on St. John Island","accuracy":16,"date_taken":"2001-11-18 11:34:48","date_granularity":"0"},"geometry":{"type":"Point","coordinates":[-64.692521,18.356276]}},{"type":"Feature","properties":{"park":"Virgin_Islands_National_Park","id":"101279136","title":"Full Moon over Coral Bay","accuracy":16,"date_taken":"2006-02-13 19:18:55","date_granularity":"0"},"geometry":{"type":"Point","coordinates":[-64.732496,18.33925]}},{"type":"Feature","properties":{"park":"Virgin_Islands_National_Park","id":"8290652588","title":"","accuracy":16,"date_taken":"2012-12-15 17:42:29","date_granularity":"0"},"geometry":{"type":"Point","coordinates":[-64.904333,18.347667]}},{"type":"Feature","properties":{"park":"Virgin_Islands_National_Park","id":"2222236282","title":"From Windy Hill Ruins","accuracy":15,"date_taken":"2007-02-22 23:58:57","date_granularity":"0"},"geometry":{"type":"Point","coordinates":[-64.718549,18.366459]}},{"type":"Feature","properties":{"park":"Virgin_Islands_National_Park","id":"2222235540","title":"From Windy Hill Ruins","accuracy":15,"date_taken":"2007-02-22 23:54:56","date_granularity":"0"},"geometry":{"type":"Point","coordinates":[-64.718549,18.366459]}},{"type":"Feature","properties":{"park":"Virgin_Islands_National_Park","id":"2222234830","title":"Guard House Ruins","accuracy":15,"date_taken":"2007-02-22 23:39:41","date_granularity":"0"},"geometry":{"type":"Point","coordinates":[-64.720265,18.36708]}},{"type":"Feature","properties":{"park":"Virgin_Islands_National_Park","id":"33582770971","title":"Sugar Plantation Tank Well","accuracy":16,"date_taken":"2008-01-21 15:02:53","date_granularity":"0"},"geometry":{"type":"Point","coordinates":[-64.72975,18.362845]}},{"type":"Feature","properties":{"park":"Virgin_Islands_National_Park","id":"33582769211","title":"Annaberg Sugar Plantation Ruins II","accuracy":16,"date_taken":"2008-01-21 15:00:40","date_granularity":"0"},"geometry":{"type":"Point","coordinates":[-64.729879,18.362876]}},{"type":"Feature","properties":{"park":"Virgin_Islands_National_Park","id":"33711964795","title":"Annaberg Sugar Plantation Ruins I","accuracy":16,"date_taken":"2008-01-21 14:57:14","date_granularity":"0"},"geometry":{"type":"Point","coordinates":[-64.729997,18.363161]}},{"type":"Feature","properties":{"park":"Virgin_Islands_National_Park","id":"2207432742","title":"Leinster Bay","accuracy":16,"date_taken":"2007-11-09 02:36:09","date_granularity":"0"},"geometry":{"type":"Point","coordinates":[-64.729734,18.362982]}},{"type":"Feature","properties":{"park":"Virgin_Islands_National_Park","id":"2206641201","title":"Annaberg Sugar Plantation","accuracy":16,"date_taken":"2007-11-09 02:35:52","date_granularity":"0"},"geometry":{"type":"Point","coordinates":[-64.729734,18.362982]}},{"type":"Feature","properties":{"park":"Virgin_Islands_National_Park","id":"2207429618","title":"Annaberg Sugar Plantation","accuracy":16,"date_taken":"2007-11-09 02:35:45","date_granularity":"0"},"geometry":{"type":"Point","coordinates":[-64.729734,18.362982]}},{"type":"Feature","properties":{"park":"Virgin_Islands_National_Park","id":"2206637889","title":"Annaberg Sugar Plantation","accuracy":16,"date_taken":"2007-11-09 02:35:30","date_granularity":"0"},"geometry":{"type":"Point","coordinates":[-64.729734,18.362982]}},{"type":"Feature","properties":{"park":"Virgin_Islands_National_Park","id":"2207426542","title":"Annaberg Sugar Plantation","accuracy":16,"date_taken":"2007-11-09 02:34:36","date_granularity":"0"},"geometry":{"type":"Point","coordinates":[-64.729734,18.362982]}},{"type":"Feature","properties":{"park":"Virgin_Islands_National_Park","id":"2144442372","title":"Stingray","accuracy":16,"date_taken":"2007-12-01 00:00:00","date_granularity":"4"},"geometry":{"type":"Point","coordinates":[-64.721907,18.365736]}},{"type":"Feature","properties":{"park":"Virgin_Islands_National_Park","id":"2143622949","title":"Sea Turtle","accuracy":16,"date_taken":"2007-12-01 00:00:00","date_granularity":"4"},"geometry":{"type":"Point","coordinates":[-64.721682,18.366322]}},{"type":"Feature","properties":{"park":"Virgin_Islands_National_Park","id":"2144415880","title":"Sea Turtle","accuracy":16,"date_taken":"2007-12-01 00:00:00","date_granularity":"4"},"geometry":{"type":"Point","coordinates":[-64.721682,18.366322]}},{"type":"Feature","properties":{"park":"Virgin_Islands_National_Park","id":"2144415730","title":"Sea Turtle Close Up","accuracy":16,"date_taken":"2007-12-01 00:00:00","date_granularity":"4"},"geometry":{"type":"Point","coordinates":[-64.721682,18.366322]}},{"type":"Feature","properties":{"park":"Virgin_Islands_National_Park","id":"2144415598","title":"Sea Turtle","accuracy":16,"date_taken":"2007-12-01 00:00:00","date_granularity":"4"},"geometry":{"type":"Point","coordinates":[-64.721682,18.366322]}},{"type":"Feature","properties":{"park":"Virgin_Islands_National_Park","id":"2044478036","title":"Annaberg Sugar Plantation Ruins","accuracy":16,"date_taken":"2007-06-27 22:38:41","date_granularity":"0"},"geometry":{"type":"Point","coordinates":[-64.729557,18.362946]}},{"type":"Feature","properties":{"park":"Virgin_Islands_National_Park","id":"543378821","title":"IMG_4377","accuracy":16,"date_taken":"2007-05-07 16:22:14","date_granularity":"0"},"geometry":{"type":"Point","coordinates":[-64.742833,18.361073]}},{"type":"Feature","properties":{"park":"Virgin_Islands_National_Park","id":"543367303","title":"IMG_4361","accuracy":16,"date_taken":"2007-05-07 13:54:58","date_granularity":"0"},"geometry":{"type":"Point","coordinates":[-64.734229,18.363476]}},{"type":"Feature","properties":{"park":"Virgin_Islands_National_Park","id":"543365471","title":"IMG_4360","accuracy":16,"date_taken":"2007-05-07 13:43:16","date_granularity":"0"},"geometry":{"type":"Point","coordinates":[-64.729841,18.363073]}},{"type":"Feature","properties":{"park":"Virgin_Islands_National_Park","id":"543363619","title":"IMG_4358","accuracy":16,"date_taken":"2007-05-07 13:41:21","date_granularity":"0"},"geometry":{"type":"Point","coordinates":[-64.729841,18.363073]}},{"type":"Feature","properties":{"park":"Virgin_Islands_National_Park","id":"543360737","title":"IMG_4356","accuracy":16,"date_taken":"2007-05-07 13:37:56","date_granularity":"0"},"geometry":{"type":"Point","coordinates":[-64.729841,18.363073]}},{"type":"Feature","properties":{"park":"Virgin_Islands_National_Park","id":"543259300","title":"IMG_4355","accuracy":16,"date_taken":"2007-05-07 13:37:40","date_granularity":"0"},"geometry":{"type":"Point","coordinates":[-64.729841,18.363073]}},{"type":"Feature","properties":{"park":"Virgin_Islands_National_Park","id":"543258224","title":"IMG_4354","accuracy":16,"date_taken":"2007-05-07 13:37:28","date_granularity":"0"},"geometry":{"type":"Point","coordinates":[-64.729841,18.363073]}},{"type":"Feature","properties":{"park":"Virgin_Islands_National_Park","id":"543257948","title":"IMG_4353","accuracy":16,"date_taken":"2007-05-07 13:36:11","date_granularity":"0"},"geometry":{"type":"Point","coordinates":[-64.729841,18.363073]}},{"type":"Feature","properties":{"park":"Virgin_Islands_National_Park","id":"543256932","title":"IMG_4351","accuracy":16,"date_taken":"2007-05-07 13:35:20","date_granularity":"0"},"geometry":{"type":"Point","coordinates":[-64.729841,18.363073]}},{"type":"Feature","properties":{"park":"Virgin_Islands_National_Park","id":"543355745","title":"IMG_4350","accuracy":16,"date_taken":"2007-05-07 13:33:05","date_granularity":"0"},"geometry":{"type":"Point","coordinates":[-64.729841,18.363073]}},{"type":"Feature","properties":{"park":"Virgin_Islands_National_Park","id":"543352603","title":"IMG_4348","accuracy":16,"date_taken":"2007-05-07 13:00:01","date_granularity":"0"},"geometry":{"type":"Point","coordinates":[-64.721247,18.365461]}},{"type":"Feature","properties":{"park":"Virgin_Islands_National_Park","id":"543351983","title":"IMG_4347","accuracy":16,"date_taken":"2007-05-07 12:57:43","date_granularity":"0"},"geometry":{"type":"Point","coordinates":[-64.721247,18.365461]}},{"type":"Feature","properties":{"park":"Virgin_Islands_National_Park","id":"543351727","title":"IMG_4346","accuracy":16,"date_taken":"2007-05-07 12:57:33","date_granularity":"0"},"geometry":{"type":"Point","coordinates":[-64.721247,18.365461]}},{"type":"Feature","properties":{"park":"Virgin_Islands_National_Park","id":"543250250","title":"IMG_4345","accuracy":16,"date_taken":"2007-05-07 12:48:40","date_granularity":"0"},"geometry":{"type":"Point","coordinates":[-64.718983,18.364871]}},{"type":"Feature","properties":{"park":"Virgin_Islands_National_Park","id":"543348739","title":"IMG_4344","accuracy":16,"date_taken":"2007-05-07 12:48:26","date_granularity":"0"},"geometry":{"type":"Point","coordinates":[-64.718983,18.364871]}},{"type":"Feature","properties":{"park":"Virgin_Islands_National_Park","id":"543346901","title":"IMG_4343","accuracy":16,"date_taken":"2007-05-07 12:45:51","date_granularity":"0"},"geometry":{"type":"Point","coordinates":[-64.718983,18.364871]}},{"type":"Feature","properties":{"park":"Virgin_Islands_National_Park","id":"543245396","title":"IMG_4342","accuracy":16,"date_taken":"2007-05-07 12:45:14","date_granularity":"0"},"geometry":{"type":"Point","coordinates":[-64.718983,18.364871]}},{"type":"Feature","properties":{"park":"Virgin_Islands_National_Park","id":"543241948","title":"IMG_4339","accuracy":16,"date_taken":"2007-05-07 12:23:40","date_granularity":"0"},"geometry":{"type":"Point","coordinates":[-64.718983,18.364871]}},{"type":"Feature","properties":{"park":"Virgin_Islands_National_Park","id":"543239764","title":"IMG_4337","accuracy":16,"date_taken":"2007-05-07 12:16:37","date_granularity":"0"},"geometry":{"type":"Point","coordinates":[-64.721301,18.362554]}},{"type":"Feature","properties":{"park":"Virgin_Islands_National_Park","id":"543340045","title":"IMG_4336","accuracy":16,"date_taken":"2007-05-07 12:16:25","date_granularity":"0"},"geometry":{"type":"Point","coordinates":[-64.721301,18.362554]}},{"type":"Feature","properties":{"park":"Virgin_Islands_National_Park","id":"543235222","title":"IMG_4333","accuracy":16,"date_taken":"2007-05-07 11:49:16","date_granularity":"0"},"geometry":{"type":"Point","coordinates":[-64.736804,18.36428]}},{"type":"Feature","properties":{"park":"Virgin_Islands_National_Park","id":"543226092","title":"IMG_4321","accuracy":16,"date_taken":"2007-05-07 09:56:11","date_granularity":"0"},"geometry":{"type":"Point","coordinates":[-64.742833,18.361073]}},{"type":"Feature","properties":{"park":"Virgin_Islands_National_Park","id":"543224292","title":"IMG_4319","accuracy":16,"date_taken":"2007-05-07 09:55:22","date_granularity":"0"},"geometry":{"type":"Point","coordinates":[-64.742833,18.361073]}},{"type":"Feature","properties":{"park":"Virgin_Islands_National_Park","id":"542235434","title":"IMG_4311","accuracy":16,"date_taken":"2007-05-07 08:49:00","date_granularity":"0"},"geometry":{"type":"Point","coordinates":[-64.742329,18.365782]}},{"type":"Feature","properties":{"park":"Virgin_Islands_National_Park","id":"542233268","title":"IMG_4310","accuracy":16,"date_taken":"2007-05-07 08:47:03","date_granularity":"0"},"geometry":{"type":"Point","coordinates":[-64.742329,18.365782]}},{"type":"Feature","properties":{"park":"Virgin_Islands_National_Park","id":"542342149","title":"IMG_4309","accuracy":16,"date_taken":"2007-05-07 08:46:48","date_granularity":"0"},"geometry":{"type":"Point","coordinates":[-64.742329,18.365782]}},{"type":"Feature","properties":{"park":"Virgin_Islands_National_Park","id":"542341333","title":"IMG_4308","accuracy":16,"date_taken":"2007-05-07 08:42:47","date_granularity":"0"},"geometry":{"type":"Point","coordinates":[-64.740377,18.363832]}},{"type":"Feature","properties":{"park":"Virgin_Islands_National_Park","id":"542230780","title":"IMG_4306","accuracy":16,"date_taken":"2007-05-07 08:41:04","date_granularity":"0"},"geometry":{"type":"Point","coordinates":[-64.740377,18.363832]}},{"type":"Feature","properties":{"park":"Virgin_Islands_National_Park","id":"542230012","title":"IMG_4305","accuracy":16,"date_taken":"2007-05-07 08:40:41","date_granularity":"0"},"geometry":{"type":"Point","coordinates":[-64.740377,18.363832]}},{"type":"Feature","properties":{"park":"Virgin_Islands_National_Park","id":"542338351","title":"IMG_4304","accuracy":16,"date_taken":"2007-05-07 08:30:13","date_granularity":"0"},"geometry":{"type":"Point","coordinates":[-64.742833,18.361073]}},{"type":"Feature","properties":{"park":"Virgin_Islands_National_Park","id":"542226442","title":"IMG_4297","accuracy":16,"date_taken":"2007-05-06 18:55:20","date_granularity":"0"},"geometry":{"type":"Point","coordinates":[-64.742833,18.361073]}},{"type":"Feature","properties":{"park":"Virgin_Islands_National_Park","id":"542226336","title":"IMG_4296","accuracy":16,"date_taken":"2007-05-06 18:55:04","date_granularity":"0"},"geometry":{"type":"Point","coordinates":[-64.742833,18.361073]}},{"type":"Feature","properties":{"park":"Virgin_Islands_National_Park","id":"542334843","title":"IMG_4295","accuracy":16,"date_taken":"2007-05-06 18:54:48","date_granularity":"0"},"geometry":{"type":"Point","coordinates":[-64.742833,18.361073]}},{"type":"Feature","properties":{"park":"Virgin_Islands_National_Park","id":"542224818","title":"IMG_4294","accuracy":16,"date_taken":"2007-05-06 18:54:31","date_granularity":"0"},"geometry":{"type":"Point","coordinates":[-64.742833,18.361073]}},{"type":"Feature","properties":{"park":"Virgin_Islands_National_Park","id":"542224564","title":"IMG_4293","accuracy":16,"date_taken":"2007-05-06 18:54:05","date_granularity":"0"},"geometry":{"type":"Point","coordinates":[-64.742833,18.361073]}},{"type":"Feature","properties":{"park":"Virgin_Islands_National_Park","id":"542224348","title":"IMG_4292","accuracy":16,"date_taken":"2007-05-06 17:57:26","date_granularity":"0"},"geometry":{"type":"Point","coordinates":[-64.742833,18.361073]}},{"type":"Feature","properties":{"park":"Virgin_Islands_National_Park","id":"542224098","title":"IMG_4291","accuracy":16,"date_taken":"2007-05-06 17:57:09","date_granularity":"0"},"geometry":{"type":"Point","coordinates":[-64.742833,18.361073]}},{"type":"Feature","properties":{"park":"Virgin_Islands_National_Park","id":"542223866","title":"IMG_4290","accuracy":16,"date_taken":"2007-05-06 17:56:40","date_granularity":"0"},"geometry":{"type":"Point","coordinates":[-64.742833,18.361073]}},{"type":"Feature","properties":{"park":"Virgin_Islands_National_Park","id":"500132471","title":"114-1418_IMG.JPG","accuracy":15,"date_taken":"2004-04-07 06:12:37","date_granularity":"0"},"geometry":{"type":"Point","coordinates":[-64.729846,18.362946]}},{"type":"Feature","properties":{"park":"Virgin_Islands_National_Park","id":"454747751","title":"St. John 07 257","accuracy":15,"date_taken":"2007-03-16 14:25:28","date_granularity":"0"},"geometry":{"type":"Point","coordinates":[-64.729996,18.363099]}},{"type":"Feature","properties":{"park":"Virgin_Islands_National_Park","id":"454732304","title":"St. John 07 254","accuracy":15,"date_taken":"2007-03-16 14:24:41","date_granularity":"0"},"geometry":{"type":"Point","coordinates":[-64.729996,18.363099]}},{"type":"Feature","properties":{"park":"Virgin_Islands_National_Park","id":"454732066","title":"St. John 07 252","accuracy":15,"date_taken":"2007-03-16 14:23:07","date_granularity":"0"},"geometry":{"type":"Point","coordinates":[-64.729996,18.363099]}},{"type":"Feature","properties":{"park":"Virgin_Islands_National_Park","id":"454731662","title":"St. John 07 250","accuracy":15,"date_taken":"2007-03-16 14:21:50","date_granularity":"0"},"geometry":{"type":"Point","coordinates":[-64.729996,18.363099]}},{"type":"Feature","properties":{"park":"Virgin_Islands_National_Park","id":"454731368","title":"St. John 07 249","accuracy":15,"date_taken":"2007-03-16 14:21:35","date_granularity":"0"},"geometry":{"type":"Point","coordinates":[-64.729996,18.363099]}},{"type":"Feature","properties":{"park":"Virgin_Islands_National_Park","id":"454731102","title":"St. John 07 247","accuracy":15,"date_taken":"2007-03-16 14:20:21","date_granularity":"0"},"geometry":{"type":"Point","coordinates":[-64.729996,18.363099]}},{"type":"Feature","properties":{"park":"Virgin_Islands_National_Park","id":"454730930","title":"St. John 07 246","accuracy":15,"date_taken":"2007-03-16 14:19:44","date_granularity":"0"},"geometry":{"type":"Point","coordinates":[-64.729996,18.363099]}},{"type":"Feature","properties":{"park":"Virgin_Islands_National_Park","id":"454744793","title":"St. John 07 241","accuracy":15,"date_taken":"2007-03-16 14:18:02","date_granularity":"0"},"geometry":{"type":"Point","coordinates":[-64.729996,18.363099]}},{"type":"Feature","properties":{"park":"Virgin_Islands_National_Park","id":"454729924","title":"St. John 07 239","accuracy":15,"date_taken":"2007-03-16 14:17:56","date_granularity":"0"},"geometry":{"type":"Point","coordinates":[-64.729996,18.363099]}},{"type":"Feature","properties":{"park":"Virgin_Islands_National_Park","id":"454744339","title":"St. John 07 237","accuracy":15,"date_taken":"2007-03-16 14:14:03","date_granularity":"0"},"geometry":{"type":"Point","coordinates":[-64.729996,18.363099]}},{"type":"Feature","properties":{"park":"Virgin_Islands_National_Park","id":"454743305","title":"St. John 07 232","accuracy":15,"date_taken":"2007-03-16 14:07:37","date_granularity":"0"},"geometry":{"type":"Point","coordinates":[-64.729996,18.363099]}},{"type":"Feature","properties":{"park":"Virgin_Islands_National_Park","id":"454728532","title":"St. John 07 231","accuracy":15,"date_taken":"2007-03-16 14:05:59","date_granularity":"0"},"geometry":{"type":"Point","coordinates":[-64.729996,18.363099]}},{"type":"Feature","properties":{"park":"Virgin_Islands_National_Park","id":"454728388","title":"St. John 07 230","accuracy":15,"date_taken":"2007-03-16 13:47:05","date_granularity":"0"},"geometry":{"type":"Point","coordinates":[-64.729996,18.363099]}},{"type":"Feature","properties":{"park":"Virgin_Islands_National_Park","id":"454742879","title":"St. John 07 229","accuracy":15,"date_taken":"2007-03-16 13:39:21","date_granularity":"0"},"geometry":{"type":"Point","coordinates":[-64.729996,18.363099]}},{"type":"Feature","properties":{"park":"Virgin_Islands_National_Park","id":"454727988","title":"St. John 07 227","accuracy":15,"date_taken":"2007-03-16 13:32:12","date_granularity":"0"},"geometry":{"type":"Point","coordinates":[-64.729996,18.363099]}},{"type":"Feature","properties":{"park":"Virgin_Islands_National_Park","id":"454742523","title":"St. John 07 226","accuracy":15,"date_taken":"2007-03-16 13:32:06","date_granularity":"0"},"geometry":{"type":"Point","coordinates":[-64.729996,18.363099]}},{"type":"Feature","properties":{"park":"Virgin_Islands_National_Park","id":"454742325","title":"St. John 07 224","accuracy":15,"date_taken":"2007-03-16 13:01:25","date_granularity":"0"},"geometry":{"type":"Point","coordinates":[-64.729996,18.363099]}},{"type":"Feature","properties":{"park":"Virgin_Islands_National_Park","id":"454742153","title":"St. John 07 222","accuracy":15,"date_taken":"2007-03-16 12:58:50","date_granularity":"0"},"geometry":{"type":"Point","coordinates":[-64.729996,18.363099]}},{"type":"Feature","properties":{"park":"Virgin_Islands_National_Park","id":"454727278","title":"St. John 07 220","accuracy":15,"date_taken":"2007-03-16 12:58:31","date_granularity":"0"},"geometry":{"type":"Point","coordinates":[-64.729996,18.363099]}},{"type":"Feature","properties":{"park":"Virgin_Islands_National_Park","id":"454741643","title":"St. John 07 218","accuracy":15,"date_taken":"2007-03-16 12:55:10","date_granularity":"0"},"geometry":{"type":"Point","coordinates":[-64.729996,18.363099]}},{"type":"Feature","properties":{"park":"Virgin_Islands_National_Park","id":"454726894","title":"St. John 07 217","accuracy":15,"date_taken":"2007-03-16 12:54:46","date_granularity":"0"},"geometry":{"type":"Point","coordinates":[-64.729996,18.363099]}},{"type":"Feature","properties":{"park":"Virgin_Islands_National_Park","id":"454726638","title":"St. John 07 215","accuracy":15,"date_taken":"2007-03-16 12:52:07","date_granularity":"0"},"geometry":{"type":"Point","coordinates":[-64.729996,18.363099]}},{"type":"Feature","properties":{"park":"Virgin_Islands_National_Park","id":"454741137","title":"St. John 07 214","accuracy":15,"date_taken":"2007-03-16 12:51:06","date_granularity":"0"},"geometry":{"type":"Point","coordinates":[-64.729996,18.363099]}},{"type":"Feature","properties":{"park":"Virgin_Islands_National_Park","id":"454740973","title":"St. John 07 212","accuracy":15,"date_taken":"2007-03-16 12:50:57","date_granularity":"0"},"geometry":{"type":"Point","coordinates":[-64.729996,18.363099]}},{"type":"Feature","properties":{"park":"Virgin_Islands_National_Park","id":"454740797","title":"St. John 07 210","accuracy":15,"date_taken":"2007-03-16 12:50:53","date_granularity":"0"},"geometry":{"type":"Point","coordinates":[-64.729996,18.363099]}},{"type":"Feature","properties":{"park":"Virgin_Islands_National_Park","id":"454740559","title":"St. John 07 208","accuracy":15,"date_taken":"2007-03-16 12:50:20","date_granularity":"0"},"geometry":{"type":"Point","coordinates":[-64.729996,18.363099]}},{"type":"Feature","properties":{"park":"Virgin_Islands_National_Park","id":"454725606","title":"St. John 07 205","accuracy":15,"date_taken":"2007-03-16 12:50:18","date_granularity":"0"},"geometry":{"type":"Point","coordinates":[-64.729996,18.363099]}},{"type":"Feature","properties":{"park":"Virgin_Islands_National_Park","id":"454725388","title":"St. John 07 203","accuracy":15,"date_taken":"2007-03-16 12:50:17","date_granularity":"0"},"geometry":{"type":"Point","coordinates":[-64.729996,18.363099]}},{"type":"Feature","properties":{"park":"Virgin_Islands_National_Park","id":"454725240","title":"St. John 07 202","accuracy":15,"date_taken":"2007-03-16 12:50:17","date_granularity":"0"},"geometry":{"type":"Point","coordinates":[-64.729996,18.363099]}},{"type":"Feature","properties":{"park":"Virgin_Islands_National_Park","id":"454739569","title":"St. John 07 201","accuracy":15,"date_taken":"2007-03-16 12:50:16","date_granularity":"0"},"geometry":{"type":"Point","coordinates":[-64.729996,18.363099]}},{"type":"Feature","properties":{"park":"Virgin_Islands_National_Park","id":"454739447","title":"St. John 07 200","accuracy":15,"date_taken":"2007-03-16 12:50:16","date_granularity":"0"},"geometry":{"type":"Point","coordinates":[-64.729996,18.363099]}},{"type":"Feature","properties":{"park":"Virgin_Islands_National_Park","id":"454724586","title":"St. John 07 198","accuracy":15,"date_taken":"2007-03-16 12:50:15","date_granularity":"0"},"geometry":{"type":"Point","coordinates":[-64.729996,18.363099]}},{"type":"Feature","properties":{"park":"Virgin_Islands_National_Park","id":"454738871","title":"St. John 07 197","accuracy":15,"date_taken":"2007-03-16 12:50:14","date_granularity":"0"},"geometry":{"type":"Point","coordinates":[-64.729996,18.363099]}},{"type":"Feature","properties":{"park":"Virgin_Islands_National_Park","id":"454724176","title":"St. John 07 196","accuracy":15,"date_taken":"2007-03-16 12:50:14","date_granularity":"0"},"geometry":{"type":"Point","coordinates":[-64.729996,18.363099]}},{"type":"Feature","properties":{"park":"Virgin_Islands_National_Park","id":"454738487","title":"St. John 07 194","accuracy":15,"date_taken":"2007-03-16 12:50:13","date_granularity":"0"},"geometry":{"type":"Point","coordinates":[-64.729996,18.363099]}},{"type":"Feature","properties":{"park":"Virgin_Islands_National_Park","id":"454738347","title":"St. John 07 192","accuracy":15,"date_taken":"2007-03-16 12:50:12","date_granularity":"0"},"geometry":{"type":"Point","coordinates":[-64.729996,18.363099]}},{"type":"Feature","properties":{"park":"Virgin_Islands_National_Park","id":"454738265","title":"St. John 07 191","accuracy":15,"date_taken":"2007-03-16 12:50:11","date_granularity":"0"},"geometry":{"type":"Point","coordinates":[-64.729996,18.363099]}},{"type":"Feature","properties":{"park":"Virgin_Islands_National_Park","id":"454738187","title":"St. John 07 190","accuracy":15,"date_taken":"2007-03-16 12:50:11","date_granularity":"0"},"geometry":{"type":"Point","coordinates":[-64.729996,18.363099]}},{"type":"Feature","properties":{"park":"Virgin_Islands_National_Park","id":"454737907","title":"St. John 07 187","accuracy":15,"date_taken":"2007-03-16 12:50:09","date_granularity":"0"},"geometry":{"type":"Point","coordinates":[-64.729996,18.363099]}},{"type":"Feature","properties":{"park":"Virgin_Islands_National_Park","id":"454723024","title":"St. John 07 184","accuracy":15,"date_taken":"2007-03-16 12:50:08","date_granularity":"0"},"geometry":{"type":"Point","coordinates":[-64.729996,18.363099]}},{"type":"Feature","properties":{"park":"Virgin_Islands_National_Park","id":"454722892","title":"St. John 07 183","accuracy":15,"date_taken":"2007-03-16 12:49:49","date_granularity":"0"},"geometry":{"type":"Point","coordinates":[-64.729996,18.363099]}},{"type":"Feature","properties":{"park":"Virgin_Islands_National_Park","id":"454722798","title":"St. John 07 182","accuracy":15,"date_taken":"2007-03-16 12:49:24","date_granularity":"0"},"geometry":{"type":"Point","coordinates":[-64.729996,18.363099]}},{"type":"Feature","properties":{"park":"Virgin_Islands_National_Park","id":"454722670","title":"St. John 07 181","accuracy":15,"date_taken":"2007-03-16 12:48:50","date_granularity":"0"},"geometry":{"type":"Point","coordinates":[-64.729996,18.363099]}},{"type":"Feature","properties":{"park":"Virgin_Islands_National_Park","id":"454736869","title":"St. John 07 180","accuracy":15,"date_taken":"2007-03-16 12:48:29","date_granularity":"0"},"geometry":{"type":"Point","coordinates":[-64.729996,18.363099]}},{"type":"Feature","properties":{"park":"Virgin_Islands_National_Park","id":"454736805","title":"St. John 07 179","accuracy":15,"date_taken":"2007-03-16 12:48:18","date_granularity":"0"},"geometry":{"type":"Point","coordinates":[-64.729996,18.363099]}},{"type":"Feature","properties":{"park":"Virgin_Islands_National_Park","id":"454721844","title":"St. John 07 176","accuracy":15,"date_taken":"2007-03-16 12:47:49","date_granularity":"0"},"geometry":{"type":"Point","coordinates":[-64.729996,18.363099]}},{"type":"Feature","properties":{"park":"Virgin_Islands_National_Park","id":"454736061","title":"St. John 07 175","accuracy":15,"date_taken":"2007-03-16 12:47:15","date_granularity":"0"},"geometry":{"type":"Point","coordinates":[-64.729996,18.363099]}},{"type":"Feature","properties":{"park":"Virgin_Islands_National_Park","id":"454735985","title":"St. John 07 174","accuracy":15,"date_taken":"2007-03-16 12:47:08","date_granularity":"0"},"geometry":{"type":"Point","coordinates":[-64.729996,18.363099]}},{"type":"Feature","properties":{"park":"Virgin_Islands_National_Park","id":"454721492","title":"St. John 07 173","accuracy":15,"date_taken":"2007-03-16 12:46:44","date_granularity":"0"},"geometry":{"type":"Point","coordinates":[-64.729996,18.363099]}},{"type":"Feature","properties":{"park":"Virgin_Islands_National_Park","id":"454721376","title":"St. John 07 172","accuracy":15,"date_taken":"2007-03-16 12:44:50","date_granularity":"0"},"geometry":{"type":"Point","coordinates":[-64.729996,18.363099]}},{"type":"Feature","properties":{"park":"Virgin_Islands_National_Park","id":"454721224","title":"St. John 07 171","accuracy":15,"date_taken":"2007-03-16 12:39:17","date_granularity":"0"},"geometry":{"type":"Point","coordinates":[-64.729996,18.363099]}},{"type":"Feature","properties":{"park":"Virgin_Islands_National_Park","id":"454735357","title":"St. John 07 170","accuracy":15,"date_taken":"2007-03-16 12:39:11","date_granularity":"0"},"geometry":{"type":"Point","coordinates":[-64.729996,18.363099]}},{"type":"Feature","properties":{"park":"Virgin_Islands_National_Park","id":"454734903","title":"St. John 07 168","accuracy":15,"date_taken":"2007-03-16 12:39:07","date_granularity":"0"},"geometry":{"type":"Point","coordinates":[-64.729996,18.363099]}},{"type":"Feature","properties":{"park":"Virgin_Islands_National_Park","id":"454720388","title":"St. John 07 167","accuracy":15,"date_taken":"2007-03-16 12:39:06","date_granularity":"0"},"geometry":{"type":"Point","coordinates":[-64.729996,18.363099]}},{"type":"Feature","properties":{"park":"Virgin_Islands_National_Park","id":"454734285","title":"St. John 07 164","accuracy":15,"date_taken":"2007-03-16 12:39:05","date_granularity":"0"},"geometry":{"type":"Point","coordinates":[-64.729996,18.363099]}},{"type":"Feature","properties":{"park":"Virgin_Islands_National_Park","id":"454719758","title":"St. John 07 163","accuracy":15,"date_taken":"2007-03-16 12:35:17","date_granularity":"0"},"geometry":{"type":"Point","coordinates":[-64.729996,18.363099]}},{"type":"Feature","properties":{"park":"Virgin_Islands_National_Park","id":"454719338","title":"St. John 07 161","accuracy":15,"date_taken":"2007-03-16 12:34:17","date_granularity":"0"},"geometry":{"type":"Point","coordinates":[-64.729996,18.363099]}},{"type":"Feature","properties":{"park":"Virgin_Islands_National_Park","id":"454733229","title":"St. John 07 158","accuracy":15,"date_taken":"2007-03-16 12:28:38","date_granularity":"0"},"geometry":{"type":"Point","coordinates":[-64.729996,18.363099]}},{"type":"Feature","properties":{"park":"Virgin_Islands_National_Park","id":"454718852","title":"St. John 07 157","accuracy":15,"date_taken":"2007-03-16 12:28:27","date_granularity":"0"},"geometry":{"type":"Point","coordinates":[-64.729996,18.363099]}},{"type":"Feature","properties":{"park":"Virgin_Islands_National_Park","id":"454718676","title":"St. John 07 156","accuracy":15,"date_taken":"2007-03-16 12:28:13","date_granularity":"0"},"geometry":{"type":"Point","coordinates":[-64.729996,18.363099]}},{"type":"Feature","properties":{"park":"Virgin_Islands_National_Park","id":"454718490","title":"St. John 07 155","accuracy":15,"date_taken":"2007-03-16 12:28:03","date_granularity":"0"},"geometry":{"type":"Point","coordinates":[-64.729996,18.363099]}},{"type":"Feature","properties":{"park":"Virgin_Islands_National_Park","id":"454718374","title":"St. John 07 154","accuracy":15,"date_taken":"2007-03-16 12:26:11","date_granularity":"0"},"geometry":{"type":"Point","coordinates":[-64.729996,18.363099]}},{"type":"Feature","properties":{"park":"Virgin_Islands_National_Park","id":"454718126","title":"St. John 07 153","accuracy":15,"date_taken":"2007-03-16 12:25:51","date_granularity":"0"},"geometry":{"type":"Point","coordinates":[-64.729996,18.363099]}},{"type":"Feature","properties":{"park":"Virgin_Islands_National_Park","id":"454717700","title":"St. John 07 151","accuracy":15,"date_taken":"2007-03-16 12:19:55","date_granularity":"0"},"geometry":{"type":"Point","coordinates":[-64.729996,18.363099]}},{"type":"Feature","properties":{"park":"Virgin_Islands_National_Park","id":"454717556","title":"St. John 07 150","accuracy":15,"date_taken":"2007-03-16 12:19:43","date_granularity":"0"},"geometry":{"type":"Point","coordinates":[-64.729996,18.363099]}},{"type":"Feature","properties":{"park":"Virgin_Islands_National_Park","id":"454717410","title":"St. John 07 149","accuracy":15,"date_taken":"2007-03-16 12:19:22","date_granularity":"0"},"geometry":{"type":"Point","coordinates":[-64.729996,18.363099]}},{"type":"Feature","properties":{"park":"Virgin_Islands_National_Park","id":"454717236","title":"St. John 07 148","accuracy":15,"date_taken":"2007-03-16 12:09:43","date_granularity":"0"},"geometry":{"type":"Point","coordinates":[-64.729996,18.363099]}},{"type":"Feature","properties":{"park":"Virgin_Islands_National_Park","id":"454731503","title":"St. John 07 147","accuracy":15,"date_taken":"2007-03-16 12:09:42","date_granularity":"0"},"geometry":{"type":"Point","coordinates":[-64.729996,18.363099]}},{"type":"Feature","properties":{"park":"Virgin_Islands_National_Park","id":"454716986","title":"St. John 07 146","accuracy":15,"date_taken":"2007-03-16 12:09:42","date_granularity":"0"},"geometry":{"type":"Point","coordinates":[-64.729996,18.363099]}},{"type":"Feature","properties":{"park":"Virgin_Islands_National_Park","id":"454731319","title":"St. John 07 145","accuracy":15,"date_taken":"2007-03-16 12:09:23","date_granularity":"0"},"geometry":{"type":"Point","coordinates":[-64.729996,18.363099]}},{"type":"Feature","properties":{"park":"Virgin_Islands_National_Park","id":"454716814","title":"St. John 07 144","accuracy":15,"date_taken":"2007-03-16 12:09:23","date_granularity":"0"},"geometry":{"type":"Point","coordinates":[-64.729996,18.363099]}},{"type":"Feature","properties":{"park":"Virgin_Islands_National_Park","id":"454716708","title":"St. John 07 143","accuracy":15,"date_taken":"2007-03-16 12:07:48","date_granularity":"0"},"geometry":{"type":"Point","coordinates":[-64.729996,18.363099]}},{"type":"Feature","properties":{"park":"Virgin_Islands_National_Park","id":"454716246","title":"St. John 07 141","accuracy":15,"date_taken":"2007-03-16 12:07:47","date_granularity":"0"},"geometry":{"type":"Point","coordinates":[-64.729996,18.363099]}},{"type":"Feature","properties":{"park":"Virgin_Islands_National_Park","id":"454730587","title":"St. John 07 140","accuracy":15,"date_taken":"2007-03-16 12:07:26","date_granularity":"0"},"geometry":{"type":"Point","coordinates":[-64.729996,18.363099]}},{"type":"Feature","properties":{"park":"Virgin_Islands_National_Park","id":"454715846","title":"St. John 07 139","accuracy":15,"date_taken":"2007-03-16 12:07:26","date_granularity":"0"},"geometry":{"type":"Point","coordinates":[-64.729996,18.363099]}},{"type":"Feature","properties":{"park":"Virgin_Islands_National_Park","id":"454715374","title":"St. John 07 137","accuracy":15,"date_taken":"2007-03-16 12:07:25","date_granularity":"0"},"geometry":{"type":"Point","coordinates":[-64.729996,18.363099]}},{"type":"Feature","properties":{"park":"Virgin_Islands_National_Park","id":"454715034","title":"St. John 07 135","accuracy":15,"date_taken":"2007-03-16 12:07:24","date_granularity":"0"},"geometry":{"type":"Point","coordinates":[-64.729996,18.363099]}},{"type":"Feature","properties":{"park":"Virgin_Islands_National_Park","id":"454714678","title":"St. John 07 132","accuracy":15,"date_taken":"2007-03-16 12:05:52","date_granularity":"0"},"geometry":{"type":"Point","coordinates":[-64.729996,18.363099]}},{"type":"Feature","properties":{"park":"Virgin_Islands_National_Park","id":"454729031","title":"St. John 07 131","accuracy":15,"date_taken":"2007-03-16 12:05:52","date_granularity":"0"},"geometry":{"type":"Point","coordinates":[-64.729996,18.363099]}},{"type":"Feature","properties":{"park":"Virgin_Islands_National_Park","id":"454728897","title":"St. John 07 130","accuracy":15,"date_taken":"2007-03-16 12:04:24","date_granularity":"0"},"geometry":{"type":"Point","coordinates":[-64.729996,18.363099]}},{"type":"Feature","properties":{"park":"Virgin_Islands_National_Park","id":"454728779","title":"St. John 07 129","accuracy":15,"date_taken":"2007-03-16 12:04:23","date_granularity":"0"},"geometry":{"type":"Point","coordinates":[-64.729996,18.363099]}},{"type":"Feature","properties":{"park":"Virgin_Islands_National_Park","id":"454728547","title":"St. John 07 126","accuracy":15,"date_taken":"2007-03-16 12:04:01","date_granularity":"0"},"geometry":{"type":"Point","coordinates":[-64.729996,18.363099]}},{"type":"Feature","properties":{"park":"Virgin_Islands_National_Park","id":"454728471","title":"St. John 07 125","accuracy":15,"date_taken":"2007-03-16 12:04:00","date_granularity":"0"},"geometry":{"type":"Point","coordinates":[-64.729996,18.363099]}},{"type":"Feature","properties":{"park":"Virgin_Islands_National_Park","id":"454713578","title":"St. John 07 123","accuracy":15,"date_taken":"2007-03-16 12:03:59","date_granularity":"0"},"geometry":{"type":"Point","coordinates":[-64.729996,18.363099]}},{"type":"Feature","properties":{"park":"Virgin_Islands_National_Park","id":"454728201","title":"St. John 07 122","accuracy":15,"date_taken":"2007-03-16 12:03:59","date_granularity":"0"},"geometry":{"type":"Point","coordinates":[-64.729996,18.363099]}},{"type":"Feature","properties":{"park":"Virgin_Islands_National_Park","id":"454713462","title":"St. John 07 121","accuracy":15,"date_taken":"2007-03-16 12:03:58","date_granularity":"0"},"geometry":{"type":"Point","coordinates":[-64.729996,18.363099]}},{"type":"Feature","properties":{"park":"Virgin_Islands_National_Park","id":"454727773","title":"St. John 07 117","accuracy":15,"date_taken":"2007-03-16 12:03:57","date_granularity":"0"},"geometry":{"type":"Point","coordinates":[-64.729996,18.363099]}},{"type":"Feature","properties":{"park":"Virgin_Islands_National_Park","id":"454727623","title":"St. John 07 115","accuracy":15,"date_taken":"2007-03-16 12:03:24","date_granularity":"0"},"geometry":{"type":"Point","coordinates":[-64.729996,18.363099]}},{"type":"Feature","properties":{"park":"Virgin_Islands_National_Park","id":"454712798","title":"St. John 07 114","accuracy":15,"date_taken":"2007-03-16 12:03:13","date_granularity":"0"},"geometry":{"type":"Point","coordinates":[-64.729996,18.363099]}},{"type":"Feature","properties":{"park":"Virgin_Islands_National_Park","id":"454712676","title":"St. John 07 113","accuracy":15,"date_taken":"2007-03-16 12:03:06","date_granularity":"0"},"geometry":{"type":"Point","coordinates":[-64.729996,18.363099]}},{"type":"Feature","properties":{"park":"Virgin_Islands_National_Park","id":"454727289","title":"St. John 07 112","accuracy":15,"date_taken":"2007-03-16 10:16:15","date_granularity":"0"},"geometry":{"type":"Point","coordinates":[-64.729996,18.363099]}},{"type":"Feature","properties":{"park":"Virgin_Islands_National_Park","id":"454712422","title":"St. John 07 111","accuracy":15,"date_taken":"2007-03-16 10:15:12","date_granularity":"0"},"geometry":{"type":"Point","coordinates":[-64.729996,18.363099]}},{"type":"Feature","properties":{"park":"Virgin_Islands_National_Park","id":"454712298","title":"St. John 07 110","accuracy":15,"date_taken":"2007-03-16 10:14:50","date_granularity":"0"},"geometry":{"type":"Point","coordinates":[-64.729996,18.363099]}},{"type":"Feature","properties":{"park":"Virgin_Islands_National_Park","id":"454711974","title":"St. John 07 108","accuracy":15,"date_taken":"2007-03-16 10:14:07","date_granularity":"0"},"geometry":{"type":"Point","coordinates":[-64.729996,18.363099]}},{"type":"Feature","properties":{"park":"Virgin_Islands_National_Park","id":"454711442","title":"St. John 07 104","accuracy":15,"date_taken":"2007-03-16 10:10:07","date_granularity":"0"},"geometry":{"type":"Point","coordinates":[-64.729996,18.363099]}},{"type":"Feature","properties":{"park":"Virgin_Islands_National_Park","id":"454726119","title":"St. John 07 103","accuracy":15,"date_taken":"2007-03-16 09:54:09","date_granularity":"0"},"geometry":{"type":"Point","coordinates":[-64.729996,18.363099]}},{"type":"Feature","properties":{"park":"Virgin_Islands_National_Park","id":"454726021","title":"St. John 07 102","accuracy":15,"date_taken":"2007-03-16 09:52:28","date_granularity":"0"},"geometry":{"type":"Point","coordinates":[-64.729996,18.363099]}},{"type":"Feature","properties":{"park":"Virgin_Islands_National_Park","id":"454725895","title":"St. John 07 101","accuracy":15,"date_taken":"2007-03-16 09:52:04","date_granularity":"0"},"geometry":{"type":"Point","coordinates":[-64.729996,18.363099]}},{"type":"Feature","properties":{"park":"Virgin_Islands_National_Park","id":"454725809","title":"St. John 07 100","accuracy":15,"date_taken":"2007-03-16 09:51:10","date_granularity":"0"},"geometry":{"type":"Point","coordinates":[-64.729996,18.363099]}},{"type":"Feature","properties":{"park":"Virgin_Islands_National_Park","id":"454725729","title":"St. John 07 099","accuracy":15,"date_taken":"2007-03-16 09:51:01","date_granularity":"0"},"geometry":{"type":"Point","coordinates":[-64.729996,18.363099]}},{"type":"Feature","properties":{"park":"Virgin_Islands_National_Park","id":"454710754","title":"St. John 07 098","accuracy":15,"date_taken":"2007-03-16 09:44:53","date_granularity":"0"},"geometry":{"type":"Point","coordinates":[-64.729996,18.363099]}},{"type":"Feature","properties":{"park":"Virgin_Islands_National_Park","id":"454725533","title":"St. John 07 097","accuracy":15,"date_taken":"2007-03-16 09:44:42","date_granularity":"0"},"geometry":{"type":"Point","coordinates":[-64.729996,18.363099]}},{"type":"Feature","properties":{"park":"Virgin_Islands_National_Park","id":"454725429","title":"St. John 07 096","accuracy":15,"date_taken":"2007-03-16 09:44:33","date_granularity":"0"},"geometry":{"type":"Point","coordinates":[-64.729996,18.363099]}},{"type":"Feature","properties":{"park":"Virgin_Islands_National_Park","id":"454725327","title":"St. John 07 095","accuracy":15,"date_taken":"2007-03-16 09:43:25","date_granularity":"0"},"geometry":{"type":"Point","coordinates":[-64.729996,18.363099]}},{"type":"Feature","properties":{"park":"Virgin_Islands_National_Park","id":"454710318","title":"St. John 07 094","accuracy":15,"date_taken":"2007-03-16 09:43:13","date_granularity":"0"},"geometry":{"type":"Point","coordinates":[-64.729996,18.363099]}},{"type":"Feature","properties":{"park":"Virgin_Islands_National_Park","id":"454710142","title":"St. John 07 093","accuracy":15,"date_taken":"2007-03-16 09:42:58","date_granularity":"0"},"geometry":{"type":"Point","coordinates":[-64.729996,18.363099]}},{"type":"Feature","properties":{"park":"Virgin_Islands_National_Park","id":"454710030","title":"St. John 07 092","accuracy":15,"date_taken":"2007-03-16 09:42:41","date_granularity":"0"},"geometry":{"type":"Point","coordinates":[-64.729996,18.363099]}},{"type":"Feature","properties":{"park":"Virgin_Islands_National_Park","id":"454724853","title":"St. John 07 091","accuracy":15,"date_taken":"2007-03-16 09:41:42","date_granularity":"0"},"geometry":{"type":"Point","coordinates":[-64.729996,18.363099]}},{"type":"Feature","properties":{"park":"Virgin_Islands_National_Park","id":"454709790","title":"St. John 07 090","accuracy":15,"date_taken":"2007-03-16 09:41:19","date_granularity":"0"},"geometry":{"type":"Point","coordinates":[-64.729996,18.363099]}},{"type":"Feature","properties":{"park":"Virgin_Islands_National_Park","id":"454709486","title":"St. John 07 088","accuracy":15,"date_taken":"2007-03-16 09:39:48","date_granularity":"0"},"geometry":{"type":"Point","coordinates":[-64.729996,18.363099]}},{"type":"Feature","properties":{"park":"Virgin_Islands_National_Park","id":"454724235","title":"St. John 07 087","accuracy":15,"date_taken":"2007-03-16 09:39:07","date_granularity":"0"},"geometry":{"type":"Point","coordinates":[-64.729996,18.363099]}},{"type":"Feature","properties":{"park":"Virgin_Islands_National_Park","id":"454724127","title":"St. John 07 086","accuracy":15,"date_taken":"2007-03-16 09:37:58","date_granularity":"0"},"geometry":{"type":"Point","coordinates":[-64.729996,18.363099]}},{"type":"Feature","properties":{"park":"Virgin_Islands_National_Park","id":"454723993","title":"St. John 07 085","accuracy":15,"date_taken":"2007-03-16 09:37:40","date_granularity":"0"},"geometry":{"type":"Point","coordinates":[-64.729996,18.363099]}},{"type":"Feature","properties":{"park":"Virgin_Islands_National_Park","id":"454723833","title":"St. John 07 084","accuracy":15,"date_taken":"2007-03-16 09:37:14","date_granularity":"0"},"geometry":{"type":"Point","coordinates":[-64.729996,18.363099]}},{"type":"Feature","properties":{"park":"Virgin_Islands_National_Park","id":"454723611","title":"St. John 07 083","accuracy":15,"date_taken":"2007-03-16 09:37:04","date_granularity":"0"},"geometry":{"type":"Point","coordinates":[-64.729996,18.363099]}},{"type":"Feature","properties":{"park":"Virgin_Islands_National_Park","id":"454723363","title":"St. John 07 082","accuracy":15,"date_taken":"2007-03-16 09:36:44","date_granularity":"0"},"geometry":{"type":"Point","coordinates":[-64.729996,18.363099]}},{"type":"Feature","properties":{"park":"Virgin_Islands_National_Park","id":"454723211","title":"St. John 07 081","accuracy":15,"date_taken":"2007-03-16 09:36:18","date_granularity":"0"},"geometry":{"type":"Point","coordinates":[-64.729996,18.363099]}},{"type":"Feature","properties":{"park":"Virgin_Islands_National_Park","id":"454708142","title":"St. John 07 080","accuracy":15,"date_taken":"2007-03-16 09:36:14","date_granularity":"0"},"geometry":{"type":"Point","coordinates":[-64.729996,18.363099]}},{"type":"Feature","properties":{"park":"Virgin_Islands_National_Park","id":"413800096","title":"stjohn32.jpg","accuracy":15,"date_taken":"2007-03-07 09:41:36","date_granularity":"0"},"geometry":{"type":"Point","coordinates":[-64.721746,18.366215]}},{"type":"Feature","properties":{"park":"Virgin_Islands_National_Park","id":"402160065","title":"Nice socks","accuracy":16,"date_taken":"2007-02-12 15:14:28","date_granularity":"0"},"geometry":{"type":"Point","coordinates":[-64.721338,18.365426]}},{"type":"Feature","properties":{"park":"Virgin_Islands_National_Park","id":"402154067","title":"Blossoms","accuracy":16,"date_taken":"2007-02-12 13:46:17","date_granularity":"0"},"geometry":{"type":"Point","coordinates":[-64.729986,18.362946]}},{"type":"Feature","properties":{"park":"Virgin_Islands_National_Park","id":"402151461","title":"Shade","accuracy":16,"date_taken":"2007-02-12 13:42:59","date_granularity":"0"},"geometry":{"type":"Point","coordinates":[-64.729986,18.362946]}},{"type":"Feature","properties":{"park":"Virgin_Islands_National_Park","id":"402144657","title":"Brick, Coral, Stone","accuracy":16,"date_taken":"2007-02-12 13:37:50","date_granularity":"0"},"geometry":{"type":"Point","coordinates":[-64.729986,18.362946]}},{"type":"Feature","properties":{"park":"Virgin_Islands_National_Park","id":"402140875","title":"Windmill Ruin (1810-1830)","accuracy":16,"date_taken":"2007-02-12 13:35:22","date_granularity":"0"},"geometry":{"type":"Point","coordinates":[-64.729986,18.362946]}},{"type":"Feature","properties":{"park":"Virgin_Islands_National_Park","id":"402137774","title":"Tropical Taxi","accuracy":16,"date_taken":"2007-02-12 13:33:10","date_granularity":"0"},"geometry":{"type":"Point","coordinates":[-64.729986,18.362946]}},{"type":"Feature","properties":{"park":"Virgin_Islands_National_Park","id":"388769047","title":"DSC00891","accuracy":16,"date_taken":"2007-02-11 03:20:37","date_granularity":"0"},"geometry":{"type":"Point","coordinates":[-64.720287,18.363007]}},{"type":"Feature","properties":{"park":"Virgin_Islands_National_Park","id":"388768904","title":"DSC00885","accuracy":16,"date_taken":"2007-02-11 03:17:42","date_granularity":"0"},"geometry":{"type":"Point","coordinates":[-64.720287,18.363007]}},{"type":"Feature","properties":{"park":"Virgin_Islands_National_Park","id":"388768487","title":"DSC00872","accuracy":15,"date_taken":"2007-02-11 01:18:52","date_granularity":"0"},"geometry":{"type":"Point","coordinates":[-64.730608,18.363669]}},{"type":"Feature","properties":{"park":"Virgin_Islands_National_Park","id":"388768383","title":"DSC00871","accuracy":15,"date_taken":"2007-02-11 01:18:37","date_granularity":"0"},"geometry":{"type":"Point","coordinates":[-64.730608,18.363669]}},{"type":"Feature","properties":{"park":"Virgin_Islands_National_Park","id":"388768239","title":"DSC00860","accuracy":16,"date_taken":"2007-02-11 01:08:10","date_granularity":"0"},"geometry":{"type":"Point","coordinates":[-64.729889,18.362865]}},{"type":"Feature","properties":{"park":"Virgin_Islands_National_Park","id":"388768045","title":"DSC00840","accuracy":16,"date_taken":"2007-02-11 00:28:15","date_granularity":"0"},"geometry":{"type":"Point","coordinates":[-64.729889,18.362865]}},{"type":"Feature","properties":{"park":"Virgin_Islands_National_Park","id":"388767899","title":"DSC00831","accuracy":16,"date_taken":"2007-02-11 00:25:17","date_granularity":"0"},"geometry":{"type":"Point","coordinates":[-64.729889,18.362865]}},{"type":"Feature","properties":{"park":"Virgin_Islands_National_Park","id":"388767807","title":"DSC00829","accuracy":16,"date_taken":"2007-02-11 00:24:22","date_granularity":"0"},"geometry":{"type":"Point","coordinates":[-64.729889,18.362865]}},{"type":"Feature","properties":{"park":"Virgin_Islands_National_Park","id":"388767746","title":"DSC00817","accuracy":15,"date_taken":"2007-02-10 23:58:56","date_granularity":"0"},"geometry":{"type":"Point","coordinates":[-64.732582,18.363323]}},{"type":"Feature","properties":{"park":"Virgin_Islands_National_Park","id":"370395405","title":"annaberg_bvi_pano","accuracy":15,"date_taken":"2007-01-26 20:39:56","date_granularity":"0"},"geometry":{"type":"Point","coordinates":[-64.72872,18.363547]}},{"type":"Feature","properties":{"park":"Virgin_Islands_National_Park","id":"349399496","title":"Untitled","accuracy":16,"date_taken":"2006-12-10 16:46:25","date_granularity":"0"},"geometry":{"type":"Point","coordinates":[-64.72954,18.363017]}},{"type":"Feature","properties":{"park":"Virgin_Islands_National_Park","id":"349398874","title":"Untitled","accuracy":16,"date_taken":"2006-12-10 16:42:29","date_granularity":"0"},"geometry":{"type":"Point","coordinates":[-64.72954,18.363017]}},{"type":"Feature","properties":{"park":"Virgin_Islands_National_Park","id":"349398399","title":"Untitled","accuracy":16,"date_taken":"2006-12-10 16:33:51","date_granularity":"0"},"geometry":{"type":"Point","coordinates":[-64.72954,18.363017]}},{"type":"Feature","properties":{"park":"Virgin_Islands_National_Park","id":"349398109","title":"Untitled","accuracy":16,"date_taken":"2006-12-10 16:17:41","date_granularity":"0"},"geometry":{"type":"Point","coordinates":[-64.72954,18.363017]}},{"type":"Feature","properties":{"park":"Virgin_Islands_National_Park","id":"337983692","title":"Bird","accuracy":15,"date_taken":"2006-12-22 14:11:52","date_granularity":"0"},"geometry":{"type":"Point","coordinates":[-64.720501,18.363415]}},{"type":"Feature","properties":{"park":"Virgin_Islands_National_Park","id":"334606438","title":"<untitled>156","accuracy":16,"date_taken":"2006-12-10 16:46:25","date_granularity":"0"},"geometry":{"type":"Point","coordinates":[-64.72954,18.363017]}},{"type":"Feature","properties":{"park":"Virgin_Islands_National_Park","id":"334606220","title":"<untitled>151","accuracy":16,"date_taken":"2006-12-10 13:45:07","date_granularity":"0"},"geometry":{"type":"Point","coordinates":[-64.72954,18.363017]}},{"type":"Feature","properties":{"park":"Virgin_Islands_National_Park","id":"334606011","title":"<untitled>147","accuracy":16,"date_taken":"2006-12-10 16:42:29","date_granularity":"0"},"geometry":{"type":"Point","coordinates":[-64.72954,18.363017]}},{"type":"Feature","properties":{"park":"Virgin_Islands_National_Park","id":"334605752","title":"<untitled>130","accuracy":16,"date_taken":"2006-12-10 16:34:48","date_granularity":"0"},"geometry":{"type":"Point","coordinates":[-64.72954,18.363017]}},{"type":"Feature","properties":{"park":"Virgin_Islands_National_Park","id":"334605511","title":"<untitled>127","accuracy":16,"date_taken":"2006-12-10 16:33:51","date_granularity":"0"},"geometry":{"type":"Point","coordinates":[-64.72954,18.363017]}},{"type":"Feature","properties":{"park":"Virgin_Islands_National_Park","id":"334605274","title":"<untitled>120","accuracy":16,"date_taken":"2006-12-10 16:31:04","date_granularity":"0"},"geometry":{"type":"Point","coordinates":[-64.72954,18.363017]}},{"type":"Feature","properties":{"park":"Virgin_Islands_National_Park","id":"334605020","title":"<untitled>110","accuracy":16,"date_taken":"2006-12-10 16:27:20","date_granularity":"0"},"geometry":{"type":"Point","coordinates":[-64.72954,18.363017]}},{"type":"Feature","properties":{"park":"Virgin_Islands_National_Park","id":"334604368","title":"<untitled>107","accuracy":16,"date_taken":"2006-12-10 16:26:42","date_granularity":"0"},"geometry":{"type":"Point","coordinates":[-64.72954,18.363017]}},{"type":"Feature","properties":{"park":"Virgin_Islands_National_Park","id":"334604065","title":"<untitled>104","accuracy":16,"date_taken":"2006-12-10 16:26:03","date_granularity":"0"},"geometry":{"type":"Point","coordinates":[-64.72954,18.363017]}},{"type":"Feature","properties":{"park":"Virgin_Islands_National_Park","id":"334603723","title":"<untitled>102","accuracy":16,"date_taken":"2006-12-10 16:25:43","date_granularity":"0"},"geometry":{"type":"Point","coordinates":[-64.72954,18.363017]}},{"type":"Feature","properties":{"park":"Virgin_Islands_National_Park","id":"334603396","title":"<untitled>100","accuracy":16,"date_taken":"2006-12-10 16:25:18","date_granularity":"0"},"geometry":{"type":"Point","coordinates":[-64.72954,18.363017]}},{"type":"Feature","properties":{"park":"Virgin_Islands_National_Park","id":"334603131","title":"<untitled>89","accuracy":16,"date_taken":"2006-12-10 16:21:58","date_granularity":"0"},"geometry":{"type":"Point","coordinates":[-64.72954,18.363017]}},{"type":"Feature","properties":{"park":"Virgin_Islands_National_Park","id":"334602584","title":"<untitled>69","accuracy":16,"date_taken":"2006-12-10 16:16:46","date_granularity":"0"},"geometry":{"type":"Point","coordinates":[-64.72954,18.363017]}},{"type":"Feature","properties":{"park":"Virgin_Islands_National_Park","id":"334602291","title":"<untitled>67","accuracy":16,"date_taken":"2006-12-10 16:16:19","date_granularity":"0"},"geometry":{"type":"Point","coordinates":[-64.72954,18.363017]}},{"type":"Feature","properties":{"park":"Virgin_Islands_National_Park","id":"334601978","title":"<untitled>58","accuracy":16,"date_taken":"2006-12-10 16:13:54","date_granularity":"0"},"geometry":{"type":"Point","coordinates":[-64.72954,18.363017]}},{"type":"Feature","properties":{"park":"Virgin_Islands_National_Park","id":"334601542","title":"<untitled>56","accuracy":16,"date_taken":"2006-12-10 16:13:19","date_granularity":"0"},"geometry":{"type":"Point","coordinates":[-64.72954,18.363017]}},{"type":"Feature","properties":{"park":"Virgin_Islands_National_Park","id":"334600860","title":"<untitled>53","accuracy":16,"date_taken":"2006-12-10 16:12:24","date_granularity":"0"},"geometry":{"type":"Point","coordinates":[-64.72954,18.363017]}},{"type":"Feature","properties":{"park":"Virgin_Islands_National_Park","id":"334599779","title":"<untitled>85","accuracy":16,"date_taken":"2006-12-10 16:20:59","date_granularity":"0"},"geometry":{"type":"Point","coordinates":[-64.72954,18.363017]}},{"type":"Feature","properties":{"park":"Virgin_Islands_National_Park","id":"67519804","title":"Happiness","accuracy":16,"date_taken":"2005-11-27 09:12:06","date_granularity":0},"geometry":{"type":"Point","coordinates":[-64.74264,18.361078]}},{"type":"Feature","properties":{"park":"Virgin_Islands_National_Park","id":"67519782","title":"Happiness","accuracy":16,"date_taken":"2005-11-27 09:12:03","date_granularity":0},"geometry":{"type":"Point","coordinates":[-64.74264,18.361078]}},{"type":"Feature","properties":{"park":"Virgin_Islands_National_Park","id":"11056834","title":"Cat","accuracy":16,"date_taken":"2005-03-04 19:45:23","date_granularity":"0"},"geometry":{"type":"Point","coordinates":[-64.742624,18.362732]}},{"type":"Feature","properties":{"park":"Virgin_Islands_National_Park","id":"2317390954","title":"At the end","accuracy":16,"date_taken":"2008-02-06 14:21:52","date_granularity":"0"},"geometry":{"type":"Point","coordinates":[-64.702767,18.299722]}},{"type":"Feature","properties":{"park":"Virgin_Islands_National_Park","id":"2316582591","title":"A little wet","accuracy":16,"date_taken":"2008-02-06 14:18:41","date_granularity":"0"},"geometry":{"type":"Point","coordinates":[-64.702702,18.300643]}},{"type":"Feature","properties":{"park":"Virgin_Islands_National_Park","id":"2317390780","title":"coast","accuracy":16,"date_taken":"2008-02-06 14:03:31","date_granularity":"0"},"geometry":{"type":"Point","coordinates":[-64.702756,18.301922]}},{"type":"Feature","properties":{"park":"Virgin_Islands_National_Park","id":"2316582393","title":"collecting coral","accuracy":16,"date_taken":"2008-02-06 13:57:54","date_granularity":"0"},"geometry":{"type":"Point","coordinates":[-64.703164,18.303557]}},{"type":"Feature","properties":{"park":"Virgin_Islands_National_Park","id":"2317390538","title":"ram head","accuracy":16,"date_taken":"2008-02-06 13:55:06","date_granularity":"0"},"geometry":{"type":"Point","coordinates":[-64.703625,18.304203]}},{"type":"Feature","properties":{"park":"Virgin_Islands_National_Park","id":"2317390414","title":"bay","accuracy":16,"date_taken":"2008-02-06 13:51:19","date_granularity":"0"},"geometry":{"type":"Point","coordinates":[-64.705567,18.304743]}},{"type":"Feature","properties":{"park":"Virgin_Islands_National_Park","id":"2316581907","title":"admiring the view","accuracy":16,"date_taken":"2008-02-06 13:46:51","date_granularity":"0"},"geometry":{"type":"Point","coordinates":[-64.706693,18.306261]}},{"type":"Feature","properties":{"park":"Virgin_Islands_National_Park","id":"2316581753","title":"andrew","accuracy":16,"date_taken":"2008-02-06 13:42:55","date_granularity":"0"},"geometry":{"type":"Point","coordinates":[-64.706103,18.307249]}},{"type":"Feature","properties":{"park":"Virgin_Islands_National_Park","id":"2316581637","title":"by the water","accuracy":16,"date_taken":"2008-02-06 13:38:59","date_granularity":"0"},"geometry":{"type":"Point","coordinates":[-64.706103,18.307249]}},{"type":"Feature","properties":{"park":"Virgin_Islands_National_Park","id":"2316581539","title":"Starting off","accuracy":16,"date_taken":"2008-02-06 13:38:47","date_granularity":"0"},"geometry":{"type":"Point","coordinates":[-64.706103,18.307249]}},{"type":"Feature","properties":{"park":"Virgin_Islands_National_Park","id":"2317389594","title":"The coast","accuracy":16,"date_taken":"2008-02-06 13:29:03","date_granularity":"0"},"geometry":{"type":"Point","coordinates":[-64.706039,18.309378]}},{"type":"Feature","properties":{"park":"Virgin_Islands_National_Park","id":"2316581271","title":"Salt Pond Bay","accuracy":16,"date_taken":"2008-02-06 13:28:39","date_granularity":"0"},"geometry":{"type":"Point","coordinates":[-64.706039,18.309378]}},{"type":"Feature","properties":{"park":"Virgin_Islands_National_Park","id":"2316581163","title":"Starting off","accuracy":16,"date_taken":"2008-02-06 13:07:04","date_granularity":"0"},"geometry":{"type":"Point","coordinates":[-64.707831,18.312118]}},{"type":"Feature","properties":{"park":"Virgin_Islands_National_Park","id":"2283086604","title":"Me","accuracy":16,"date_taken":"2008-02-10 07:56:34","date_granularity":"0"},"geometry":{"type":"Point","coordinates":[-64.703448,18.29883]}},{"type":"Feature","properties":{"park":"Virgin_Islands_National_Park","id":"2282297625","title":"Down","accuracy":16,"date_taken":"2008-02-10 07:56:12","date_granularity":"0"},"geometry":{"type":"Point","coordinates":[-64.703448,18.29883]}},{"type":"Feature","properties":{"park":"Virgin_Islands_National_Park","id":"2278233993","title":"All Smiles","accuracy":16,"date_taken":"2008-02-10 08:18:28","date_granularity":"0"},"geometry":{"type":"Point","coordinates":[-64.703448,18.29883]}},{"type":"Feature","properties":{"park":"Virgin_Islands_National_Park","id":"2278194969","title":"Carabiners","accuracy":16,"date_taken":"2008-02-10 07:55:15","date_granularity":"0"},"geometry":{"type":"Point","coordinates":[-64.703448,18.29883]}},{"type":"Feature","properties":{"park":"Virgin_Islands_National_Park","id":"2278193883","title":"Ram Head Point","accuracy":16,"date_taken":"2008-02-10 07:53:31","date_granularity":"0"},"geometry":{"type":"Point","coordinates":[-64.703448,18.29883]}},{"type":"Feature","properties":{"park":"Virgin_Islands_National_Park","id":"2278982518","title":"Heart","accuracy":15,"date_taken":"2008-02-10 07:26:46","date_granularity":"0"},"geometry":{"type":"Point","coordinates":[-64.706329,18.306964]}},{"type":"Feature","properties":{"park":"Virgin_Islands_National_Park","id":"2278192199","title":"Ram Head Trail","accuracy":15,"date_taken":"2008-02-10 07:14:59","date_granularity":"0"},"geometry":{"type":"Point","coordinates":[-64.70635,18.305864]}},{"type":"Feature","properties":{"park":"Virgin_Islands_National_Park","id":"2231452452","title":"Tektite-36","accuracy":15,"date_taken":"2008-01-30 13:54:08","date_granularity":0},"geometry":{"type":"Point","coordinates":[-64.721531,18.315622]}},{"type":"Feature","properties":{"park":"Virgin_Islands_National_Park","id":"2230657085","title":"Tektite-34","accuracy":15,"date_taken":"2008-01-30 13:54:04","date_granularity":0},"geometry":{"type":"Point","coordinates":[-64.721531,18.315622]}},{"type":"Feature","properties":{"park":"Virgin_Islands_National_Park","id":"2230657005","title":"Tektite-33","accuracy":15,"date_taken":"2008-01-30 13:54:01","date_granularity":0},"geometry":{"type":"Point","coordinates":[-64.720952,18.316059]}},{"type":"Feature","properties":{"park":"Virgin_Islands_National_Park","id":"2230656957","title":"Tektite-31","accuracy":15,"date_taken":"2008-01-30 13:53:59","date_granularity":0},"geometry":{"type":"Point","coordinates":[-64.721531,18.315622]}},{"type":"Feature","properties":{"park":"Virgin_Islands_National_Park","id":"2230656843","title":"Tektite-28","accuracy":15,"date_taken":"2008-01-30 13:53:55","date_granularity":0},"geometry":{"type":"Point","coordinates":[-64.721531,18.315622]}},{"type":"Feature","properties":{"park":"Virgin_Islands_National_Park","id":"2158740809","title":"Spooky","accuracy":16,"date_taken":"2007-12-15 13:48:32","date_granularity":"0"},"geometry":{"type":"Point","coordinates":[-64.702777,18.311313]}},{"type":"Feature","properties":{"park":"Virgin_Islands_National_Park","id":"2130019288","title":"viers-sky","accuracy":15,"date_taken":"2007-12-22 18:37:06","date_granularity":0},"geometry":{"type":"Point","coordinates":[-64.725909,18.315774]}},{"type":"Feature","properties":{"park":"Virgin_Islands_National_Park","id":"2129241083","title":"nur09005","accuracy":15,"date_taken":"2007-12-22 18:34:59","date_granularity":0},"geometry":{"type":"Point","coordinates":[-64.721531,18.315622]}},{"type":"Feature","properties":{"park":"Virgin_Islands_National_Park","id":"2096240218","title":"DSCN0021.JPG","accuracy":16,"date_taken":"2006-12-11 22:02:16","date_granularity":"0"},"geometry":{"type":"Point","coordinates":[-64.706999,18.309088]}},{"type":"Feature","properties":{"park":"Virgin_Islands_National_Park","id":"2083405070","title":"DSC_0182.jpg","accuracy":16,"date_taken":"2007-06-06 14:15:36","date_granularity":"0"},"geometry":{"type":"Point","coordinates":[-64.70458,18.307962]}},{"type":"Feature","properties":{"park":"Virgin_Islands_National_Park","id":"2083282730","title":"Derek's Path","accuracy":16,"date_taken":"2007-06-06 14:17:06","date_granularity":"0"},"geometry":{"type":"Point","coordinates":[-64.70517,18.307702]}},{"type":"Feature","properties":{"park":"Virgin_Islands_National_Park","id":"1806379130","title":"Sea Turtle","accuracy":16,"date_taken":"2007-10-30 19:05:32","date_granularity":"0"},"geometry":{"type":"Point","coordinates":[-64.705787,18.308675]}},{"type":"Feature","properties":{"park":"Virgin_Islands_National_Park","id":"1805528557","title":"--","accuracy":16,"date_taken":"2007-10-30 19:05:31","date_granularity":"0"},"geometry":{"type":"Point","coordinates":[-64.706463,18.309077]}},{"type":"Feature","properties":{"park":"Virgin_Islands_National_Park","id":"1011290341","title":"Cacti1","accuracy":16,"date_taken":"2002-01-01 04:06:00","date_granularity":"0"},"geometry":{"type":"Point","coordinates":[-64.703207,18.299467]}},{"type":"Feature","properties":{"park":"Virgin_Islands_National_Park","id":"413197646","title":"DSC00503","accuracy":15,"date_taken":"2007-02-24 12:40:14","date_granularity":"0"},"geometry":{"type":"Point","coordinates":[-64.705846,18.30952]}},{"type":"Feature","properties":{"park":"Virgin_Islands_National_Park","id":"413197214","title":"DSC00504","accuracy":15,"date_taken":"2007-02-24 12:40:25","date_granularity":"0"},"geometry":{"type":"Point","coordinates":[-64.705846,18.30952]}},{"type":"Feature","properties":{"park":"Virgin_Islands_National_Park","id":"413197002","title":"DSC00499","accuracy":15,"date_taken":"2007-02-24 12:37:17","date_granularity":"0"},"geometry":{"type":"Point","coordinates":[-64.705846,18.30952]}},{"type":"Feature","properties":{"park":"Virgin_Islands_National_Park","id":"413196742","title":"DSC00498","accuracy":15,"date_taken":"2007-02-24 12:37:07","date_granularity":"0"},"geometry":{"type":"Point","coordinates":[-64.705846,18.30952]}},{"type":"Feature","properties":{"park":"Virgin_Islands_National_Park","id":"413196457","title":"DSC00495","accuracy":15,"date_taken":"2007-02-24 12:30:47","date_granularity":"0"},"geometry":{"type":"Point","coordinates":[-64.705846,18.30952]}},{"type":"Feature","properties":{"park":"Virgin_Islands_National_Park","id":"413196272","title":"DSC00494","accuracy":15,"date_taken":"2007-02-24 12:30:36","date_granularity":"0"},"geometry":{"type":"Point","coordinates":[-64.705846,18.30952]}},{"type":"Feature","properties":{"park":"Virgin_Islands_National_Park","id":"413195366","title":"DSC00481","accuracy":15,"date_taken":"2007-02-24 12:26:37","date_granularity":"0"},"geometry":{"type":"Point","coordinates":[-64.705846,18.30952]}},{"type":"Feature","properties":{"park":"Virgin_Islands_National_Park","id":"413194704","title":"DSC00471","accuracy":15,"date_taken":"2007-02-24 09:42:20","date_granularity":"0"},"geometry":{"type":"Point","coordinates":[-64.705846,18.30952]}},{"type":"Feature","properties":{"park":"Virgin_Islands_National_Park","id":"413194517","title":"DSC00472","accuracy":15,"date_taken":"2007-02-24 11:52:31","date_granularity":"0"},"geometry":{"type":"Point","coordinates":[-64.705846,18.30952]}},{"type":"Feature","properties":{"park":"Virgin_Islands_National_Park","id":"413194362","title":"DSC00474","accuracy":15,"date_taken":"2007-02-24 11:53:08","date_granularity":"0"},"geometry":{"type":"Point","coordinates":[-64.705846,18.30952]}},{"type":"Feature","properties":{"park":"Virgin_Islands_National_Park","id":"413194112","title":"DSC00473","accuracy":15,"date_taken":"2007-02-24 11:52:54","date_granularity":"0"},"geometry":{"type":"Point","coordinates":[-64.705846,18.30952]}},{"type":"Feature","properties":{"park":"Virgin_Islands_National_Park","id":"413193876","title":"DSC00470","accuracy":15,"date_taken":"2007-02-24 09:41:54","date_granularity":"0"},"geometry":{"type":"Point","coordinates":[-64.705846,18.30952]}},{"type":"Feature","properties":{"park":"Virgin_Islands_National_Park","id":"413193684","title":"DSC00468","accuracy":15,"date_taken":"2007-02-24 09:41:29","date_granularity":"0"},"geometry":{"type":"Point","coordinates":[-64.705846,18.30952]}},{"type":"Feature","properties":{"park":"Virgin_Islands_National_Park","id":"413193360","title":"DSC00258","accuracy":15,"date_taken":"2007-02-19 10:09:03","date_granularity":"0"},"geometry":{"type":"Point","coordinates":[-64.705846,18.30952]}},{"type":"Feature","properties":{"park":"Virgin_Islands_National_Park","id":"413193277","title":"DSC00261","accuracy":15,"date_taken":"2007-02-19 10:22:50","date_granularity":"0"},"geometry":{"type":"Point","coordinates":[-64.705846,18.30952]}},{"type":"Feature","properties":{"park":"Virgin_Islands_National_Park","id":"413193062","title":"DSC00260","accuracy":15,"date_taken":"2007-02-19 10:22:46","date_granularity":"0"},"geometry":{"type":"Point","coordinates":[-64.705846,18.30952]}},{"type":"Feature","properties":{"park":"Virgin_Islands_National_Park","id":"413192924","title":"DSC00259","accuracy":15,"date_taken":"2007-02-19 10:09:11","date_granularity":"0"},"geometry":{"type":"Point","coordinates":[-64.705846,18.30952]}},{"type":"Feature","properties":{"park":"Virgin_Islands_National_Park","id":"413192790","title":"DSC00257","accuracy":15,"date_taken":"2007-02-19 10:08:52","date_granularity":"0"},"geometry":{"type":"Point","coordinates":[-64.705846,18.30952]}},{"type":"Feature","properties":{"park":"Virgin_Islands_National_Park","id":"413192519","title":"DSC00255","accuracy":15,"date_taken":"2007-03-06 21:33:18","date_granularity":"0"},"geometry":{"type":"Point","coordinates":[-64.705846,18.30952]}},{"type":"Feature","properties":{"park":"Virgin_Islands_National_Park","id":"413192352","title":"DSC00252","accuracy":15,"date_taken":"2007-02-19 10:05:52","date_granularity":"0"},"geometry":{"type":"Point","coordinates":[-64.705846,18.30952]}},{"type":"Feature","properties":{"park":"Virgin_Islands_National_Park","id":"413192249","title":"DSC00251","accuracy":15,"date_taken":"2007-02-19 10:05:40","date_granularity":"0"},"geometry":{"type":"Point","coordinates":[-64.705846,18.30952]}},{"type":"Feature","properties":{"park":"Virgin_Islands_National_Park","id":"413192118","title":"DSC00250","accuracy":15,"date_taken":"2007-02-19 10:05:26","date_granularity":"0"},"geometry":{"type":"Point","coordinates":[-64.705846,18.30952]}},{"type":"Feature","properties":{"park":"Virgin_Islands_National_Park","id":"413191922","title":"DSC00249","accuracy":15,"date_taken":"2007-02-19 10:05:15","date_granularity":"0"},"geometry":{"type":"Point","coordinates":[-64.705846,18.30952]}},{"type":"Feature","properties":{"park":"Virgin_Islands_National_Park","id":"413191783","title":"DSC00248","accuracy":15,"date_taken":"2007-02-19 08:03:18","date_granularity":"0"},"geometry":{"type":"Point","coordinates":[-64.705846,18.30952]}},{"type":"Feature","properties":{"park":"Virgin_Islands_National_Park","id":"413191507","title":"DSC00506","accuracy":15,"date_taken":"2007-02-24 12:40:46","date_granularity":"0"},"geometry":{"type":"Point","coordinates":[-64.705846,18.30952]}},{"type":"Feature","properties":{"park":"Virgin_Islands_National_Park","id":"370403176","title":"salt_pond_bay_pano","accuracy":15,"date_taken":"2007-01-26 20:40:58","date_granularity":"0"},"geometry":{"type":"Point","coordinates":[-64.706468,18.309357]}},{"type":"Feature","properties":{"park":"Virgin_Islands_National_Park","id":"184318291","title":"A view of Salt Pond, St. John, USVI","accuracy":16,"date_taken":"2006-07-01 18:17:19","date_granularity":"0"},"geometry":{"type":"Point","coordinates":[-64.704344,18.30784]}},{"type":"Feature","properties":{"park":"Virgin_Islands_National_Park","id":"184318177","title":"Close-up of some driftwood.","accuracy":16,"date_taken":"2006-07-01 18:15:49","date_granularity":"0"},"geometry":{"type":"Point","coordinates":[-64.704344,18.30784]}},{"type":"Feature","properties":{"park":"Virgin_Islands_National_Park","id":"184317908","title":"DSCN0586.JPG","accuracy":16,"date_taken":"2006-07-01 18:15:18","date_granularity":"0"},"geometry":{"type":"Point","coordinates":[-64.704344,18.30784]}},{"type":"Feature","properties":{"park":"Virgin_Islands_National_Park","id":"150804670","title":"cactus at salt pond","accuracy":16,"date_taken":"2006-05-19 14:12:43","date_granularity":"0"},"geometry":{"type":"Point","coordinates":[-64.705486,18.309149]}},{"type":"Feature","properties":{"park":"Virgin_Islands_National_Park","id":"150802279","title":"jen's feet in the salt pond bay","accuracy":16,"date_taken":"2006-05-19 13:47:02","date_granularity":"0"},"geometry":{"type":"Point","coordinates":[-64.705486,18.309149]}},{"type":"Feature","properties":{"park":"Virgin_Islands_National_Park","id":"150799659","title":"salt pond bay","accuracy":16,"date_taken":"2006-05-19 10:24:26","date_granularity":"0"},"geometry":{"type":"Point","coordinates":[-64.705486,18.309149]}},{"type":"Feature","properties":{"park":"Virgin_Islands_National_Park","id":"150794842","title":"salt pond bay","accuracy":16,"date_taken":"2006-05-18 17:53:49","date_granularity":"0"},"geometry":{"type":"Point","coordinates":[-64.705486,18.309149]}},{"type":"Feature","properties":{"park":"Virgin_Islands_National_Park","id":"150794578","title":"yellow orchids","accuracy":15,"date_taken":"2006-05-18 17:46:41","date_granularity":"0"},"geometry":{"type":"Point","coordinates":[-64.704118,18.307677]}},{"type":"Feature","properties":{"park":"Virgin_Islands_National_Park","id":"150793288","title":"drunk bay trail","accuracy":15,"date_taken":"2006-05-18 17:37:41","date_granularity":"0"},"geometry":{"type":"Point","coordinates":[-64.702531,18.309775]}},{"type":"Feature","properties":{"park":"Virgin_Islands_National_Park","id":"150792377","title":"a coral character","accuracy":15,"date_taken":"2006-05-18 17:34:43","date_granularity":"0"},"geometry":{"type":"Point","coordinates":[-64.702531,18.309775]}},{"type":"Feature","properties":{"park":"Virgin_Islands_National_Park","id":"150791818","title":"coral dog","accuracy":15,"date_taken":"2006-05-18 17:33:30","date_granularity":"0"},"geometry":{"type":"Point","coordinates":[-64.702531,18.309775]}},{"type":"Feature","properties":{"park":"Virgin_Islands_National_Park","id":"150791212","title":"coral people","accuracy":15,"date_taken":"2006-05-18 17:32:48","date_granularity":"0"},"geometry":{"type":"Point","coordinates":[-64.702531,18.309775]}},{"type":"Feature","properties":{"park":"Virgin_Islands_National_Park","id":"150790696","title":"coral people","accuracy":15,"date_taken":"2006-05-18 17:32:41","date_granularity":"0"},"geometry":{"type":"Point","coordinates":[-64.702531,18.309775]}},{"type":"Feature","properties":{"park":"Virgin_Islands_National_Park","id":"150790106","title":"drunk bay","accuracy":15,"date_taken":"2006-05-18 17:32:07","date_granularity":"0"},"geometry":{"type":"Point","coordinates":[-64.702531,18.309775]}},{"type":"Feature","properties":{"park":"Virgin_Islands_National_Park","id":"150789845","title":"coral people","accuracy":15,"date_taken":"2006-05-18 17:32:00","date_granularity":"0"},"geometry":{"type":"Point","coordinates":[-64.702531,18.309775]}},{"type":"Feature","properties":{"park":"Virgin_Islands_National_Park","id":"150789537","title":"coral people","accuracy":15,"date_taken":"2006-05-18 17:31:49","date_granularity":"0"},"geometry":{"type":"Point","coordinates":[-64.702531,18.309775]}},{"type":"Feature","properties":{"park":"Virgin_Islands_National_Park","id":"150788031","title":"little coral person","accuracy":15,"date_taken":"2006-05-18 17:30:30","date_granularity":"0"},"geometry":{"type":"Point","coordinates":[-64.702531,18.309775]}},{"type":"Feature","properties":{"park":"Virgin_Islands_National_Park","id":"150787647","title":"coral people","accuracy":15,"date_taken":"2006-05-18 17:30:14","date_granularity":"0"},"geometry":{"type":"Point","coordinates":[-64.702531,18.309775]}},{"type":"Feature","properties":{"park":"Virgin_Islands_National_Park","id":"150787168","title":"atop ram's head","accuracy":15,"date_taken":"2006-05-18 16:52:02","date_granularity":"0"},"geometry":{"type":"Point","coordinates":[-64.703282,18.298397]}},{"type":"Feature","properties":{"park":"Virgin_Islands_National_Park","id":"150786945","title":"atop ram's head","accuracy":15,"date_taken":"2006-05-18 16:51:57","date_granularity":"0"},"geometry":{"type":"Point","coordinates":[-64.703282,18.298397]}},{"type":"Feature","properties":{"park":"Virgin_Islands_National_Park","id":"150786638","title":"salt pond bay from ram's head","accuracy":15,"date_taken":"2006-05-18 16:51:52","date_granularity":"0"},"geometry":{"type":"Point","coordinates":[-64.703282,18.298397]}},{"type":"Feature","properties":{"park":"Virgin_Islands_National_Park","id":"150781754","title":"ascending ram's head","accuracy":15,"date_taken":"2006-05-18 16:46:51","date_granularity":"0"},"geometry":{"type":"Point","coordinates":[-64.703282,18.298397]}},{"type":"Feature","properties":{"park":"Virgin_Islands_National_Park","id":"150781534","title":"ram's head","accuracy":15,"date_taken":"2006-05-18 16:46:45","date_granularity":"0"},"geometry":{"type":"Point","coordinates":[-64.703282,18.298397]}},{"type":"Feature","properties":{"park":"Virgin_Islands_National_Park","id":"150781313","title":"ram's head","accuracy":15,"date_taken":"2006-05-18 16:46:39","date_granularity":"0"},"geometry":{"type":"Point","coordinates":[-64.703282,18.298397]}},{"type":"Feature","properties":{"park":"Virgin_Islands_National_Park","id":"150781059","title":"view to the west from atop ram's head","accuracy":15,"date_taken":"2006-05-18 16:46:33","date_granularity":"0"},"geometry":{"type":"Point","coordinates":[-64.703282,18.298397]}},{"type":"Feature","properties":{"park":"Virgin_Islands_National_Park","id":"150779787","title":"atop ram's head","accuracy":15,"date_taken":"2006-05-18 16:46:06","date_granularity":"0"},"geometry":{"type":"Point","coordinates":[-64.703282,18.298397]}},{"type":"Feature","properties":{"park":"Virgin_Islands_National_Park","id":"150779477","title":"atop ram's head","accuracy":15,"date_taken":"2006-05-18 16:46:00","date_granularity":"0"},"geometry":{"type":"Point","coordinates":[-64.703282,18.298397]}},{"type":"Feature","properties":{"park":"Virgin_Islands_National_Park","id":"150778998","title":"atop ram's head","accuracy":15,"date_taken":"2006-05-18 16:45:53","date_granularity":"0"},"geometry":{"type":"Point","coordinates":[-64.703282,18.298397]}},{"type":"Feature","properties":{"park":"Virgin_Islands_National_Park","id":"150778790","title":"atop ram's head","accuracy":15,"date_taken":"2006-05-18 16:45:47","date_granularity":"0"},"geometry":{"type":"Point","coordinates":[-64.703282,18.298397]}},{"type":"Feature","properties":{"park":"Virgin_Islands_National_Park","id":"150778111","title":"ascending ram's head","accuracy":15,"date_taken":"2006-05-18 16:45:26","date_granularity":"0"},"geometry":{"type":"Point","coordinates":[-64.703282,18.298397]}},{"type":"Feature","properties":{"park":"Virgin_Islands_National_Park","id":"150776475","title":"ram's head trail","accuracy":15,"date_taken":"2006-05-18 16:35:10","date_granularity":"0"},"geometry":{"type":"Point","coordinates":[-64.703282,18.298397]}},{"type":"Feature","properties":{"park":"Virgin_Islands_National_Park","id":"150774824","title":"blue cobblestone beach","accuracy":15,"date_taken":"2006-05-18 16:23:43","date_granularity":"0"},"geometry":{"type":"Point","coordinates":[-64.703282,18.298397]}},{"type":"Feature","properties":{"park":"Virgin_Islands_National_Park","id":"150774165","title":"peace and love on the cobblestones","accuracy":15,"date_taken":"2006-05-18 16:23:03","date_granularity":"0"},"geometry":{"type":"Point","coordinates":[-64.703282,18.298397]}},{"type":"Feature","properties":{"park":"Virgin_Islands_National_Park","id":"150773830","title":"blue cobblestones","accuracy":15,"date_taken":"2006-05-18 16:22:22","date_granularity":"0"},"geometry":{"type":"Point","coordinates":[-64.703282,18.298397]}},{"type":"Feature","properties":{"park":"Virgin_Islands_National_Park","id":"150773608","title":"blue cobblestones","accuracy":15,"date_taken":"2006-05-18 16:22:13","date_granularity":"0"},"geometry":{"type":"Point","coordinates":[-64.703282,18.298397]}},{"type":"Feature","properties":{"park":"Virgin_Islands_National_Park","id":"150773289","title":"blue cobblestone beach","accuracy":15,"date_taken":"2006-05-18 16:21:58","date_granularity":"0"},"geometry":{"type":"Point","coordinates":[-64.703282,18.298397]}},{"type":"Feature","properties":{"park":"Virgin_Islands_National_Park","id":"150773041","title":"on the trail","accuracy":15,"date_taken":"2006-05-18 16:12:25","date_granularity":"0"},"geometry":{"type":"Point","coordinates":[-64.703282,18.298397]}},{"type":"Feature","properties":{"park":"Virgin_Islands_National_Park","id":"150771918","title":"the salt pond","accuracy":15,"date_taken":"2006-05-18 16:03:14","date_granularity":"0"},"geometry":{"type":"Point","coordinates":[-64.704118,18.307677]}},{"type":"Feature","properties":{"park":"Virgin_Islands_National_Park","id":"150771693","title":"bubbly salt at the edges","accuracy":15,"date_taken":"2006-05-18 16:03:06","date_granularity":"0"},"geometry":{"type":"Point","coordinates":[-64.704118,18.307677]}},{"type":"Feature","properties":{"park":"Virgin_Islands_National_Park","id":"11056685","title":"Fish","accuracy":16,"date_taken":"2005-03-03 11:02:54","date_granularity":"0"},"geometry":{"type":"Point","coordinates":[-64.722733,18.316497]}},{"type":"Feature","properties":{"park":"Virgin_Islands_National_Park","id":"11056650","title":"Sting Ray","accuracy":16,"date_taken":"2005-03-02 12:07:22","date_granularity":"0"},"geometry":{"type":"Point","coordinates":[-64.722733,18.316497]}},{"type":"Feature","properties":{"park":"Virgin_Islands_National_Park","id":"11056583","title":"Fish","accuracy":16,"date_taken":"2005-03-02 10:47:05","date_granularity":"0"},"geometry":{"type":"Point","coordinates":[-64.722733,18.316497]}},{"type":"Feature","properties":{"park":"Virgin_Islands_National_Park","id":"11056558","title":"Fish","accuracy":16,"date_taken":"2005-03-02 10:40:17","date_granularity":"0"},"geometry":{"type":"Point","coordinates":[-64.722733,18.316497]}},{"type":"Feature","properties":{"park":"Virgin_Islands_National_Park","id":"1073536593","title":"Cinnamon Bay 5)","accuracy":15,"date_taken":"2005-12-18 16:25:26","date_granularity":"0"},"geometry":{"type":"Point","coordinates":[-64.754801,18.354209]}},{"type":"Feature","properties":{"park":"Virgin_Islands_National_Park","id":"1031268915","title":"Trunk Bay, St. John, USVI","accuracy":15,"date_taken":"2001-10-19 13:45:16","date_granularity":"0"},"geometry":{"type":"Point","coordinates":[-64.773652,18.352753]}},{"type":"Feature","properties":{"park":"Virgin_Islands_National_Park","id":"923622347","title":"honeymoon1","accuracy":15,"date_taken":"2007-05-31 16:51:31","date_granularity":"0"},"geometry":{"type":"Point","coordinates":[-64.786698,18.34811]}},{"type":"Feature","properties":{"park":"Virgin_Islands_National_Park","id":"859100803","title":"Ctenophosphorent","accuracy":16,"date_taken":"2007-07-12 03:56:43","date_granularity":"0"},"geometry":{"type":"Point","coordinates":[-64.785228,18.343491]}},{"type":"Feature","properties":{"park":"Virgin_Islands_National_Park","id":"853927964","title":"Frangipangi","accuracy":16,"date_taken":"2007-07-16 17:53:03","date_granularity":"0"},"geometry":{"type":"Point","coordinates":[-64.785432,18.343053]}},{"type":"Feature","properties":{"park":"Virgin_Islands_National_Park","id":"832544872","title":"Bird at Trunk Bay USVI","accuracy":15,"date_taken":"2007-07-14 03:07:15","date_granularity":"0"},"geometry":{"type":"Point","coordinates":[-64.769017,18.352458]}},{"type":"Feature","properties":{"park":"Virgin_Islands_National_Park","id":"832544822","title":"White Sands Trunk Bay Beach USVI St.John","accuracy":15,"date_taken":"2007-07-14 02:12:16","date_granularity":"0"},"geometry":{"type":"Point","coordinates":[-64.768416,18.352835]}},{"type":"Feature","properties":{"park":"Virgin_Islands_National_Park","id":"645018019","title":"trunk-bay-overlook.jpg","accuracy":16,"date_taken":"2007-06-22 15:07:43","date_granularity":"0"},"geometry":{"type":"Point","coordinates":[-64.772729,18.351389]}},{"type":"Feature","properties":{"park":"Virgin_Islands_National_Park","id":"645882108","title":"trunk-bay-admissions.jpg","accuracy":16,"date_taken":"2007-06-22 15:06:10","date_granularity":"0"},"geometry":{"type":"Point","coordinates":[-64.76759,18.352407]}},{"type":"Feature","properties":{"park":"Virgin_Islands_National_Park","id":"543802258","title":"IMG_4409","accuracy":16,"date_taken":"2007-05-09 08:30:47","date_granularity":"0"},"geometry":{"type":"Point","coordinates":[-64.76207,18.354785]}},{"type":"Feature","properties":{"park":"Virgin_Islands_National_Park","id":"543900903","title":"IMG_4406","accuracy":16,"date_taken":"2007-05-09 08:19:46","date_granularity":"0"},"geometry":{"type":"Point","coordinates":[-64.76207,18.354785]}},{"type":"Feature","properties":{"park":"Virgin_Islands_National_Park","id":"543281780","title":"IMG_4380","accuracy":16,"date_taken":"2007-05-07 16:37:46","date_granularity":"0"},"geometry":{"type":"Point","coordinates":[-64.761266,18.352015]}},{"type":"Feature","properties":{"park":"Virgin_Islands_National_Park","id":"530963961","title":"old man stingray","accuracy":16,"date_taken":"2007-06-04 00:59:43","date_granularity":"0"},"geometry":{"type":"Point","coordinates":[-64.768765,18.352743]}},{"type":"Feature","properties":{"park":"Virgin_Islands_National_Park","id":"497062625","title":"IMG_4248","accuracy":16,"date_taken":"2007-05-05 16:32:14","date_granularity":"0"},"geometry":{"type":"Point","coordinates":[-64.770857,18.351073]}},{"type":"Feature","properties":{"park":"Virgin_Islands_National_Park","id":"497062241","title":"IMG_4247","accuracy":16,"date_taken":"2007-05-05 16:32:06","date_granularity":"0"},"geometry":{"type":"Point","coordinates":[-64.770857,18.351073]}},{"type":"Feature","properties":{"park":"Virgin_Islands_National_Park","id":"497033552","title":"IMG_4246","accuracy":16,"date_taken":"2007-05-05 16:26:31","date_granularity":"0"},"geometry":{"type":"Point","coordinates":[-64.770857,18.351073]}},{"type":"Feature","properties":{"park":"Virgin_Islands_National_Park","id":"497060491","title":"IMG_4245","accuracy":16,"date_taken":"2007-05-05 16:26:14","date_granularity":"0"},"geometry":{"type":"Point","coordinates":[-64.770857,18.351073]}},{"type":"Feature","properties":{"park":"Virgin_Islands_National_Park","id":"480791404","title":"","accuracy":15,"date_taken":"2007-05-01 22:45:33","date_granularity":"0"},"geometry":{"type":"Point","coordinates":[-64.764769,18.352224]}},{"type":"Feature","properties":{"park":"Virgin_Islands_National_Park","id":"476085618","title":"View from Peter Bay","accuracy":15,"date_taken":"2006-08-10 11:19:04","date_granularity":"0"},"geometry":{"type":"Point","coordinates":[-64.762279,18.353843]}},{"type":"Feature","properties":{"park":"Virgin_Islands_National_Park","id":"476076840","title":"","accuracy":15,"date_taken":"2006-08-15 17:50:57","date_granularity":"0"},"geometry":{"type":"Point","coordinates":[-64.762279,18.353843]}},{"type":"Feature","properties":{"park":"Virgin_Islands_National_Park","id":"476087357","title":"","accuracy":15,"date_taken":"2006-08-15 15:47:52","date_granularity":"0"},"geometry":{"type":"Point","coordinates":[-64.764769,18.352224]}},{"type":"Feature","properties":{"park":"Virgin_Islands_National_Park","id":"476076376","title":"","accuracy":15,"date_taken":"2006-08-15 15:44:41","date_granularity":"0"},"geometry":{"type":"Point","coordinates":[-64.764769,18.352224]}},{"type":"Feature","properties":{"park":"Virgin_Islands_National_Park","id":"476073006","title":"","accuracy":15,"date_taken":"2006-08-14 12:41:29","date_granularity":"0"},"geometry":{"type":"Point","coordinates":[-64.764769,18.352224]}},{"type":"Feature","properties":{"park":"Virgin_Islands_National_Park","id":"476083627","title":"_MG_6579.jpg","accuracy":15,"date_taken":"2006-08-13 14:39:17","date_granularity":"0"},"geometry":{"type":"Point","coordinates":[-64.762794,18.354576]}},{"type":"Feature","properties":{"park":"Virgin_Islands_National_Park","id":"476072444","title":"_MG_6538.jpg","accuracy":15,"date_taken":"2006-08-13 14:26:00","date_granularity":"0"},"geometry":{"type":"Point","coordinates":[-64.762794,18.354576]}},{"type":"Feature","properties":{"park":"Virgin_Islands_National_Park","id":"476082737","title":"_MG_6521.jpg","accuracy":15,"date_taken":"2006-08-13 14:18:18","date_granularity":"0"},"geometry":{"type":"Point","coordinates":[-64.762794,18.354576]}},{"type":"Feature","properties":{"park":"Virgin_Islands_National_Park","id":"476070980","title":"","accuracy":15,"date_taken":"2006-08-12 16:41:56","date_granularity":"0"},"geometry":{"type":"Point","coordinates":[-64.764769,18.352224]}},{"type":"Feature","properties":{"park":"Virgin_Islands_National_Park","id":"476081383","title":"","accuracy":15,"date_taken":"2006-08-12 16:41:32","date_granularity":"0"},"geometry":{"type":"Point","coordinates":[-64.764769,18.352224]}},{"type":"Feature","properties":{"park":"Virgin_Islands_National_Park","id":"476080875","title":"_MG_6199.jpg","accuracy":15,"date_taken":"2006-08-10 14:17:07","date_granularity":"0"},"geometry":{"type":"Point","coordinates":[-64.786612,18.344464]}},{"type":"Feature","properties":{"park":"Virgin_Islands_National_Park","id":"476069518","title":"_MG_6183.jpg","accuracy":15,"date_taken":"2006-08-10 14:04:35","date_granularity":"0"},"geometry":{"type":"Point","coordinates":[-64.787299,18.344118]}},{"type":"Feature","properties":{"park":"Virgin_Islands_National_Park","id":"476069296","title":"_MG_6130.jpg","accuracy":15,"date_taken":"2006-08-10 13:21:13","date_granularity":"0"},"geometry":{"type":"Point","coordinates":[-64.787299,18.344118]}},{"type":"Feature","properties":{"park":"Virgin_Islands_National_Park","id":"476079295","title":"","accuracy":16,"date_taken":"2006-08-10 12:59:36","date_granularity":"0"},"geometry":{"type":"Point","coordinates":[-64.769618,18.351735]}},{"type":"Feature","properties":{"park":"Virgin_Islands_National_Park","id":"476068318","title":"","accuracy":16,"date_taken":"2006-08-10 12:57:50","date_granularity":"0"},"geometry":{"type":"Point","coordinates":[-64.769618,18.351735]}},{"type":"Feature","properties":{"park":"Virgin_Islands_National_Park","id":"476068024","title":"_MG_6100.jpg","accuracy":15,"date_taken":"2006-08-10 12:40:24","date_granularity":"0"},"geometry":{"type":"Point","coordinates":[-64.762279,18.353843]}},{"type":"Feature","properties":{"park":"Virgin_Islands_National_Park","id":"476067694","title":"","accuracy":15,"date_taken":"2006-08-10 11:13:44","date_granularity":"0"},"geometry":{"type":"Point","coordinates":[-64.764769,18.352224]}},{"type":"Feature","properties":{"park":"Virgin_Islands_National_Park","id":"476067458","title":"","accuracy":15,"date_taken":"2006-08-10 11:09:55","date_granularity":"0"},"geometry":{"type":"Point","coordinates":[-64.764769,18.352224]}},{"type":"Feature","properties":{"park":"Virgin_Islands_National_Park","id":"476077397","title":"_MG_6001.jpg","accuracy":15,"date_taken":"2006-08-09 11:33:17","date_granularity":"0"},"geometry":{"type":"Point","coordinates":[-64.763524,18.352325]}},{"type":"Feature","properties":{"park":"Virgin_Islands_National_Park","id":"476076771","title":"_MG_5938.jpg","accuracy":15,"date_taken":"2006-08-09 10:50:48","date_granularity":"0"},"geometry":{"type":"Point","coordinates":[-64.762279,18.353843]}},{"type":"Feature","properties":{"park":"Virgin_Islands_National_Park","id":"454721399","title":"St. John 07 066","accuracy":16,"date_taken":"2007-03-13 13:13:47","date_granularity":"0"},"geometry":{"type":"Point","coordinates":[-64.767821,18.353822]}},{"type":"Feature","properties":{"park":"Virgin_Islands_National_Park","id":"454721317","title":"St. John 07 065","accuracy":16,"date_taken":"2007-03-13 13:12:13","date_granularity":"0"},"geometry":{"type":"Point","coordinates":[-64.767821,18.353822]}},{"type":"Feature","properties":{"park":"Virgin_Islands_National_Park","id":"454706266","title":"St. John 07 064","accuracy":16,"date_taken":"2007-03-13 13:11:25","date_granularity":"0"},"geometry":{"type":"Point","coordinates":[-64.767821,18.353822]}},{"type":"Feature","properties":{"park":"Virgin_Islands_National_Park","id":"454721073","title":"St. John 07 062","accuracy":16,"date_taken":"2007-03-13 10:29:58","date_granularity":"0"},"geometry":{"type":"Point","coordinates":[-64.767821,18.353822]}},{"type":"Feature","properties":{"park":"Virgin_Islands_National_Park","id":"454705952","title":"St. John 07 060","accuracy":16,"date_taken":"2007-03-13 10:29:50","date_granularity":"0"},"geometry":{"type":"Point","coordinates":[-64.767821,18.353822]}},{"type":"Feature","properties":{"park":"Virgin_Islands_National_Park","id":"454705774","title":"St. John 07 058","accuracy":16,"date_taken":"2007-03-13 10:27:16","date_granularity":"0"},"geometry":{"type":"Point","coordinates":[-64.767821,18.353822]}},{"type":"Feature","properties":{"park":"Virgin_Islands_National_Park","id":"454705604","title":"St. John 07 056","accuracy":16,"date_taken":"2007-03-13 10:17:40","date_granularity":"0"},"geometry":{"type":"Point","coordinates":[-64.767821,18.353822]}},{"type":"Feature","properties":{"park":"Virgin_Islands_National_Park","id":"451673006","title":"Sugar Mama","accuracy":16,"date_taken":"2007-03-10 13:17:25","date_granularity":"0"},"geometry":{"type":"Point","coordinates":[-64.752479,18.355365]}},{"type":"Feature","properties":{"park":"Virgin_Islands_National_Park","id":"451671848","title":"Here's looking at you","accuracy":16,"date_taken":"2007-03-10 13:39:34","date_granularity":"0"},"geometry":{"type":"Point","coordinates":[-64.752479,18.355365]}},{"type":"Feature","properties":{"park":"Virgin_Islands_National_Park","id":"451666846","title":"Hawksnest View","accuracy":15,"date_taken":"2007-03-10 17:34:34","date_granularity":"0"},"geometry":{"type":"Point","coordinates":[-64.780551,18.346256]}},{"type":"Feature","properties":{"park":"Virgin_Islands_National_Park","id":"451665884","title":"Slowly Sinking","accuracy":15,"date_taken":"2007-03-10 17:40:03","date_granularity":"0"},"geometry":{"type":"Point","coordinates":[-64.780551,18.346256]}},{"type":"Feature","properties":{"park":"Virgin_Islands_National_Park","id":"451662908","title":"One from many","accuracy":16,"date_taken":"2007-03-13 16:27:41","date_granularity":"0"},"geometry":{"type":"Point","coordinates":[-64.752479,18.355365]}},{"type":"Feature","properties":{"park":"Virgin_Islands_National_Park","id":"451676139","title":"Backlit","accuracy":16,"date_taken":"2007-03-13 16:29:44","date_granularity":"0"},"geometry":{"type":"Point","coordinates":[-64.752479,18.355365]}},{"type":"Feature","properties":{"park":"Virgin_Islands_National_Park","id":"451660944","title":"Where's Waldo?","accuracy":16,"date_taken":"2007-03-13 16:30:27","date_granularity":"0"},"geometry":{"type":"Point","coordinates":[-64.752479,18.355365]}},{"type":"Feature","properties":{"park":"Virgin_Islands_National_Park","id":"451673273","title":"Little lizard","accuracy":16,"date_taken":"2007-03-13 17:07:33","date_granularity":"0"},"geometry":{"type":"Point","coordinates":[-64.753337,18.351658]}},{"type":"Feature","properties":{"park":"Virgin_Islands_National_Park","id":"451671671","title":"T'ree Lizards Tree.","accuracy":16,"date_taken":"2007-03-13 17:25:50","date_granularity":"0"},"geometry":{"type":"Point","coordinates":[-64.753852,18.352437]}},{"type":"Feature","properties":{"park":"Virgin_Islands_National_Park","id":"451670031","title":"Ouch (or, a tree that I will not be climbing)","accuracy":16,"date_taken":"2007-03-13 17:46:20","date_granularity":"0"},"geometry":{"type":"Point","coordinates":[-64.755161,18.353278]}},{"type":"Feature","properties":{"park":"Virgin_Islands_National_Park","id":"451655106","title":"Cinnamon Cay","accuracy":16,"date_taken":"2007-03-13 18:18:46","date_granularity":"0"},"geometry":{"type":"Point","coordinates":[-64.7553,18.353924]}},{"type":"Feature","properties":{"park":"Virgin_Islands_National_Park","id":"451654052","title":"Golden Light","accuracy":16,"date_taken":"2007-03-13 18:47:48","date_granularity":"0"},"geometry":{"type":"Point","coordinates":[-64.7553,18.353924]}},{"type":"Feature","properties":{"park":"Virgin_Islands_National_Park","id":"451653232","title":"Morning Clouds","accuracy":16,"date_taken":"2007-03-14 06:51:50","date_granularity":"0"},"geometry":{"type":"Point","coordinates":[-64.75279,18.355778]}},{"type":"Feature","properties":{"park":"Virgin_Islands_National_Park","id":"451666265","title":"Gear","accuracy":16,"date_taken":"2007-03-14 07:01:54","date_granularity":"0"},"geometry":{"type":"Point","coordinates":[-64.75279,18.355778]}},{"type":"Feature","properties":{"park":"Virgin_Islands_National_Park","id":"445337175","title":"Cool Plants","accuracy":16,"date_taken":"2007-03-31 14:08:04","date_granularity":"0"},"geometry":{"type":"Point","coordinates":[-64.791398,18.339224]}},{"type":"Feature","properties":{"park":"Virgin_Islands_National_Park","id":"445330952","title":"Salomon Beach","accuracy":16,"date_taken":"2007-03-31 12:51:49","date_granularity":"0"},"geometry":{"type":"Point","coordinates":[-64.793758,18.338878]}},{"type":"Feature","properties":{"park":"Virgin_Islands_National_Park","id":"445335119","title":"Baywatch Moves","accuracy":16,"date_taken":"2007-03-31 12:20:39","date_granularity":"0"},"geometry":{"type":"Point","coordinates":[-64.793758,18.338878]}},{"type":"Feature","properties":{"park":"Virgin_Islands_National_Park","id":"445329630","title":"Sothy Cooling Off","accuracy":16,"date_taken":"2007-03-31 12:19:10","date_granularity":"0"},"geometry":{"type":"Point","coordinates":[-64.793758,18.338878]}},{"type":"Feature","properties":{"park":"Virgin_Islands_National_Park","id":"445328934","title":"Salomon Beach","accuracy":16,"date_taken":"2007-03-31 11:47:55","date_granularity":"0"},"geometry":{"type":"Point","coordinates":[-64.793758,18.338878]}},{"type":"Feature","properties":{"park":"Virgin_Islands_National_Park","id":"445302810","title":"Crab","accuracy":16,"date_taken":"2007-03-31 12:50:00","date_granularity":"0"},"geometry":{"type":"Point","coordinates":[-64.793758,18.338878]}},{"type":"Feature","properties":{"park":"Virgin_Islands_National_Park","id":"445307495","title":"Solomon's Beach St. John's USVI","accuracy":16,"date_taken":"2007-03-31 12:46:59","date_granularity":"0"},"geometry":{"type":"Point","coordinates":[-64.793758,18.338878]}},{"type":"Feature","properties":{"park":"Virgin_Islands_National_Park","id":"424523206","title":"Long Walks on the Beach","accuracy":15,"date_taken":"2007-03-12 05:01:23","date_granularity":"0"},"geometry":{"type":"Point","coordinates":[-64.756035,18.353466]}},{"type":"Feature","properties":{"park":"Virgin_Islands_National_Park","id":"630372970","title":"Virgin isles 035","accuracy":15,"date_taken":"2007-06-26 06:21:20","date_granularity":"0"},"geometry":{"type":"Point","coordinates":[-64.754018,18.353924]}},{"type":"Feature","properties":{"park":"Virgin_Islands_National_Park","id":"629465791","title":"Brian 122","accuracy":15,"date_taken":"2007-06-26 06:15:09","date_granularity":"0"},"geometry":{"type":"Point","coordinates":[-64.768524,18.352875]}},{"type":"Feature","properties":{"park":"Virgin_Islands_National_Park","id":"630328824","title":"Brian 120","accuracy":15,"date_taken":"2007-06-26 06:15:05","date_granularity":"0"},"geometry":{"type":"Point","coordinates":[-64.768524,18.352875]}},{"type":"Feature","properties":{"park":"Virgin_Islands_National_Park","id":"629464471","title":"Cinnamon Bay - Brian","accuracy":15,"date_taken":"2007-06-26 06:14:57","date_granularity":"0"},"geometry":{"type":"Point","coordinates":[-64.754018,18.353924]}},{"type":"Feature","properties":{"park":"Virgin_Islands_National_Park","id":"629463091","title":"VI 067","accuracy":15,"date_taken":"2006-12-19 16:06:13","date_granularity":"0"},"geometry":{"type":"Point","coordinates":[-64.768524,18.352875]}},{"type":"Feature","properties":{"park":"Virgin_Islands_National_Park","id":"629461639","title":"Trunk Bay","accuracy":15,"date_taken":"2006-12-19 16:05:35","date_granularity":"0"},"geometry":{"type":"Point","coordinates":[-64.768524,18.352875]}},