{"type":"FeatureCollection","features":[{"type":"Feature","properties":{"park":"Voyageurs_National_Park","id":"29396749787","title":"Deluth Beauty and the bug","accuracy":16,"date_taken":"2018-08-03 14:19:56","date_granularity":"0"},"geometry":{"type":"Point","coordinates":[-93.16077,48.584277]}},{"type":"Feature","properties":{"park":"Voyageurs_National_Park","id":"29396737297","title":"Purple stinger","accuracy":16,"date_taken":"2018-08-03 14:19:32","date_granularity":"0"},"geometry":{"type":"Point","coordinates":[-93.160806,48.584202]}},{"type":"Feature","properties":{"park":"Voyageurs_National_Park","id":"42524676060","title":"Slim Pickens","accuracy":16,"date_taken":"2018-08-03 11:13:25","date_granularity":"0"},"geometry":{"type":"Point","coordinates":[-93.177764,48.588427]}},{"type":"Feature","properties":{"park":"Voyageurs_National_Park","id":"29218650227","title":"DJI_0021","accuracy":16,"date_taken":"2018-08-10 14:44:14","date_granularity":"0"},"geometry":{"type":"Point","coordinates":[-93.055684,48.464313]}},{"type":"Feature","properties":{"park":"Voyageurs_National_Park","id":"42347824480","title":"DJI_0022","accuracy":16,"date_taken":"2018-08-10 14:44:23","date_granularity":"0"},"geometry":{"type":"Point","coordinates":[-93.055837,48.464291]}},{"type":"Feature","properties":{"park":"Voyageurs_National_Park","id":"29218644107","title":"DJI_0024","accuracy":16,"date_taken":"2018-08-10 14:45:09","date_granularity":"0"},"geometry":{"type":"Point","coordinates":[-93.056459,48.464497]}},{"type":"Feature","properties":{"park":"Voyageurs_National_Park","id":"29218638167","title":"DJI_0029","accuracy":16,"date_taken":"2018-08-10 14:47:03","date_granularity":"0"},"geometry":{"type":"Point","coordinates":[-93.055184,48.464094]}},{"type":"Feature","properties":{"park":"Voyageurs_National_Park","id":"42347810410","title":"DJI_0032","accuracy":16,"date_taken":"2018-08-10 14:47:33","date_granularity":"0"},"geometry":{"type":"Point","coordinates":[-93.055039,48.464058]}},{"type":"Feature","properties":{"park":"Voyageurs_National_Park","id":"29218632637","title":"DJI_0033","accuracy":16,"date_taken":"2018-08-10 14:47:38","date_granularity":"0"},"geometry":{"type":"Point","coordinates":[-93.055045,48.464058]}},{"type":"Feature","properties":{"park":"Voyageurs_National_Park","id":"44156164301","title":"DJI_0034","accuracy":16,"date_taken":"2018-08-10 14:47:53","date_granularity":"0"},"geometry":{"type":"Point","coordinates":[-93.055087,48.464058]}},{"type":"Feature","properties":{"park":"Voyageurs_National_Park","id":"43437816624","title":"DJI_0012","accuracy":16,"date_taken":"2018-08-10 14:21:47","date_granularity":"0"},"geometry":{"type":"Point","coordinates":[-93.055578,48.463886]}},{"type":"Feature","properties":{"park":"Voyageurs_National_Park","id":"42347798940","title":"DJI_0013","accuracy":16,"date_taken":"2018-08-10 14:22:00","date_granularity":"0"},"geometry":{"type":"Point","coordinates":[-93.055162,48.463913]}},{"type":"Feature","properties":{"park":"Voyageurs_National_Park","id":"42347793640","title":"DJI_0017","accuracy":16,"date_taken":"2018-08-10 14:41:03","date_granularity":"0"},"geometry":{"type":"Point","coordinates":[-93.05712,48.465047]}},{"type":"Feature","properties":{"park":"Voyageurs_National_Park","id":"29217802667","title":"DJI_0018","accuracy":16,"date_taken":"2018-08-10 14:41:22","date_granularity":"0"},"geometry":{"type":"Point","coordinates":[-93.05805,48.465391]}},{"type":"Feature","properties":{"park":"Voyageurs_National_Park","id":"38616605504","title":"Ladona julia","accuracy":16,"date_taken":"2017-12-26 18:07:51","date_granularity":"0"},"geometry":{"type":"Point","coordinates":[-92.866015,48.456743]}},{"type":"Feature","properties":{"park":"Voyageurs_National_Park","id":"39295370752","title":"Epitheca","accuracy":16,"date_taken":"2017-12-26 17:58:40","date_granularity":"0"},"geometry":{"type":"Point","coordinates":[-92.866015,48.456743]}},{"type":"Feature","properties":{"park":"Voyageurs_National_Park","id":"39295369632","title":"Exuviae","accuracy":16,"date_taken":"2017-12-26 17:57:52","date_granularity":"0"},"geometry":{"type":"Point","coordinates":[-92.866015,48.456743]}},{"type":"Feature","properties":{"park":"Voyageurs_National_Park","id":"25455583228","title":"Epitheca","accuracy":16,"date_taken":"2017-12-26 18:01:36","date_granularity":"0"},"geometry":{"type":"Point","coordinates":[-92.866015,48.456743]}},{"type":"Feature","properties":{"park":"Voyageurs_National_Park","id":"25315113758","title":"Voyageurs National Park","accuracy":16,"date_taken":"2013-06-14 06:25:38","date_granularity":"0"},"geometry":{"type":"Point","coordinates":[-93.160994,48.584166]}},{"type":"Feature","properties":{"park":"Voyageurs_National_Park","id":"39153034432","title":"Voyageurs National Park","accuracy":16,"date_taken":"2013-06-14 06:29:23","date_granularity":"0"},"geometry":{"type":"Point","coordinates":[-93.160328,48.584074]}},{"type":"Feature","properties":{"park":"Voyageurs_National_Park","id":"25315107868","title":"Voyageurs National Park","accuracy":16,"date_taken":"2013-06-14 06:19:36","date_granularity":"0"},"geometry":{"type":"Point","coordinates":[-93.160693,48.583577]}},{"type":"Feature","properties":{"park":"Voyageurs_National_Park","id":"25315101288","title":"Voyageurs National Park","accuracy":16,"date_taken":"2013-06-14 06:23:22","date_granularity":"0"},"geometry":{"type":"Point","coordinates":[-93.160994,48.584166]}},{"type":"Feature","properties":{"park":"Voyageurs_National_Park","id":"38455837364","title":"Voyageurs National Park","accuracy":16,"date_taken":"2013-06-14 05:59:07","date_granularity":"0"},"geometry":{"type":"Point","coordinates":[-93.163858,48.584443]}},{"type":"Feature","properties":{"park":"Voyageurs_National_Park","id":"24302700627","title":"Voyageurs National Park","accuracy":16,"date_taken":"2013-06-14 06:28:01","date_granularity":"0"},"geometry":{"type":"Point","coordinates":[-93.160575,48.584336]}},{"type":"Feature","properties":{"park":"Voyageurs_National_Park","id":"24302696937","title":"Voyageurs National Park","accuracy":16,"date_taken":"2013-06-14 06:05:59","date_granularity":"0"},"geometry":{"type":"Point","coordinates":[-93.161197,48.584776]}},{"type":"Feature","properties":{"park":"Voyageurs_National_Park","id":"24302693877","title":"Voyageurs National Park","accuracy":16,"date_taken":"2013-06-14 06:18:24","date_granularity":"0"},"geometry":{"type":"Point","coordinates":[-93.160736,48.583641]}},{"type":"Feature","properties":{"park":"Voyageurs_National_Park","id":"38257221075","title":"Voyageurs National Park","accuracy":16,"date_taken":"2013-06-14 06:18:06","date_granularity":"0"},"geometry":{"type":"Point","coordinates":[-93.16035,48.58303]}},{"type":"Feature","properties":{"park":"Voyageurs_National_Park","id":"38257217685","title":"Voyageurs National Park","accuracy":16,"date_taken":"2013-06-14 06:14:05","date_granularity":"0"},"geometry":{"type":"Point","coordinates":[-93.16035,48.58303]}},{"type":"Feature","properties":{"park":"Voyageurs_National_Park","id":"39139664911","title":"Voyageurs National Park","accuracy":16,"date_taken":"2013-06-14 06:17:51","date_granularity":"0"},"geometry":{"type":"Point","coordinates":[-93.16035,48.58303]}},{"type":"Feature","properties":{"park":"Voyageurs_National_Park","id":"38257202695","title":"Voyageurs National Park","accuracy":16,"date_taken":"2013-06-14 06:14:45","date_granularity":"0"},"geometry":{"type":"Point","coordinates":[-93.16035,48.58303]}},{"type":"Feature","properties":{"park":"Voyageurs_National_Park","id":"38257199465","title":"Voyageurs National Park","accuracy":16,"date_taken":"2013-06-14 06:16:43","date_granularity":"0"},"geometry":{"type":"Point","coordinates":[-93.16035,48.58303]}},{"type":"Feature","properties":{"park":"Voyageurs_National_Park","id":"24279228097","title":"Voyageurs National Park","accuracy":16,"date_taken":"2013-06-14 06:15:41","date_granularity":"0"},"geometry":{"type":"Point","coordinates":[-93.16035,48.58303]}},{"type":"Feature","properties":{"park":"Voyageurs_National_Park","id":"38257191455","title":"Voyageurs National Park","accuracy":16,"date_taken":"2013-06-14 06:15:05","date_granularity":"0"},"geometry":{"type":"Point","coordinates":[-93.16035,48.58303]}},{"type":"Feature","properties":{"park":"Voyageurs_National_Park","id":"24279222767","title":"Voyageurs National Park","accuracy":16,"date_taken":"2013-06-14 06:17:07","date_granularity":"0"},"geometry":{"type":"Point","coordinates":[-93.16035,48.58303]}},{"type":"Feature","properties":{"park":"Voyageurs_National_Park","id":"38404216244","title":"Voyageurs National Park","accuracy":16,"date_taken":"2013-06-13 14:20:26","date_granularity":"0"},"geometry":{"type":"Point","coordinates":[-93.028782,48.44545]}},{"type":"Feature","properties":{"park":"Voyageurs_National_Park","id":"27336590259","title":"Voyageurs National Park","accuracy":16,"date_taken":"2013-06-13 14:24:05","date_granularity":"0"},"geometry":{"type":"Point","coordinates":[-93.028782,48.44545]}},{"type":"Feature","properties":{"park":"Voyageurs_National_Park","id":"39082912752","title":"Voyageurs National Park","accuracy":16,"date_taken":"2013-06-13 14:21:07","date_granularity":"0"},"geometry":{"type":"Point","coordinates":[-93.028782,48.44545]}},{"type":"Feature","properties":{"park":"Voyageurs_National_Park","id":"39082910352","title":"Voyageurs National Park","accuracy":16,"date_taken":"2013-06-13 14:24:59","date_granularity":"0"},"geometry":{"type":"Point","coordinates":[-93.028782,48.44545]}},{"type":"Feature","properties":{"park":"Voyageurs_National_Park","id":"38232582975","title":"Voyageurs National Park","accuracy":16,"date_taken":"2013-06-13 14:20:46","date_granularity":"0"},"geometry":{"type":"Point","coordinates":[-93.028782,48.44545]}},{"type":"Feature","properties":{"park":"Voyageurs_National_Park","id":"38232576575","title":"Voyageurs National Park","accuracy":16,"date_taken":"2013-06-13 14:20:54","date_granularity":"0"},"geometry":{"type":"Point","coordinates":[-93.028782,48.44545]}},{"type":"Feature","properties":{"park":"Voyageurs_National_Park","id":"25227473978","title":"Voyageurs National Park","accuracy":16,"date_taken":"2013-06-13 14:09:15","date_granularity":"0"},"geometry":{"type":"Point","coordinates":[-93.030091,48.44486]}},{"type":"Feature","properties":{"park":"Voyageurs_National_Park","id":"39063110912","title":"Voyageurs National Park","accuracy":16,"date_taken":"2013-06-13 14:09:33","date_granularity":"0"},"geometry":{"type":"Point","coordinates":[-93.030091,48.44486]}},{"type":"Feature","properties":{"park":"Voyageurs_National_Park","id":"39063106842","title":"Voyageurs National Park","accuracy":16,"date_taken":"2013-06-13 14:12:57","date_granularity":"0"},"geometry":{"type":"Point","coordinates":[-93.029555,48.444767]}},{"type":"Feature","properties":{"park":"Voyageurs_National_Park","id":"39063103062","title":"Voyageurs National Park","accuracy":16,"date_taken":"2013-06-13 14:13:32","date_granularity":"0"},"geometry":{"type":"Point","coordinates":[-93.029555,48.444767]}},{"type":"Feature","properties":{"park":"Voyageurs_National_Park","id":"39063095632","title":"Voyageurs National Park","accuracy":16,"date_taken":"2013-06-13 14:29:52","date_granularity":"0"},"geometry":{"type":"Point","coordinates":[-93.028578,48.445215]}},{"type":"Feature","properties":{"park":"Voyageurs_National_Park","id":"27316447169","title":"Voyageurs National Park","accuracy":16,"date_taken":"2013-06-13 14:22:08","date_granularity":"0"},"geometry":{"type":"Point","coordinates":[-93.028578,48.445215]}},{"type":"Feature","properties":{"park":"Voyageurs_National_Park","id":"39063089462","title":"Voyageurs National Park","accuracy":16,"date_taken":"2013-06-13 14:22:32","date_granularity":"0"},"geometry":{"type":"Point","coordinates":[-93.028578,48.445215]}},{"type":"Feature","properties":{"park":"Voyageurs_National_Park","id":"23934526497","title":"Didymops transversa","accuracy":16,"date_taken":"2017-12-02 22:33:29","date_granularity":"0"},"geometry":{"type":"Point","coordinates":[-92.866015,48.456743]}},{"type":"Feature","properties":{"park":"Voyageurs_National_Park","id":"23934525877","title":"Didymops transversa","accuracy":16,"date_taken":"2017-12-02 22:32:47","date_granularity":"0"},"geometry":{"type":"Point","coordinates":[-92.866015,48.456743]}},{"type":"Feature","properties":{"park":"Voyageurs_National_Park","id":"37912989445","title":"Didymops transversa","accuracy":16,"date_taken":"2017-12-02 22:28:29","date_granularity":"0"},"geometry":{"type":"Point","coordinates":[-92.866015,48.456743]}},{"type":"Feature","properties":{"park":"Voyageurs_National_Park","id":"37430157386","title":"International Falls, MN - September 8-12, 2017","accuracy":16,"date_taken":"2017-09-09 11:31:00","date_granularity":"0"},"geometry":{"type":"Point","coordinates":[-93.160717,48.583422]}},{"type":"Feature","properties":{"park":"Voyageurs_National_Park","id":"23625920148","title":"International Falls, MN - September 8-12, 2017","accuracy":16,"date_taken":"2017-09-09 11:32:36","date_granularity":"0"},"geometry":{"type":"Point","coordinates":[-93.161412,48.584805]}},{"type":"Feature","properties":{"park":"Voyageurs_National_Park","id":"37430157256","title":"International Falls, MN - September 8-12, 2017","accuracy":16,"date_taken":"2017-09-09 11:35:35","date_granularity":"0"},"geometry":{"type":"Point","coordinates":[-93.163314,48.585177]}},{"type":"Feature","properties":{"park":"Voyageurs_National_Park","id":"23625914008","title":"International Falls, MN - September 8-12, 2017","accuracy":16,"date_taken":"2017-09-09 11:27:34","date_granularity":"0"},"geometry":{"type":"Point","coordinates":[-93.161112,48.583611]}},{"type":"Feature","properties":{"park":"Voyageurs_National_Park","id":"37174022071","title":"Basiaeschna janata","accuracy":16,"date_taken":"2017-09-18 19:25:56","date_granularity":"0"},"geometry":{"type":"Point","coordinates":[-92.866015,48.456743]}},{"type":"Feature","properties":{"park":"Voyageurs_National_Park","id":"37174021511","title":"Basiaeschna janata","accuracy":16,"date_taken":"2017-09-18 19:25:18","date_granularity":"0"},"geometry":{"type":"Point","coordinates":[-92.866015,48.456743]}},{"type":"Feature","properties":{"park":"Voyageurs_National_Park","id":"37126302156","title":"Basiaeschna janata","accuracy":16,"date_taken":"2017-09-18 19:23:05","date_granularity":"0"},"geometry":{"type":"Point","coordinates":[-92.866015,48.456743]}},{"type":"Feature","properties":{"park":"Voyageurs_National_Park","id":"37174020621","title":"Basiaeschna janata","accuracy":16,"date_taken":"2017-09-18 19:23:39","date_granularity":"0"},"geometry":{"type":"Point","coordinates":[-92.866015,48.456743]}},{"type":"Feature","properties":{"park":"Voyageurs_National_Park","id":"37171770505","title":"Kelli Saunders - 20170816_155011","accuracy":16,"date_taken":"2017-08-16 15:50:11","date_granularity":"0"},"geometry":{"type":"Point","coordinates":[-93.166389,48.581111]}},{"type":"Feature","properties":{"park":"Voyageurs_National_Park","id":"37000096502","title":"Kelli Saunders - 20170816_155227","accuracy":16,"date_taken":"2017-08-16 15:52:27","date_granularity":"0"},"geometry":{"type":"Point","coordinates":[-93.166389,48.581111]}},{"type":"Feature","properties":{"park":"Voyageurs_National_Park","id":"36954442131","title":"","accuracy":16,"date_taken":"2017-09-03 13:00:52","date_granularity":"0"},"geometry":{"type":"Point","coordinates":[-92.474084,48.303152]}},{"type":"Feature","properties":{"park":"Voyageurs_National_Park","id":"37095899965","title":"","accuracy":16,"date_taken":"2017-09-03 13:03:08","date_granularity":"0"},"geometry":{"type":"Point","coordinates":[-92.474084,48.303177]}},{"type":"Feature","properties":{"park":"Voyageurs_National_Park","id":"36954439691","title":"","accuracy":16,"date_taken":"2017-09-03 13:00:08","date_granularity":"0"},"geometry":{"type":"Point","coordinates":[-92.474328,48.303108]}},{"type":"Feature","properties":{"park":"Voyageurs_National_Park","id":"37095899295","title":"","accuracy":16,"date_taken":"2017-09-03 13:01:40","date_granularity":"0"},"geometry":{"type":"Point","coordinates":[-92.474175,48.303116]}},{"type":"Feature","properties":{"park":"Voyageurs_National_Park","id":"36260785354","title":"","accuracy":16,"date_taken":"2017-09-03 13:00:56","date_granularity":"0"},"geometry":{"type":"Point","coordinates":[-92.474098,48.303158]}},{"type":"Feature","properties":{"park":"Voyageurs_National_Park","id":"36954437011","title":"","accuracy":16,"date_taken":"2017-09-03 13:00:30","date_granularity":"0"},"geometry":{"type":"Point","coordinates":[-92.474153,48.303122]}},{"type":"Feature","properties":{"park":"Voyageurs_National_Park","id":"37095896905","title":"","accuracy":16,"date_taken":"2017-09-03 13:00:36","date_granularity":"0"},"geometry":{"type":"Point","coordinates":[-92.474137,48.303122]}},{"type":"Feature","properties":{"park":"Voyageurs_National_Park","id":"36833682586","title":"Voyageurs National Park","accuracy":16,"date_taken":"2017-08-27 19:46:34","date_granularity":"0"},"geometry":{"type":"Point","coordinates":[-93.133417,48.611725]}},{"type":"Feature","properties":{"park":"Voyageurs_National_Park","id":"36326053991","title":"","accuracy":16,"date_taken":"2017-07-21 12:52:21","date_granularity":"0"},"geometry":{"type":"Point","coordinates":[-92.997353,48.465033]}},{"type":"Feature","properties":{"park":"Voyageurs_National_Park","id":"35583824483","title":"","accuracy":16,"date_taken":"2017-07-23 09:28:47","date_granularity":"0"},"geometry":{"type":"Point","coordinates":[-93.061225,48.467852]}},{"type":"Feature","properties":{"park":"Voyageurs_National_Park","id":"36007393971","title":"","accuracy":16,"date_taken":"2017-07-23 00:42:39","date_granularity":0},"geometry":{"type":"Point","coordinates":[-93.060834,48.467766]}},{"type":"Feature","properties":{"park":"Voyageurs_National_Park","id":"34965685700","title":"IMG_0883","accuracy":16,"date_taken":"2017-05-30 12:22:20","date_granularity":"0"},"geometry":{"type":"Point","coordinates":[-92.478523,48.400016]}},{"type":"Feature","properties":{"park":"Voyageurs_National_Park","id":"34542930493","title":"IMG_0884","accuracy":16,"date_taken":"2017-05-30 12:22:35","date_granularity":"0"},"geometry":{"type":"Point","coordinates":[-92.478723,48.399905]}},{"type":"Feature","properties":{"park":"Voyageurs_National_Park","id":"35186199922","title":"IMG_0885","accuracy":16,"date_taken":"2017-05-30 12:24:36","date_granularity":"0"},"geometry":{"type":"Point","coordinates":[-92.478714,48.39985]}},{"type":"Feature","properties":{"park":"Voyageurs_National_Park","id":"35186197672","title":"IMG_0886","accuracy":16,"date_taken":"2017-05-30 12:24:58","date_granularity":"0"},"geometry":{"type":"Point","coordinates":[-92.478692,48.399836]}},{"type":"Feature","properties":{"park":"Voyageurs_National_Park","id":"35186197282","title":"IMG_0887","accuracy":16,"date_taken":"2017-05-30 12:25:20","date_granularity":"0"},"geometry":{"type":"Point","coordinates":[-92.4787,48.399825]}},{"type":"Feature","properties":{"park":"Voyageurs_National_Park","id":"34542917703","title":"IMG_0891","accuracy":16,"date_taken":"2017-05-30 12:44:21","date_granularity":"0"},"geometry":{"type":"Point","coordinates":[-92.478653,48.399808]}},{"type":"Feature","properties":{"park":"Voyageurs_National_Park","id":"34542917033","title":"IMG_0892","accuracy":16,"date_taken":"2017-05-30 12:44:25","date_granularity":"0"},"geometry":{"type":"Point","coordinates":[-92.478653,48.399808]}},{"type":"Feature","properties":{"park":"Voyageurs_National_Park","id":"35223256821","title":"IMG_0893","accuracy":16,"date_taken":"2017-05-30 12:44:28","date_granularity":"0"},"geometry":{"type":"Point","coordinates":[-92.478653,48.399808]}},{"type":"Feature","properties":{"park":"Voyageurs_National_Park","id":"35223256291","title":"IMG_0895","accuracy":16,"date_taken":"2017-05-30 12:48:58","date_granularity":"0"},"geometry":{"type":"Point","coordinates":[-92.478653,48.400036]}},{"type":"Feature","properties":{"park":"Voyageurs_National_Park","id":"35352867485","title":"IMG_0896","accuracy":16,"date_taken":"2017-05-30 12:53:10","date_granularity":"0"},"geometry":{"type":"Point","coordinates":[-92.478723,48.399808]}},{"type":"Feature","properties":{"park":"Voyageurs_National_Park","id":"31938014163","title":"hiking up Bushyhead","accuracy":16,"date_taken":"2017-02-06 12:46:52","date_granularity":"0"},"geometry":{"type":"Point","coordinates":[-93.116512,48.606777]}},{"type":"Feature","properties":{"park":"Voyageurs_National_Park","id":"31580789863","title":"little island","accuracy":16,"date_taken":"2017-01-18 10:44:01","date_granularity":"0"},"geometry":{"type":"Point","coordinates":[-93.087617,48.601655]}},{"type":"Feature","properties":{"park":"Voyageurs_National_Park","id":"30717816816","title":"IMG_2539","accuracy":16,"date_taken":"2016-08-31 11:38:09","date_granularity":"0"},"geometry":{"type":"Point","coordinates":[-93.161073,48.584719]}},{"type":"Feature","properties":{"park":"Voyageurs_National_Park","id":"29619914804","title":"Grassy Bay Cliffs","accuracy":15,"date_taken":"2016-09-02 18:38:50","date_granularity":"0"},"geometry":{"type":"Point","coordinates":[-92.538678,48.394974]}},{"type":"Feature","properties":{"park":"Voyageurs_National_Park","id":"29177048203","title":"K9 Campsite","accuracy":16,"date_taken":"2016-08-25 15:55:37","date_granularity":"0"},"geometry":{"type":"Point","coordinates":[-93.044275,48.488147]}},{"type":"Feature","properties":{"park":"Voyageurs_National_Park","id":"29802686855","title":"Shore of Grassy Island","accuracy":16,"date_taken":"2016-08-25 16:01:11","date_granularity":"0"},"geometry":{"type":"Point","coordinates":[-93.043352,48.48873]}},{"type":"Feature","properties":{"park":"Voyageurs_National_Park","id":"29802687115","title":"Toilet Seat inside the island","accuracy":16,"date_taken":"2016-08-25 15:59:52","date_granularity":"0"},"geometry":{"type":"Point","coordinates":[-93.044435,48.488446]}},{"type":"Feature","properties":{"park":"Voyageurs_National_Park","id":"29802686615","title":"Cracked Rock on the island","accuracy":16,"date_taken":"2016-08-25 16:03:11","date_granularity":"0"},"geometry":{"type":"Point","coordinates":[-93.043159,48.489015]}},{"type":"Feature","properties":{"park":"Voyageurs_National_Park","id":"29718194731","title":"Boulder Rocks at Echo Island","accuracy":15,"date_taken":"2016-08-25 13:11:48","date_granularity":"0"},"geometry":{"type":"Point","coordinates":[-93.051645,48.473931]}},{"type":"Feature","properties":{"park":"Voyageurs_National_Park","id":"29718194261","title":"Leap into Picnic Island","accuracy":15,"date_taken":"2016-08-25 13:40:14","date_granularity":"0"},"geometry":{"type":"Point","coordinates":[-93.044457,48.47477]}},{"type":"Feature","properties":{"park":"Voyageurs_National_Park","id":"29718194001","title":"Beaver's lodge","accuracy":15,"date_taken":"2016-08-25 14:56:15","date_granularity":"0"},"geometry":{"type":"Point","coordinates":[-93.045101,48.474642]}},{"type":"Feature","properties":{"park":"Voyageurs_National_Park","id":"29718193571","title":"Row, Marlena, row!","accuracy":15,"date_taken":"2016-08-25 15:07:02","date_granularity":"0"},"geometry":{"type":"Point","coordinates":[-93.045401,48.479251]}},{"type":"Feature","properties":{"park":"Voyageurs_National_Park","id":"29765217676","title":"Around Grassy Island","accuracy":16,"date_taken":"2016-08-25 15:25:24","date_granularity":"0"},"geometry":{"type":"Point","coordinates":[-93.044768,48.487379]}},{"type":"Feature","properties":{"park":"Voyageurs_National_Park","id":"29718191751","title":"View of the Kabetogama lake","accuracy":16,"date_taken":"2016-08-25 15:26:19","date_granularity":"0"},"geometry":{"type":"Point","coordinates":[-93.045476,48.487322]}},{"type":"Feature","properties":{"park":"Voyageurs_National_Park","id":"29718190801","title":"Lichens in Voyageurs","accuracy":16,"date_taken":"2016-08-25 15:27:50","date_granularity":"0"},"geometry":{"type":"Point","coordinates":[-93.045219,48.487251]}},{"type":"Feature","properties":{"park":"Voyageurs_National_Park","id":"29160364953","title":"First stop: Echo Island","accuracy":15,"date_taken":"2016-08-25 13:11:29","date_granularity":"0"},"geometry":{"type":"Point","coordinates":[-93.051581,48.47386]}},{"type":"Feature","properties":{"park":"Voyageurs_National_Park","id":"29160364593","title":"Ash River Welcome Center - dock station","accuracy":16,"date_taken":"2016-08-25 10:29:51","date_granularity":"0"},"geometry":{"type":"Point","coordinates":[-92.848109,48.435457]}},{"type":"Feature","properties":{"park":"Voyageurs_National_Park","id":"29160364223","title":"Park Ranger setting up the #NPS100 cake on the table","accuracy":16,"date_taken":"2016-08-25 10:59:15","date_granularity":"0"},"geometry":{"type":"Point","coordinates":[-92.850555,48.435678]}},{"type":"Feature","properties":{"park":"Voyageurs_National_Park","id":"29160364063","title":"Happy 100th birthday, National Park Service!","accuracy":16,"date_taken":"2016-08-25 10:59:43","date_granularity":"0"},"geometry":{"type":"Point","coordinates":[-92.850555,48.435678]}},{"type":"Feature","properties":{"park":"Voyageurs_National_Park","id":"29484778200","title":"Through the short trail of Voyageurs forest","accuracy":16,"date_taken":"2016-08-25 09:23:48","date_granularity":"0"},"geometry":{"type":"Point","coordinates":[-92.841982,48.408287]}},{"type":"Feature","properties":{"park":"Voyageurs_National_Park","id":"29484777840","title":"Beaver Pond Overlook","accuracy":16,"date_taken":"2016-08-25 09:35:01","date_granularity":"0"},"geometry":{"type":"Point","coordinates":[-92.848559,48.422536]}},{"type":"Feature","properties":{"park":"Voyageurs_National_Park","id":"29694378311","title":"Raise the flag up from the pole","accuracy":15,"date_taken":"2016-08-25 10:03:13","date_granularity":"0"},"geometry":{"type":"Point","coordinates":[-92.85108,48.436176]}},{"type":"Feature","properties":{"park":"Voyageurs_National_Park","id":"29484777500","title":"Sneak peek of Voyageurs sign near lake","accuracy":15,"date_taken":"2016-08-25 10:14:13","date_granularity":"0"},"geometry":{"type":"Point","coordinates":[-92.85108,48.436176]}},{"type":"Feature","properties":{"park":"Voyageurs_National_Park","id":"29458246860","title":"Motorboat arrival from Rainy Lake","accuracy":16,"date_taken":"2016-08-24 15:37:23","date_granularity":"0"},"geometry":{"type":"Point","coordinates":[-93.159835,48.583343]}},{"type":"Feature","properties":{"park":"Voyageurs_National_Park","id":"29638047202","title":"Entering Rainy Lake Visitor Center","accuracy":16,"date_taken":"2016-08-24 15:06:37","date_granularity":"0"},"geometry":{"type":"Point","coordinates":[-93.190863,48.595144]}},{"type":"Feature","properties":{"park":"Voyageurs_National_Park","id":"28969996493","title":"Voyageurs National Park (Saint Louis County, Minnesota)","accuracy":15,"date_taken":"2016-07-29 14:17:38","date_granularity":"0"},"geometry":{"type":"Point","coordinates":[-93.074626,48.465608]}},{"type":"Feature","properties":{"park":"Voyageurs_National_Park","id":"29483460892","title":"Voyageurs National Park (Saint Louis County, Minnesota)","accuracy":15,"date_taken":"2016-07-29 14:18:54","date_granularity":"0"},"geometry":{"type":"Point","coordinates":[-93.074626,48.465608]}},{"type":"Feature","properties":{"park":"Voyageurs_National_Park","id":"28969988113","title":"Voyageurs National Park (Saint Louis County, Minnesota)","accuracy":15,"date_taken":"2016-07-29 14:19:00","date_granularity":"0"},"geometry":{"type":"Point","coordinates":[-93.074626,48.465608]}},{"type":"Feature","properties":{"park":"Voyageurs_National_Park","id":"29483456762","title":"Voyageurs National Park (Saint Louis County, Minnesota)","accuracy":15,"date_taken":"2016-07-29 14:19:16","date_granularity":"0"},"geometry":{"type":"Point","coordinates":[-93.074626,48.465608]}},{"type":"Feature","properties":{"park":"Voyageurs_National_Park","id":"29483455002","title":"Voyageurs National Park (Saint Louis County, Minnesota)","accuracy":15,"date_taken":"2016-07-29 14:23:26","date_granularity":"0"},"geometry":{"type":"Point","coordinates":[-93.074626,48.465608]}},{"type":"Feature","properties":{"park":"Voyageurs_National_Park","id":"29483453632","title":"Voyageurs National Park (Saint Louis County, Minnesota)","accuracy":15,"date_taken":"2016-07-29 14:27:12","date_granularity":"0"},"geometry":{"type":"Point","coordinates":[-93.074626,48.465608]}},{"type":"Feature","properties":{"park":"Voyageurs_National_Park","id":"29512802871","title":"Voyageurs National Park (Saint Louis County, Minnesota)","accuracy":15,"date_taken":"2016-07-29 14:28:58","date_granularity":"0"},"geometry":{"type":"Point","coordinates":[-93.074626,48.465608]}},{"type":"Feature","properties":{"park":"Voyageurs_National_Park","id":"29483444692","title":"Voyageurs National Park (Saint Louis County, Minnesota)","accuracy":15,"date_taken":"2016-07-29 14:29:14","date_granularity":"0"},"geometry":{"type":"Point","coordinates":[-93.074626,48.465608]}},{"type":"Feature","properties":{"park":"Voyageurs_National_Park","id":"28967893754","title":"Voyageurs National Park (Saint Louis County, Minnesota)","accuracy":15,"date_taken":"2016-07-29 14:29:20","date_granularity":"0"},"geometry":{"type":"Point","coordinates":[-93.074626,48.465608]}},{"type":"Feature","properties":{"park":"Voyageurs_National_Park","id":"29483433202","title":"Voyageurs National Park (Saint Louis County, Minnesota)","accuracy":15,"date_taken":"2016-07-29 14:32:18","date_granularity":"0"},"geometry":{"type":"Point","coordinates":[-93.074626,48.465608]}},{"type":"Feature","properties":{"park":"Voyageurs_National_Park","id":"29512788541","title":"Voyageurs National Park (Saint Louis County, Minnesota)","accuracy":15,"date_taken":"2016-07-29 14:32:34","date_granularity":"0"},"geometry":{"type":"Point","coordinates":[-93.074626,48.465608]}},{"type":"Feature","properties":{"park":"Voyageurs_National_Park","id":"29303009650","title":"Voyageurs National Park (Saint Louis County, Minnesota)","accuracy":15,"date_taken":"2016-07-29 14:35:08","date_granularity":"0"},"geometry":{"type":"Point","coordinates":[-93.074626,48.465608]}},{"type":"Feature","properties":{"park":"Voyageurs_National_Park","id":"28969961843","title":"Voyageurs National Park Fern (Saint Louis County, Minnesota)","accuracy":15,"date_taken":"2016-07-29 14:38:01","date_granularity":"0"},"geometry":{"type":"Point","coordinates":[-93.074626,48.465608]}},{"type":"Feature","properties":{"park":"Voyageurs_National_Park","id":"29303008200","title":"Voyageurs National Park Wild Daisy (Saint Louis County, Minnesota)","accuracy":15,"date_taken":"2016-07-29 14:38:15","date_granularity":"0"},"geometry":{"type":"Point","coordinates":[-93.074626,48.465608]}},{"type":"Feature","properties":{"park":"Voyageurs_National_Park","id":"28969959943","title":"Echo Bay Trail Marker (Voyageurs National Park, Minnesota)","accuracy":15,"date_taken":"2016-07-29 14:38:38","date_granularity":"0"},"geometry":{"type":"Point","coordinates":[-93.074626,48.465608]}},{"type":"Feature","properties":{"park":"Voyageurs_National_Park","id":"29303007150","title":"Voyageurs National Park Flora (Saint Louis County, Minnesota)","accuracy":15,"date_taken":"2016-07-29 14:16:39","date_granularity":"0"},"geometry":{"type":"Point","coordinates":[-93.074626,48.465608]}},{"type":"Feature","properties":{"park":"Voyageurs_National_Park","id":"28969955363","title":"Voyageurs National Park (Saint Louis County, Minnesota)","accuracy":15,"date_taken":"2016-07-29 14:14:57","date_granularity":"0"},"geometry":{"type":"Point","coordinates":[-93.074626,48.465608]}},{"type":"Feature","properties":{"park":"Voyageurs_National_Park","id":"28969952043","title":"Voyageurs National Park (Saint Louis County, Minnesota)","accuracy":15,"date_taken":"2016-07-29 14:15:57","date_granularity":"0"},"geometry":{"type":"Point","coordinates":[-93.074626,48.465608]}},{"type":"Feature","properties":{"park":"Voyageurs_National_Park","id":"28969948733","title":"Stop Invasive Hitchhikers! Marker (Voyageurs National Park, Minnesota)","accuracy":15,"date_taken":"2016-07-29 14:14:23","date_granularity":"0"},"geometry":{"type":"Point","coordinates":[-93.074626,48.465608]}},{"type":"Feature","properties":{"park":"Voyageurs_National_Park","id":"28969947713","title":"Echo Bay Trail Marker (Voyageurs National Park, Minnesota)","accuracy":15,"date_taken":"2016-07-29 14:14:13","date_granularity":"0"},"geometry":{"type":"Point","coordinates":[-93.074626,48.465608]}},{"type":"Feature","properties":{"park":"Voyageurs_National_Park","id":"29483407492","title":"Voyageurs National Park Markers (Saint Louis County, Minnesota)","accuracy":16,"date_taken":"2016-07-29 14:04:11","date_granularity":"0"},"geometry":{"type":"Point","coordinates":[-93.029941,48.444874]}},{"type":"Feature","properties":{"park":"Voyageurs_National_Park","id":"29483406712","title":"Kabetogama Lake (Voyageurs National Park, Minnesota)","accuracy":16,"date_taken":"2016-07-29 14:05:01","date_granularity":"0"},"geometry":{"type":"Point","coordinates":[-93.029941,48.444874]}},{"type":"Feature","properties":{"park":"Voyageurs_National_Park","id":"29483406062","title":"Kabetogama Lake (Voyageurs National Park, Minnesota)","accuracy":16,"date_taken":"2016-07-29 14:05:09","date_granularity":"0"},"geometry":{"type":"Point","coordinates":[-93.029941,48.444874]}},{"type":"Feature","properties":{"park":"Voyageurs_National_Park","id":"29559210436","title":"Kabetogama Lake Visitor Center Sign (Voyageurs National Park, Minnesota)","accuracy":16,"date_taken":"2016-07-29 14:05:49","date_granularity":"0"},"geometry":{"type":"Point","coordinates":[-93.029941,48.444874]}},{"type":"Feature","properties":{"park":"Voyageurs_National_Park","id":"29512776941","title":"Voyageurs National Park (Saint Louis County, Minnesota)","accuracy":15,"date_taken":"2016-07-29 14:39:13","date_granularity":"0"},"geometry":{"type":"Point","coordinates":[-93.074626,48.465608]}},{"type":"Feature","properties":{"park":"Voyageurs_National_Park","id":"29559200966","title":"Kabetogama Lake Visitor Center (Voyageurs National Park, Minnesota)","accuracy":16,"date_taken":"2016-07-29 14:04:05","date_granularity":"0"},"geometry":{"type":"Point","coordinates":[-93.029941,48.444874]}},{"type":"Feature","properties":{"park":"Voyageurs_National_Park","id":"29483399202","title":"Voyageurs National Park Prints (Saint Louis County, Minnesota)","accuracy":15,"date_taken":"2016-07-29 14:31:04","date_granularity":"0"},"geometry":{"type":"Point","coordinates":[-93.074626,48.465608]}},{"type":"Feature","properties":{"park":"Voyageurs_National_Park","id":"29559196526","title":"Voyageurs National Park (Saint Louis County, Minnesota)","accuracy":15,"date_taken":"2016-07-29 14:39:20","date_granularity":"0"},"geometry":{"type":"Point","coordinates":[-93.074626,48.465608]}},{"type":"Feature","properties":{"park":"Voyageurs_National_Park","id":"28969925003","title":"Voyageurs National Park Wild Sunflower (Saint Louis County, Minnesota)","accuracy":15,"date_taken":"2016-07-29 14:44:38","date_granularity":"0"},"geometry":{"type":"Point","coordinates":[-93.074626,48.465608]}},{"type":"Feature","properties":{"park":"Voyageurs_National_Park","id":"25050347216","title":"200/366","accuracy":16,"date_taken":"2015-09-19 22:31:32","date_granularity":"0"},"geometry":{"type":"Point","coordinates":[-93.02728,48.444874]}},{"type":"Feature","properties":{"park":"Voyageurs_National_Park","id":"24112026336","title":"155/366 Sunrise on Lake Kabetogama","accuracy":16,"date_taken":"2015-09-20 06:26:27","date_granularity":"0"},"geometry":{"type":"Point","coordinates":[-93.028074,48.444497]}},{"type":"Feature","properties":{"park":"Voyageurs_National_Park","id":"23504879620","title":"","accuracy":16,"date_taken":"2015-05-15 13:55:40","date_granularity":"0"},"geometry":{"type":"Point","coordinates":[-92.688531,48.425441]}},{"type":"Feature","properties":{"park":"Voyageurs_National_Park","id":"22190367954","title":"97/366 In the Evening","accuracy":15,"date_taken":"2015-09-19 19:23:53","date_granularity":"0"},"geometry":{"type":"Point","coordinates":[-93.028492,48.444504]}},{"type":"Feature","properties":{"park":"Voyageurs_National_Park","id":"21541231400","title":"Sandy Point Lodge","accuracy":15,"date_taken":"2015-09-26 09:44:59","date_granularity":0},"geometry":{"type":"Point","coordinates":[-93.08748,48.492378]}},{"type":"Feature","properties":{"park":"Voyageurs_National_Park","id":"21512876698","title":"Quill Lake, Voyageurs National Park","accuracy":16,"date_taken":"2015-09-21 11:28:49","date_granularity":"0"},"geometry":{"type":"Point","coordinates":[-92.957573,48.533752]}},{"type":"Feature","properties":{"park":"Voyageurs_National_Park","id":"20795594160","title":"Pre-storm campsite","accuracy":16,"date_taken":"2015-08-18 20:29:04","date_granularity":0},"geometry":{"type":"Point","coordinates":[-92.854654,48.459985]}},{"type":"Feature","properties":{"park":"Voyageurs_National_Park","id":"20292176164","title":"Sunflower","accuracy":16,"date_taken":"2015-06-29 16:42:31","date_granularity":"0"},"geometry":{"type":"Point","coordinates":[-92.849935,48.43536]}},{"type":"Feature","properties":{"park":"Voyageurs_National_Park","id":"19353537532","title":"At Ellsworth Rock Gardens","accuracy":16,"date_taken":"2008-11-04 11:01:54","date_granularity":"0"},"geometry":{"type":"Point","coordinates":[-92.978914,48.497227]}},{"type":"Feature","properties":{"park":"Voyageurs_National_Park","id":"18737095544","title":"Duck Formation at Ellsworth Rock Gardens","accuracy":16,"date_taken":"2008-11-04 11:14:44","date_granularity":"0"},"geometry":{"type":"Point","coordinates":[-92.978914,48.497227]}},{"type":"Feature","properties":{"park":"Voyageurs_National_Park","id":"19333535786","title":"Entering Ellsworth Rock Gardens","accuracy":16,"date_taken":"2008-11-04 11:27:21","date_granularity":"0"},"geometry":{"type":"Point","coordinates":[-92.978914,48.497227]}},{"type":"Feature","properties":{"park":"Voyageurs_National_Park","id":"19171986350","title":"Flower at Ellsworth Rock Garden","accuracy":16,"date_taken":"2008-11-04 11:19:14","date_granularity":"0"},"geometry":{"type":"Point","coordinates":[-92.978914,48.497227]}},{"type":"Feature","properties":{"park":"Voyageurs_National_Park","id":"16369315865","title":"I never dream about winter, so i must be dreaming.","accuracy":15,"date_taken":"2014-09-13 18:55:59","date_granularity":"0"},"geometry":{"type":"Point","coordinates":[-92.664527,48.426068]}},{"type":"Feature","properties":{"park":"Voyageurs_National_Park","id":"14453617798","title":"07-04-14-04-25-36.jpg","accuracy":16,"date_taken":"2014-07-04 04:25:36","date_granularity":"0"},"geometry":{"type":"Point","coordinates":[-93.062539,48.612863]}},{"type":"Feature","properties":{"park":"Voyageurs_National_Park","id":"9609461492","title":"Sand Point Lake","accuracy":16,"date_taken":"2013-08-05 20:11:14","date_granularity":"0"},"geometry":{"type":"Point","coordinates":[-92.475909,48.334899]}},{"type":"Feature","properties":{"park":"Voyageurs_National_Park","id":"9277227074","title":"130701 On the way back to Arrowhead","accuracy":16,"date_taken":"2013-07-01 14:11:01","date_granularity":"0"},"geometry":{"type":"Point","coordinates":[-93.05285,48.485633]}},{"type":"Feature","properties":{"park":"Voyageurs_National_Park","id":"9277161788","title":"130701 Ellsworth Rock Gardens","accuracy":16,"date_taken":"2013-07-01 13:50:02","date_granularity":"0"},"geometry":{"type":"Point","coordinates":[-92.979,48.497233]}},{"type":"Feature","properties":{"park":"Voyageurs_National_Park","id":"9274373941","title":"130701 Ellsworth Rock Gardens","accuracy":16,"date_taken":"2013-07-01 13:47:53","date_granularity":"0"},"geometry":{"type":"Point","coordinates":[-92.979,48.497233]}},{"type":"Feature","properties":{"park":"Voyageurs_National_Park","id":"9274373235","title":"130701 Ellsworth Rock Gardens","accuracy":16,"date_taken":"2013-07-01 13:32:24","date_granularity":"0"},"geometry":{"type":"Point","coordinates":[-92.979,48.497233]}},{"type":"Feature","properties":{"park":"Voyageurs_National_Park","id":"9277105940","title":"130701 Kettle Falls to Ellsworth Rock Gardens","accuracy":16,"date_taken":"2013-07-01 12:33:39","date_granularity":"0"},"geometry":{"type":"Point","coordinates":[-92.646267,48.4997]}},{"type":"Feature","properties":{"park":"Voyageurs_National_Park","id":"9277105482","title":"130701 Kettle Falls","accuracy":16,"date_taken":"2013-07-01 12:19:39","date_granularity":"0"},"geometry":{"type":"Point","coordinates":[-92.6385,48.499633]}},{"type":"Feature","properties":{"park":"Voyageurs_National_Park","id":"9274316643","title":"130701 Kettle Falls Dam","accuracy":16,"date_taken":"2013-07-01 12:11:37","date_granularity":"0"},"geometry":{"type":"Point","coordinates":[-92.6385,48.499633]}},{"type":"Feature","properties":{"park":"Voyageurs_National_Park","id":"9274285149","title":"130701 Kettle Falls Hotel","accuracy":16,"date_taken":"2013-07-01 12:06:54","date_granularity":"0"},"geometry":{"type":"Point","coordinates":[-92.63955,48.50225]}},{"type":"Feature","properties":{"park":"Voyageurs_National_Park","id":"9274284447","title":"130701 Kettle Falls Hotel","accuracy":16,"date_taken":"2013-07-01 12:01:24","date_granularity":"0"},"geometry":{"type":"Point","coordinates":[-92.63955,48.50225]}},{"type":"Feature","properties":{"park":"Voyageurs_National_Park","id":"9277066984","title":"130701 At Woodenfrog Point","accuracy":16,"date_taken":"2013-07-01 08:23:44","date_granularity":"0"},"geometry":{"type":"Point","coordinates":[-93.056933,48.484133]}},{"type":"Feature","properties":{"park":"Voyageurs_National_Park","id":"8754670417","title":"Kabetogema","accuracy":16,"date_taken":"2010-07-01 04:09:41","date_granularity":"0"},"geometry":{"type":"Point","coordinates":[-92.710812,48.427705]}},{"type":"Feature","properties":{"park":"Voyageurs_National_Park","id":"8754670161","title":"Kabetogema","accuracy":16,"date_taken":"2010-06-29 20:44:25","date_granularity":"0"},"geometry":{"type":"Point","coordinates":[-92.711091,48.427691]}},{"type":"Feature","properties":{"park":"Voyageurs_National_Park","id":"8660654388","title":"Celestial Magic","accuracy":15,"date_taken":"2013-04-13 20:46:54","date_granularity":"0"},"geometry":{"type":"Point","coordinates":[-92.799453,48.475965]}},{"type":"Feature","properties":{"park":"Voyageurs_National_Park","id":"8657437597","title":"Under the stars","accuracy":15,"date_taken":"2013-04-14 02:05:45","date_granularity":"0"},"geometry":{"type":"Point","coordinates":[-92.799024,48.475282]}},{"type":"Feature","properties":{"park":"Voyageurs_National_Park","id":"8654366019","title":"Awesome campsite","accuracy":15,"date_taken":"2013-04-14 02:31:35","date_granularity":"0"},"geometry":{"type":"Point","coordinates":[-92.798852,48.475339]}},{"type":"Feature","properties":{"park":"Voyageurs_National_Park","id":"8649055365","title":"April colors","accuracy":15,"date_taken":"2013-04-14 00:46:18","date_granularity":"0"},"geometry":{"type":"Point","coordinates":[-92.799625,48.475794]}},{"type":"Feature","properties":{"park":"Voyageurs_National_Park","id":"8642618585","title":"Sun","accuracy":16,"date_taken":"2011-01-01 12:59:04","date_granularity":"0"},"geometry":{"type":"Point","coordinates":[-93.166047,48.584528]}},{"type":"Feature","properties":{"park":"Voyageurs_National_Park","id":"8608558054","title":"Sha Sha Resort","accuracy":15,"date_taken":"2013-03-28 12:10:29","date_granularity":"0"},"geometry":{"type":"Point","coordinates":[-93.154234,48.600906]}},{"type":"Feature","properties":{"park":"Voyageurs_National_Park","id":"8608553816","title":"Island View Lodge","accuracy":15,"date_taken":"2013-03-28 12:10:06","date_granularity":"0"},"geometry":{"type":"Point","coordinates":[-93.154149,48.601133]}},{"type":"Feature","properties":{"park":"Voyageurs_National_Park","id":"7728069880","title":"Wrangling a Fish","accuracy":16,"date_taken":"2012-08-06 13:34:35","date_granularity":"0"},"geometry":{"type":"Point","coordinates":[-92.474155,48.335826]}},{"type":"Feature","properties":{"park":"Voyageurs_National_Park","id":"7728056210","title":"So It Snowed a Little","accuracy":16,"date_taken":"2012-08-06 13:32:37","date_granularity":"0"},"geometry":{"type":"Point","coordinates":[-93.122348,48.496701]}},{"type":"Feature","properties":{"park":"Voyageurs_National_Park","id":"7714465850","title":"View From Ingersoll Island","accuracy":16,"date_taken":"2012-07-27 22:04:11","date_granularity":"0"},"geometry":{"type":"Point","coordinates":[-92.472932,48.354965]}},{"type":"Feature","properties":{"park":"Voyageurs_National_Park","id":"7714429410","title":"Ingersoll Island - The Main Cabin","accuracy":15,"date_taken":"2012-07-27 22:07:17","date_granularity":"0"},"geometry":{"type":"Point","coordinates":[-92.473168,48.354965]}},{"type":"Feature","properties":{"park":"Voyageurs_National_Park","id":"7714157022","title":"Ingersoll Island - Caretakers Cabin","accuracy":15,"date_taken":"2012-07-27 21:52:53","date_granularity":"0"},"geometry":{"type":"Point","coordinates":[-92.472481,48.353625]}},{"type":"Feature","properties":{"park":"Voyageurs_National_Park","id":"7714154870","title":"Ingersoll Island - Caretakers Cabin","accuracy":15,"date_taken":"2012-07-27 21:48:48","date_granularity":"0"},"geometry":{"type":"Point","coordinates":[-92.472481,48.353568]}},{"type":"Feature","properties":{"park":"Voyageurs_National_Park","id":"7714151308","title":"Ingersoll Island - The Boathouse","accuracy":16,"date_taken":"2012-07-27 21:48:34","date_granularity":"0"},"geometry":{"type":"Point","coordinates":[-92.472674,48.353154]}},{"type":"Feature","properties":{"park":"Voyageurs_National_Park","id":"7583396530","title":"Angle to Key West","accuracy":16,"date_taken":"2012-06-28 12:03:29","date_granularity":"0"},"geometry":{"type":"Point","coordinates":[-92.530917,48.445111]}},{"type":"Feature","properties":{"park":"Voyageurs_National_Park","id":"7583396136","title":"Angle to Key West","accuracy":16,"date_taken":"2012-06-27 20:08:02","date_granularity":"0"},"geometry":{"type":"Point","coordinates":[-92.675025,48.433269]}},{"type":"Feature","properties":{"park":"Voyageurs_National_Park","id":"7583395350","title":"Angle to Key West","accuracy":16,"date_taken":"2012-06-27 11:44:36","date_granularity":"0"},"geometry":{"type":"Point","coordinates":[-92.63687,48.499738]}},{"type":"Feature","properties":{"park":"Voyageurs_National_Park","id":"7583395190","title":"Angle to Key West","accuracy":16,"date_taken":"2012-06-26 21:12:35","date_granularity":"0"},"geometry":{"type":"Point","coordinates":[-92.716281,48.527613]}},{"type":"Feature","properties":{"park":"Voyageurs_National_Park","id":"7583394996","title":"Angle to Key West","accuracy":16,"date_taken":"2012-06-26 19:05:02","date_granularity":"0"},"geometry":{"type":"Point","coordinates":[-92.715923,48.527313]}},{"type":"Feature","properties":{"park":"Voyageurs_National_Park","id":"7583394356","title":"Angle to Key West","accuracy":16,"date_taken":"2012-06-26 12:43:16","date_granularity":"0"},"geometry":{"type":"Point","coordinates":[-92.89607,48.592638]}},{"type":"Feature","properties":{"park":"Voyageurs_National_Park","id":"7583393784","title":"Angle to Key West","accuracy":16,"date_taken":"2012-06-25 19:44:22","date_granularity":"0"},"geometry":{"type":"Point","coordinates":[-93.136387,48.606738]}},{"type":"Feature","properties":{"park":"Voyageurs_National_Park","id":"7475663210","title":"Voyageur of Voyageur NP","accuracy":16,"date_taken":"2012-06-11 07:49:36","date_granularity":"0"},"geometry":{"type":"Point","coordinates":[-93.160425,48.584201]}},{"type":"Feature","properties":{"park":"Voyageurs_National_Park","id":"7429668940","title":"Up north","accuracy":16,"date_taken":"2012-06-23 21:43:14","date_granularity":"0"},"geometry":{"type":"Point","coordinates":[-92.707038,48.448274]}},{"type":"Feature","properties":{"park":"Voyageurs_National_Park","id":"7417356004","title":"Voyageurs NP","accuracy":16,"date_taken":"2012-06-11 12:51:01","date_granularity":"0"},"geometry":{"type":"Point","coordinates":[-92.845346,48.426246]}},{"type":"Feature","properties":{"park":"Voyageurs_National_Park","id":"7417317930","title":"Beaver Pond","accuracy":15,"date_taken":"2012-06-11 12:21:35","date_granularity":"0"},"geometry":{"type":"Point","coordinates":[-92.848087,48.421867]}},{"type":"Feature","properties":{"park":"Voyageurs_National_Park","id":"7182561753","title":"Crane Lake","accuracy":15,"date_taken":"2012-05-27 03:11:33","date_granularity":"0"},"geometry":{"type":"Point","coordinates":[-92.474412,48.302915]}},{"type":"Feature","properties":{"park":"Voyageurs_National_Park","id":"6978115795","title":"Rainy Lake Ice Road","accuracy":16,"date_taken":"2012-03-12 20:03:47","date_granularity":0},"geometry":{"type":"Point","coordinates":[-93.107242,48.60539]}},{"type":"Feature","properties":{"park":"Voyageurs_National_Park","id":"6965439491","title":"Colors of Dusk","accuracy":16,"date_taken":"2011-07-13 19:44:29","date_granularity":"0"},"geometry":{"type":"Point","coordinates":[-93.004188,48.471726]}},{"type":"Feature","properties":{"park":"Voyageurs_National_Park","id":"6364134903","title":"Rainy Lake","accuracy":16,"date_taken":"2011-01-01 12:54:35","date_granularity":"0"},"geometry":{"type":"Point","coordinates":[-93.166369,48.584496]}},{"type":"Feature","properties":{"park":"Voyageurs_National_Park","id":"6361526611","title":"Snow Over Reeds","accuracy":16,"date_taken":"2011-01-01 13:22:53","date_granularity":"0"},"geometry":{"type":"Point","coordinates":[-93.165467,48.584411]}},{"type":"Feature","properties":{"park":"Voyageurs_National_Park","id":"6353997203","title":"Pelicans","accuracy":15,"date_taken":"2011-07-14 09:12:05","date_granularity":"0"},"geometry":{"type":"Point","coordinates":[-93.052589,48.481868]}},{"type":"Feature","properties":{"park":"Voyageurs_National_Park","id":"6346002759","title":"kettle bar","accuracy":16,"date_taken":"2010-07-07 05:55:05","date_granularity":"0"},"geometry":{"type":"Point","coordinates":[-93.16349,48.583194]}},{"type":"Feature","properties":{"park":"Voyageurs_National_Park","id":"6125392439","title":"full of stars","accuracy":16,"date_taken":"2011-09-07 20:26:59","date_granularity":"0"},"geometry":{"type":"Point","coordinates":[-92.729072,48.435237]}},{"type":"Feature","properties":{"park":"Voyageurs_National_Park","id":"6078976248","title":"Sand Point Pike","accuracy":16,"date_taken":"2011-08-24 14:58:54","date_granularity":"0"},"geometry":{"type":"Point","coordinates":[-92.546885,48.398493]}},{"type":"Feature","properties":{"park":"Voyageurs_National_Park","id":"6038644036","title":"This was about all we saw of Voyageurs","accuracy":16,"date_taken":"2011-08-12 10:56:16","date_granularity":"0"},"geometry":{"type":"Point","coordinates":[-92.826664,48.500168]}},{"type":"Feature","properties":{"park":"Voyageurs_National_Park","id":"5851292314","title":"Dinner","accuracy":16,"date_taken":"2011-06-08 16:49:09","date_granularity":"0"},"geometry":{"type":"Point","coordinates":[-93.037831,48.594861]}},{"type":"Feature","properties":{"park":"Voyageurs_National_Park","id":"5744068650","title":"Lost Lake Bay","accuracy":16,"date_taken":"2006-10-03 23:13:20","date_granularity":"0"},"geometry":{"type":"Point","coordinates":[-92.84666,48.444404]}},{"type":"Feature","properties":{"park":"Voyageurs_National_Park","id":"5518305763","title":"Dusk, Namakan Lake, Voyageurs National Park","accuracy":16,"date_taken":"2009-05-24 20:15:22","date_granularity":"0"},"geometry":{"type":"Point","coordinates":[-92.721519,48.448617]}},{"type":"Feature","properties":{"park":"Voyageurs_National_Park","id":"5444013068","title":"Sandpoint Lake, MN","accuracy":16,"date_taken":"2008-08-15 18:34:17","date_granularity":"0"},"geometry":{"type":"Point","coordinates":[-92.496814,48.372216]}},{"type":"Feature","properties":{"park":"Voyageurs_National_Park","id":"5342200820","title":"Oberholtzer","accuracy":16,"date_taken":"2011-01-01 13:51:29","date_granularity":"0"},"geometry":{"type":"Point","coordinates":[-93.162753,48.584258]}},{"type":"Feature","properties":{"park":"Voyageurs_National_Park","id":"5327705181","title":"Port of Call","accuracy":16,"date_taken":"2011-01-02 11:38:10","date_granularity":"0"},"geometry":{"type":"Point","coordinates":[-93.160339,48.584208]}},{"type":"Feature","properties":{"park":"Voyageurs_National_Park","id":"5324399147","title":"Where The Heck's The Wall Drug Sticker?","accuracy":16,"date_taken":"2011-01-01 14:02:53","date_granularity":"0"},"geometry":{"type":"Point","coordinates":[-93.163311,48.584844]}},{"type":"Feature","properties":{"park":"Voyageurs_National_Park","id":"5324399133","title":"Solitude","accuracy":16,"date_taken":"2011-01-01 16:35:28","date_granularity":"0"},"geometry":{"type":"Point","coordinates":[-92.848516,48.435724]}},{"type":"Feature","properties":{"park":"Voyageurs_National_Park","id":"5324399113","title":"Needs a Bench Warmer","accuracy":16,"date_taken":"2011-01-01 12:58:54","date_granularity":"0"},"geometry":{"type":"Point","coordinates":[-93.167431,48.584113]}},{"type":"Feature","properties":{"park":"Voyageurs_National_Park","id":"5320247983","title":"Ineffective","accuracy":16,"date_taken":"2011-01-01 13:17:16","date_granularity":"0"},"geometry":{"type":"Point","coordinates":[-93.165822,48.58225]}},{"type":"Feature","properties":{"park":"Voyageurs_National_Park","id":"5320247991","title":"Waterway","accuracy":16,"date_taken":"2011-01-01 13:20:57","date_granularity":"0"},"geometry":{"type":"Point","coordinates":[-93.165639,48.581973]}},{"type":"Feature","properties":{"park":"Voyageurs_National_Park","id":"5320153525","title":"Silence","accuracy":16,"date_taken":"2011-01-01 12:57:28","date_granularity":"0"},"geometry":{"type":"Point","coordinates":[-93.164663,48.584379]}},{"type":"Feature","properties":{"park":"Voyageurs_National_Park","id":"5320153507","title":"Tromp","accuracy":16,"date_taken":"2011-01-01 12:48:10","date_granularity":"0"},"geometry":{"type":"Point","coordinates":[-93.163493,48.584336]}},{"type":"Feature","properties":{"park":"Voyageurs_National_Park","id":"4919932485","title":"IMG_2358.JPG","accuracy":15,"date_taken":"2010-08-21 22:19:30","date_granularity":"0"},"geometry":{"type":"Point","coordinates":[-93.010189,48.503447]}},{"type":"Feature","properties":{"park":"Voyageurs_National_Park","id":"4920530264","title":"IMG_2357.JPG","accuracy":15,"date_taken":"2010-08-21 22:18:40","date_granularity":"0"},"geometry":{"type":"Point","coordinates":[-93.010189,48.503447]}},{"type":"Feature","properties":{"park":"Voyageurs_National_Park","id":"4919931697","title":"IMG_2356.JPG","accuracy":15,"date_taken":"2010-08-21 22:17:22","date_granularity":"0"},"geometry":{"type":"Point","coordinates":[-93.010189,48.503447]}},{"type":"Feature","properties":{"park":"Voyageurs_National_Park","id":"4919930917","title":"IMG_2354.JPG","accuracy":15,"date_taken":"2010-08-21 22:15:39","date_granularity":"0"},"geometry":{"type":"Point","coordinates":[-93.010189,48.503447]}},{"type":"Feature","properties":{"park":"Voyageurs_National_Park","id":"4920528478","title":"IMG_2353.JPG","accuracy":15,"date_taken":"2010-08-21 22:15:15","date_granularity":"0"},"geometry":{"type":"Point","coordinates":[-93.010189,48.503447]}},{"type":"Feature","properties":{"park":"Voyageurs_National_Park","id":"4920528190","title":"IMG_2352.JPG","accuracy":15,"date_taken":"2010-08-21 22:14:56","date_granularity":"0"},"geometry":{"type":"Point","coordinates":[-93.010189,48.503447]}},{"type":"Feature","properties":{"park":"Voyageurs_National_Park","id":"4919929377","title":"IMG_2350.JPG","accuracy":15,"date_taken":"2010-08-21 22:14:06","date_granularity":"0"},"geometry":{"type":"Point","coordinates":[-93.010189,48.503447]}},{"type":"Feature","properties":{"park":"Voyageurs_National_Park","id":"4919928801","title":"IMG_2349.JPG","accuracy":15,"date_taken":"2010-08-21 22:12:13","date_granularity":"0"},"geometry":{"type":"Point","coordinates":[-93.010189,48.503447]}},{"type":"Feature","properties":{"park":"Voyageurs_National_Park","id":"4919928273","title":"IMG_2348.JPG","accuracy":15,"date_taken":"2010-08-21 21:28:13","date_granularity":"0"},"geometry":{"type":"Point","coordinates":[-93.010189,48.503447]}},{"type":"Feature","properties":{"park":"Voyageurs_National_Park","id":"4919927813","title":"IMG_2347.JPG","accuracy":15,"date_taken":"2010-08-21 21:28:10","date_granularity":"0"},"geometry":{"type":"Point","coordinates":[-93.010189,48.503447]}},{"type":"Feature","properties":{"park":"Voyageurs_National_Park","id":"4920525658","title":"IMG_2346.JPG","accuracy":15,"date_taken":"2010-08-21 21:27:59","date_granularity":"0"},"geometry":{"type":"Point","coordinates":[-93.010189,48.503447]}},{"type":"Feature","properties":{"park":"Voyageurs_National_Park","id":"4920525158","title":"IMG_2345.JPG","accuracy":15,"date_taken":"2010-08-21 21:27:37","date_granularity":"0"},"geometry":{"type":"Point","coordinates":[-93.010189,48.503447]}},{"type":"Feature","properties":{"park":"Voyageurs_National_Park","id":"4920523872","title":"IMG_2342.JPG","accuracy":15,"date_taken":"2010-08-21 21:26:10","date_granularity":"0"},"geometry":{"type":"Point","coordinates":[-93.010189,48.503447]}},{"type":"Feature","properties":{"park":"Voyageurs_National_Park","id":"4920523466","title":"IMG_2343.JPG","accuracy":15,"date_taken":"2010-08-21 21:26:10","date_granularity":"0"},"geometry":{"type":"Point","coordinates":[-93.010189,48.503447]}},{"type":"Feature","properties":{"park":"Voyageurs_National_Park","id":"4920523068","title":"IMG_2340.JPG","accuracy":15,"date_taken":"2010-08-21 21:25:59","date_granularity":"0"},"geometry":{"type":"Point","coordinates":[-93.010189,48.503447]}},{"type":"Feature","properties":{"park":"Voyageurs_National_Park","id":"4920522768","title":"IMG_2339.JPG","accuracy":15,"date_taken":"2010-08-21 21:25:58","date_granularity":"0"},"geometry":{"type":"Point","coordinates":[-93.010189,48.503447]}},{"type":"Feature","properties":{"park":"Voyageurs_National_Park","id":"4919923491","title":"IMG_2337.JPG","accuracy":15,"date_taken":"2010-08-21 21:25:16","date_granularity":"0"},"geometry":{"type":"Point","coordinates":[-93.010189,48.503447]}},{"type":"Feature","properties":{"park":"Voyageurs_National_Park","id":"4920521534","title":"IMG_2332.JPG","accuracy":15,"date_taken":"2010-08-21 21:24:20","date_granularity":"0"},"geometry":{"type":"Point","coordinates":[-93.010189,48.503447]}},{"type":"Feature","properties":{"park":"Voyageurs_National_Park","id":"4920521062","title":"IMG_2331.JPG","accuracy":15,"date_taken":"2010-08-21 21:23:53","date_granularity":"0"},"geometry":{"type":"Point","coordinates":[-93.010189,48.503447]}},{"type":"Feature","properties":{"park":"Voyageurs_National_Park","id":"4919922335","title":"IMG_2330.JPG","accuracy":15,"date_taken":"2010-08-21 21:22:32","date_granularity":"0"},"geometry":{"type":"Point","coordinates":[-93.010189,48.503447]}},{"type":"Feature","properties":{"park":"Voyageurs_National_Park","id":"4920520310","title":"IMG_2329.JPG","accuracy":15,"date_taken":"2010-08-21 21:22:20","date_granularity":"0"},"geometry":{"type":"Point","coordinates":[-93.010189,48.503447]}},{"type":"Feature","properties":{"park":"Voyageurs_National_Park","id":"4920519878","title":"IMG_2328.JPG","accuracy":15,"date_taken":"2010-08-21 21:21:47","date_granularity":"0"},"geometry":{"type":"Point","coordinates":[-93.010189,48.503447]}},{"type":"Feature","properties":{"park":"Voyageurs_National_Park","id":"4920519580","title":"IMG_2327.JPG","accuracy":15,"date_taken":"2010-08-21 21:20:55","date_granularity":"0"},"geometry":{"type":"Point","coordinates":[-93.010189,48.503447]}},{"type":"Feature","properties":{"park":"Voyageurs_National_Park","id":"4919920897","title":"IMG_2326.JPG","accuracy":15,"date_taken":"2010-08-21 21:04:11","date_granularity":"0"},"geometry":{"type":"Point","coordinates":[-93.010189,48.503447]}},{"type":"Feature","properties":{"park":"Voyageurs_National_Park","id":"4920517234","title":"IMG_2322.JPG","accuracy":15,"date_taken":"2010-08-21 21:02:39","date_granularity":"0"},"geometry":{"type":"Point","coordinates":[-93.010189,48.503447]}},{"type":"Feature","properties":{"park":"Voyageurs_National_Park","id":"4919917745","title":"IMG_2320.JPG","accuracy":15,"date_taken":"2010-08-21 21:01:19","date_granularity":"0"},"geometry":{"type":"Point","coordinates":[-93.010189,48.503447]}},{"type":"Feature","properties":{"park":"Voyageurs_National_Park","id":"4919916797","title":"IMG_2318.JPG","accuracy":15,"date_taken":"2010-08-21 21:01:01","date_granularity":"0"},"geometry":{"type":"Point","coordinates":[-93.010189,48.503447]}},{"type":"Feature","properties":{"park":"Voyageurs_National_Park","id":"4920514762","title":"IMG_2317.JPG","accuracy":15,"date_taken":"2010-08-21 21:00:59","date_granularity":"0"},"geometry":{"type":"Point","coordinates":[-93.010189,48.503447]}},{"type":"Feature","properties":{"park":"Voyageurs_National_Park","id":"4919915989","title":"IMG_2316.JPG","accuracy":15,"date_taken":"2010-08-21 21:00:53","date_granularity":"0"},"geometry":{"type":"Point","coordinates":[-93.010189,48.503447]}},{"type":"Feature","properties":{"park":"Voyageurs_National_Park","id":"4919915537","title":"IMG_2315.JPG","accuracy":15,"date_taken":"2010-08-21 20:58:59","date_granularity":"0"},"geometry":{"type":"Point","coordinates":[-93.010189,48.503447]}},{"type":"Feature","properties":{"park":"Voyageurs_National_Park","id":"4920513620","title":"IMG_2314.JPG","accuracy":15,"date_taken":"2010-08-21 20:58:54","date_granularity":"0"},"geometry":{"type":"Point","coordinates":[-93.010189,48.503447]}},{"type":"Feature","properties":{"park":"Voyageurs_National_Park","id":"4920513102","title":"IMG_2313.JPG","accuracy":15,"date_taken":"2010-08-21 20:58:50","date_granularity":"0"},"geometry":{"type":"Point","coordinates":[-93.010189,48.503447]}},{"type":"Feature","properties":{"park":"Voyageurs_National_Park","id":"4920512480","title":"IMG_2312.JPG","accuracy":15,"date_taken":"2010-08-21 20:58:24","date_granularity":"0"},"geometry":{"type":"Point","coordinates":[-93.010189,48.503447]}},{"type":"Feature","properties":{"park":"Voyageurs_National_Park","id":"4919911883","title":"IMG_2307.JPG","accuracy":15,"date_taken":"2010-08-21 20:19:03","date_granularity":"0"},"geometry":{"type":"Point","coordinates":[-93.008172,48.502289]}},{"type":"Feature","properties":{"park":"Voyageurs_National_Park","id":"4919911385","title":"IMG_2306.JPG","accuracy":15,"date_taken":"2010-08-21 20:18:56","date_granularity":"0"},"geometry":{"type":"Point","coordinates":[-93.008172,48.502289]}},{"type":"Feature","properties":{"park":"Voyageurs_National_Park","id":"4920509400","title":"IMG_2305.JPG","accuracy":15,"date_taken":"2010-08-21 20:08:31","date_granularity":"0"},"geometry":{"type":"Point","coordinates":[-93.008172,48.502289]}},{"type":"Feature","properties":{"park":"Voyageurs_National_Park","id":"4919910179","title":"IMG_2303.JPG","accuracy":15,"date_taken":"2010-08-21 19:53:20","date_granularity":"0"},"geometry":{"type":"Point","coordinates":[-93.008172,48.502289]}},{"type":"Feature","properties":{"park":"Voyageurs_National_Park","id":"4920508144","title":"IMG_2302.JPG","accuracy":15,"date_taken":"2010-08-21 19:53:11","date_granularity":"0"},"geometry":{"type":"Point","coordinates":[-93.008172,48.502289]}},{"type":"Feature","properties":{"park":"Voyageurs_National_Park","id":"4920507714","title":"IMG_2301.JPG","accuracy":15,"date_taken":"2010-08-21 19:52:57","date_granularity":"0"},"geometry":{"type":"Point","coordinates":[-93.008172,48.502289]}},{"type":"Feature","properties":{"park":"Voyageurs_National_Park","id":"3712456535","title":"sneaking away","accuracy":16,"date_taken":"2009-07-11 18:24:10","date_granularity":"0"},"geometry":{"type":"Point","coordinates":[-93.143076,48.610479]}},{"type":"Feature","properties":{"park":"Voyageurs_National_Park","id":"2541905085","title":"Yellow Flowers Along Viaduct","accuracy":16,"date_taken":"2008-05-24 13:27:20","date_granularity":"0"},"geometry":{"type":"Point","coordinates":[-93.190997,48.595378]}},{"type":"Feature","properties":{"park":"Voyageurs_National_Park","id":"2541900739","title":"Sky Reflected in Marsh","accuracy":16,"date_taken":"2008-05-24 12:58:28","date_granularity":"0"},"geometry":{"type":"Point","coordinates":[-93.166943,48.583893]}},{"type":"Feature","properties":{"park":"Voyageurs_National_Park","id":"2541896645","title":"Mushrooms on Log","accuracy":16,"date_taken":"2008-05-24 12:55:26","date_granularity":"0"},"geometry":{"type":"Point","coordinates":[-93.16558,48.584393]}},{"type":"Feature","properties":{"park":"Voyageurs_National_Park","id":"2539247376","title":"Pine Stars and New Leaves","accuracy":16,"date_taken":"2008-05-24 12:51:32","date_granularity":"0"},"geometry":{"type":"Point","coordinates":[-93.16558,48.584393]}},{"type":"Feature","properties":{"park":"Voyageurs_National_Park","id":"2539244168","title":"New Leaf of Green","accuracy":16,"date_taken":"2008-05-24 12:36:10","date_granularity":"0"},"geometry":{"type":"Point","coordinates":[-93.16558,48.584393]}},{"type":"Feature","properties":{"park":"Voyageurs_National_Park","id":"2538422299","title":"Birch Leaves","accuracy":16,"date_taken":"2008-05-24 12:12:54","date_granularity":"0"},"geometry":{"type":"Point","coordinates":[-93.16558,48.584393]}},{"type":"Feature","properties":{"park":"Voyageurs_National_Park","id":"2138961633","title":"Danger, thin Ice!","accuracy":15,"date_taken":"2007-12-24 15:23:45","date_granularity":"0"},"geometry":{"type":"Point","coordinates":[-93.160929,48.583563]}},{"type":"Feature","properties":{"park":"Voyageurs_National_Park","id":"1208014977","title":"Rooted","accuracy":16,"date_taken":"2007-08-16 13:23:58","date_granularity":"0"},"geometry":{"type":"Point","coordinates":[-92.468211,48.302837]}},{"type":"Feature","properties":{"park":"Voyageurs_National_Park","id":"1208774346","title":"What's in That Stump?","accuracy":16,"date_taken":"2007-08-16 08:09:24","date_granularity":"0"},"geometry":{"type":"Point","coordinates":[-92.468211,48.302837]}},{"type":"Feature","properties":{"park":"Voyageurs_National_Park","id":"1208773098","title":"Reflections","accuracy":16,"date_taken":"2007-08-15 18:46:50","date_granularity":"0"},"geometry":{"type":"Point","coordinates":[-92.468211,48.302837]}},{"type":"Feature","properties":{"park":"Voyageurs_National_Park","id":"1208772788","title":"Circle of Waves","accuracy":16,"date_taken":"2007-08-15 18:46:02","date_granularity":"0"},"geometry":{"type":"Point","coordinates":[-92.468211,48.302837]}},{"type":"Feature","properties":{"park":"Voyageurs_National_Park","id":"1207913571","title":"Playing with the Waves","accuracy":16,"date_taken":"2007-08-15 18:43:30","date_granularity":"0"},"geometry":{"type":"Point","coordinates":[-92.468211,48.302837]}},{"type":"Feature","properties":{"park":"Voyageurs_National_Park","id":"1207913345","title":"Playing with the Waves","accuracy":16,"date_taken":"2007-08-15 18:43:26","date_granularity":"0"},"geometry":{"type":"Point","coordinates":[-92.468211,48.302837]}},{"type":"Feature","properties":{"park":"Voyageurs_National_Park","id":"1198412865","title":"Caroline","accuracy":16,"date_taken":"2007-08-15 18:57:05","date_granularity":"0"},"geometry":{"type":"Point","coordinates":[-92.468211,48.302837]}},{"type":"Feature","properties":{"park":"Voyageurs_National_Park","id":"1199278804","title":"Dog Tracks","accuracy":16,"date_taken":"2007-08-15 18:50:31","date_granularity":"0"},"geometry":{"type":"Point","coordinates":[-92.468211,48.302837]}},{"type":"Feature","properties":{"park":"Voyageurs_National_Park","id":"1198412375","title":"Looking Down on the Lake","accuracy":16,"date_taken":"2007-08-15 18:48:29","date_granularity":"0"},"geometry":{"type":"Point","coordinates":[-92.468211,48.302837]}},{"type":"Feature","properties":{"park":"Voyageurs_National_Park","id":"1199277892","title":"Sky Reflected","accuracy":16,"date_taken":"2007-08-15 18:47:01","date_granularity":"0"},"geometry":{"type":"Point","coordinates":[-92.468211,48.302837]}},{"type":"Feature","properties":{"park":"Voyageurs_National_Park","id":"1199277120","title":"Shoreline","accuracy":16,"date_taken":"2007-08-15 18:41:56","date_granularity":"0"},"geometry":{"type":"Point","coordinates":[-92.468211,48.302837]}},{"type":"Feature","properties":{"park":"Voyageurs_National_Park","id":"1198409559","title":"Path to the Beach","accuracy":16,"date_taken":"2007-08-15 18:37:02","date_granularity":"0"},"geometry":{"type":"Point","coordinates":[-92.468211,48.302837]}},{"type":"Feature","properties":{"park":"Voyageurs_National_Park","id":"1199275396","title":"Souvenirs","accuracy":16,"date_taken":"2007-08-15 18:35:18","date_granularity":"0"},"geometry":{"type":"Point","coordinates":[-92.468211,48.302837]}},{"type":"Feature","properties":{"park":"Voyageurs_National_Park","id":"1199275040","title":"Designer Swim Wear","accuracy":16,"date_taken":"2007-08-15 18:33:59","date_granularity":"0"},"geometry":{"type":"Point","coordinates":[-92.468211,48.302837]}},{"type":"Feature","properties":{"park":"Voyageurs_National_Park","id":"1199274690","title":"Designer Swim Wear","accuracy":16,"date_taken":"2007-08-15 18:33:51","date_granularity":"0"},"geometry":{"type":"Point","coordinates":[-92.468211,48.302837]}},{"type":"Feature","properties":{"park":"Voyageurs_National_Park","id":"1198408139","title":"Designer Swim Wear","accuracy":16,"date_taken":"2007-08-15 18:33:38","date_granularity":"0"},"geometry":{"type":"Point","coordinates":[-92.468211,48.302837]}},{"type":"Feature","properties":{"park":"Voyageurs_National_Park","id":"1183894502","title":"A Tree in the Path","accuracy":16,"date_taken":"2007-08-15 18:34:57","date_granularity":"0"},"geometry":{"type":"Point","coordinates":[-92.468211,48.302837]}},{"type":"Feature","properties":{"park":"Voyageurs_National_Park","id":"1183035083","title":"Rope","accuracy":16,"date_taken":"2007-08-15 18:23:19","date_granularity":"0"},"geometry":{"type":"Point","coordinates":[-92.468211,48.302837]}},{"type":"Feature","properties":{"park":"Voyageurs_National_Park","id":"1183034889","title":"Natalie -- AKA Castor Ttu","accuracy":16,"date_taken":"2007-08-15 18:18:27","date_granularity":"0"},"geometry":{"type":"Point","coordinates":[-92.468211,48.302837]}},{"type":"Feature","properties":{"park":"Voyageurs_National_Park","id":"1183034649","title":"Lumiere","accuracy":16,"date_taken":"2007-08-15 18:16:13","date_granularity":"0"},"geometry":{"type":"Point","coordinates":[-92.468211,48.302837]}},{"type":"Feature","properties":{"park":"Voyageurs_National_Park","id":"1183033977","title":"In Much Better Spirits After the Nap","accuracy":16,"date_taken":"2007-08-15 18:11:17","date_granularity":"0"},"geometry":{"type":"Point","coordinates":[-92.468211,48.302837]}},{"type":"Feature","properties":{"park":"Voyageurs_National_Park","id":"1183892936","title":"Ludvig -- caught in the act?","accuracy":16,"date_taken":"2007-08-15 18:07:48","date_granularity":"0"},"geometry":{"type":"Point","coordinates":[-92.468211,48.302837]}},{"type":"Feature","properties":{"park":"Voyageurs_National_Park","id":"1183892616","title":"Fleur and Ludvig","accuracy":16,"date_taken":"2007-08-15 17:54:55","date_granularity":"0"},"geometry":{"type":"Point","coordinates":[-92.468211,48.302837]}},{"type":"Feature","properties":{"park":"Voyageurs_National_Park","id":"1183892250","title":"The Good Dock","accuracy":16,"date_taken":"2007-08-15 16:51:07","date_granularity":"0"},"geometry":{"type":"Point","coordinates":[-92.468211,48.302837]}},{"type":"Feature","properties":{"park":"Voyageurs_National_Park","id":"1183032721","title":"The Good Dock","accuracy":16,"date_taken":"2007-08-15 16:50:59","date_granularity":"0"},"geometry":{"type":"Point","coordinates":[-92.468211,48.302837]}},{"type":"Feature","properties":{"park":"Voyageurs_National_Park","id":"1183891806","title":"Tilted a bit to the right, she did","accuracy":16,"date_taken":"2007-08-15 16:50:45","date_granularity":"0"},"geometry":{"type":"Point","coordinates":[-92.468211,48.302837]}},{"type":"Feature","properties":{"park":"Voyageurs_National_Park","id":"1183031849","title":"Is this the pot we need?","accuracy":16,"date_taken":"2007-08-15 13:02:27","date_granularity":"0"},"geometry":{"type":"Point","coordinates":[-92.468211,48.302837]}},{"type":"Feature","properties":{"park":"Voyageurs_National_Park","id":"1159937939","title":"Preparing Lunch After the Paddle","accuracy":16,"date_taken":"2007-08-15 13:04:11","date_granularity":"0"},"geometry":{"type":"Point","coordinates":[-92.468211,48.302837]}},{"type":"Feature","properties":{"park":"Voyageurs_National_Park","id":"1160793604","title":"It Must Be Something with Les Voyageurs...","accuracy":16,"date_taken":"2007-08-15 12:57:58","date_granularity":"0"},"geometry":{"type":"Point","coordinates":[-92.468211,48.302837]}},{"type":"Feature","properties":{"park":"Voyageurs_National_Park","id":"1159936971","title":"Crapped Out","accuracy":16,"date_taken":"2007-08-15 12:52:05","date_granularity":"0"},"geometry":{"type":"Point","coordinates":[-92.468211,48.302837]}},{"type":"Feature","properties":{"park":"Voyageurs_National_Park","id":"547822165","title":"Beware the Namakan Perch","accuracy":15,"date_taken":"2007-06-08 15:57:35","date_granularity":"0"},"geometry":{"type":"Point","coordinates":[-92.510064,48.421682]}},{"type":"Feature","properties":{"park":"Voyageurs_National_Park","id":"417168092","title":"Garet and Skippy","accuracy":15,"date_taken":"2004-11-25 12:11:55","date_granularity":"0"},"geometry":{"type":"Point","coordinates":[-93.170006,48.580809]}},{"type":"Feature","properties":{"park":"Voyageurs_National_Park","id":"417046059","title":"Skippy on the dock","accuracy":15,"date_taken":"2003-04-19 17:55:19","date_granularity":"0"},"geometry":{"type":"Point","coordinates":[-93.170006,48.580809]}},{"type":"Feature","properties":{"park":"Voyageurs_National_Park","id":"260842795","title":"Brown's Bay View campsite, Voyageurs NP","accuracy":15,"date_taken":"2005-09-23 00:00:00","date_granularity":"0"},"geometry":{"type":"Point","coordinates":[-92.546918,48.371218]}},{"type":"Feature","properties":{"park":"Voyageurs_National_Park","id":"67353582","title":"Oberholtzer Trail","accuracy":16,"date_taken":"2005-10-15 10:57:43","date_granularity":"0"},"geometry":{"type":"Point","coordinates":[-93.160629,48.583399]}},{"type":"Feature","properties":{"park":"Voyageurs_National_Park","id":"52852901","title":"VNP Trail","accuracy":16,"date_taken":"2005-10-15 10:07:00","date_granularity":"0"},"geometry":{"type":"Point","coordinates":[-93.160629,48.583399]}},{"type":"Feature","properties":{"park":"Voyageurs_National_Park","id":"52852902","title":"Rainy Lake","accuracy":16,"date_taken":"2005-10-15 10:09:19","date_granularity":"0"},"geometry":{"type":"Point","coordinates":[-93.160629,48.583399]}},{"type":"Feature","properties":{"park":"Voyageurs_National_Park","id":"52852903","title":"VNP foliage","accuracy":16,"date_taken":"2005-10-15 11:07:06","date_granularity":"0"},"geometry":{"type":"Point","coordinates":[-93.160629,48.583399]}}]}