{"type":"FeatureCollection","features":[{"type":"Feature","properties":{"park":"National_Park_of_American_Samoa","id":"4001789365","title":"DAZ_4971","accuracy":16,"date_taken":"2009-10-10 17:59:06","date_granularity":"0"},"geometry":{"type":"Point","coordinates":[-170.699687,-14.270621]}},{"type":"Feature","properties":{"park":"National_Park_of_American_Samoa","id":"4002550486","title":"DAZ_4968","accuracy":16,"date_taken":"2009-10-10 17:49:16","date_granularity":"0"},"geometry":{"type":"Point","coordinates":[-170.703034,-14.273112]}},{"type":"Feature","properties":{"park":"National_Park_of_American_Samoa","id":"4002550160","title":"DAZ_4966","accuracy":16,"date_taken":"2009-10-10 17:03:20","date_granularity":"0"},"geometry":{"type":"Point","coordinates":[-170.683132,-14.278877]}},{"type":"Feature","properties":{"park":"National_Park_of_American_Samoa","id":"4002549840","title":"DAZ_4967","accuracy":16,"date_taken":"2009-10-10 17:41:26","date_granularity":"0"},"geometry":{"type":"Point","coordinates":[-170.698453,-14.27425]}},{"type":"Feature","properties":{"park":"National_Park_of_American_Samoa","id":"3963542742","title":"","accuracy":16,"date_taken":"2009-09-28 02:15:55","date_granularity":"0"},"geometry":{"type":"Point","coordinates":[-170.621628,-14.269374]}},{"type":"Feature","properties":{"park":"National_Park_of_American_Samoa","id":"3963542248","title":"","accuracy":16,"date_taken":"2009-09-28 02:12:00","date_granularity":"0"},"geometry":{"type":"Point","coordinates":[-170.621628,-14.269374]}},{"type":"Feature","properties":{"park":"National_Park_of_American_Samoa","id":"3963541778","title":"","accuracy":16,"date_taken":"2009-09-28 02:09:37","date_granularity":"0"},"geometry":{"type":"Point","coordinates":[-170.621628,-14.269374]}},{"type":"Feature","properties":{"park":"National_Park_of_American_Samoa","id":"3963541316","title":"Fruit bat","accuracy":16,"date_taken":"2009-09-28 02:08:22","date_granularity":"0"},"geometry":{"type":"Point","coordinates":[-170.621628,-14.269374]}},{"type":"Feature","properties":{"park":"National_Park_of_American_Samoa","id":"3962764637","title":"","accuracy":16,"date_taken":"2009-09-28 02:07:48","date_granularity":"0"},"geometry":{"type":"Point","coordinates":[-170.621628,-14.269374]}},{"type":"Feature","properties":{"park":"National_Park_of_American_Samoa","id":"3962764157","title":"","accuracy":16,"date_taken":"2009-09-28 01:58:58","date_granularity":"0"},"geometry":{"type":"Point","coordinates":[-170.621628,-14.269374]}},{"type":"Feature","properties":{"park":"National_Park_of_American_Samoa","id":"3962763681","title":"","accuracy":16,"date_taken":"2009-09-28 01:58:53","date_granularity":"0"},"geometry":{"type":"Point","coordinates":[-170.621628,-14.269374]}},{"type":"Feature","properties":{"park":"National_Park_of_American_Samoa","id":"3963539432","title":"","accuracy":16,"date_taken":"2009-09-28 01:58:38","date_granularity":"0"},"geometry":{"type":"Point","coordinates":[-170.621628,-14.269374]}},{"type":"Feature","properties":{"park":"National_Park_of_American_Samoa","id":"3962761971","title":"Emiliano","accuracy":16,"date_taken":"2009-09-28 01:48:05","date_granularity":"0"},"geometry":{"type":"Point","coordinates":[-170.621628,-14.269374]}},{"type":"Feature","properties":{"park":"National_Park_of_American_Samoa","id":"3963537710","title":"","accuracy":16,"date_taken":"2009-09-28 01:45:11","date_granularity":"0"},"geometry":{"type":"Point","coordinates":[-170.621628,-14.269374]}},{"type":"Feature","properties":{"park":"National_Park_of_American_Samoa","id":"3962761117","title":"The bar from the beach","accuracy":16,"date_taken":"2009-09-28 01:07:15","date_granularity":"0"},"geometry":{"type":"Point","coordinates":[-170.621628,-14.269374]}},{"type":"Feature","properties":{"park":"National_Park_of_American_Samoa","id":"3962760659","title":"Ken and Ernesto","accuracy":16,"date_taken":"2009-09-28 01:06:55","date_granularity":"0"},"geometry":{"type":"Point","coordinates":[-170.621628,-14.269374]}},{"type":"Feature","properties":{"park":"National_Park_of_American_Samoa","id":"3962759799","title":"At Tisa's Barefoot Bar","accuracy":16,"date_taken":"2009-09-28 01:06:22","date_granularity":"0"},"geometry":{"type":"Point","coordinates":[-170.621628,-14.269374]}},{"type":"Feature","properties":{"park":"National_Park_of_American_Samoa","id":"3957496883","title":"Passing clouds","accuracy":16,"date_taken":"2009-09-27 01:06:37","date_granularity":"0"},"geometry":{"type":"Point","coordinates":[-170.673981,-14.25307]}},{"type":"Feature","properties":{"park":"National_Park_of_American_Samoa","id":"3957496665","title":"More palm trees","accuracy":16,"date_taken":"2009-09-27 00:44:32","date_granularity":"0"},"geometry":{"type":"Point","coordinates":[-170.673981,-14.25307]}},{"type":"Feature","properties":{"park":"National_Park_of_American_Samoa","id":"3957496407","title":"","accuracy":16,"date_taken":"2009-09-27 00:44:18","date_granularity":"0"},"geometry":{"type":"Point","coordinates":[-170.673981,-14.25307]}},{"type":"Feature","properties":{"park":"National_Park_of_American_Samoa","id":"3957496155","title":"Puppies with the Blueskymobile","accuracy":16,"date_taken":"2009-09-27 00:44:07","date_granularity":"0"},"geometry":{"type":"Point","coordinates":[-170.673981,-14.25307]}},{"type":"Feature","properties":{"park":"National_Park_of_American_Samoa","id":"3957495927","title":"Breakers","accuracy":16,"date_taken":"2009-09-27 00:43:29","date_granularity":"0"},"geometry":{"type":"Point","coordinates":[-170.673981,-14.25307]}},{"type":"Feature","properties":{"park":"National_Park_of_American_Samoa","id":"3957495633","title":"","accuracy":16,"date_taken":"2009-09-27 00:43:02","date_granularity":"0"},"geometry":{"type":"Point","coordinates":[-170.673981,-14.25307]}},{"type":"Feature","properties":{"park":"National_Park_of_American_Samoa","id":"3957495125","title":"...if sickly","accuracy":16,"date_taken":"2009-09-27 00:42:08","date_granularity":"0"},"geometry":{"type":"Point","coordinates":[-170.673981,-14.25307]}},{"type":"Feature","properties":{"park":"National_Park_of_American_Samoa","id":"3958270992","title":"At least they're born sweet","accuracy":16,"date_taken":"2009-09-27 00:41:30","date_granularity":"0"},"geometry":{"type":"Point","coordinates":[-170.673981,-14.25307]}},{"type":"Feature","properties":{"park":"National_Park_of_American_Samoa","id":"3957494673","title":"Breakers Point","accuracy":16,"date_taken":"2009-09-27 00:39:40","date_granularity":"0"},"geometry":{"type":"Point","coordinates":[-170.673981,-14.25307]}},{"type":"Feature","properties":{"park":"National_Park_of_American_Samoa","id":"3957494463","title":"Tern?","accuracy":16,"date_taken":"2009-09-27 00:12:35","date_granularity":"0"},"geometry":{"type":"Point","coordinates":[-170.673981,-14.25307]}},{"type":"Feature","properties":{"park":"National_Park_of_American_Samoa","id":"3957494325","title":"Looking northeast","accuracy":16,"date_taken":"2009-09-27 00:10:52","date_granularity":"0"},"geometry":{"type":"Point","coordinates":[-170.673981,-14.25307]}},{"type":"Feature","properties":{"park":"National_Park_of_American_Samoa","id":"3958270182","title":"Funny leaves","accuracy":16,"date_taken":"2009-09-27 00:02:10","date_granularity":"0"},"geometry":{"type":"Point","coordinates":[-170.673981,-14.25307]}},{"type":"Feature","properties":{"park":"National_Park_of_American_Samoa","id":"3958269978","title":"Ernesto","accuracy":16,"date_taken":"2009-09-26 23:57:45","date_granularity":"0"},"geometry":{"type":"Point","coordinates":[-170.673981,-14.25307]}},{"type":"Feature","properties":{"park":"National_Park_of_American_Samoa","id":"3958269780","title":"Water breaking on Lower Sauma","accuracy":16,"date_taken":"2009-09-26 23:56:29","date_granularity":"0"},"geometry":{"type":"Point","coordinates":[-170.673981,-14.25307]}},{"type":"Feature","properties":{"park":"National_Park_of_American_Samoa","id":"3957493335","title":"Rock pools","accuracy":16,"date_taken":"2009-09-26 23:56:02","date_granularity":"0"},"geometry":{"type":"Point","coordinates":[-170.673981,-14.25307]}},{"type":"Feature","properties":{"park":"National_Park_of_American_Samoa","id":"3957493105","title":"Outcrop","accuracy":16,"date_taken":"2009-09-26 23:54:42","date_granularity":"0"},"geometry":{"type":"Point","coordinates":[-170.673981,-14.25307]}},{"type":"Feature","properties":{"park":"National_Park_of_American_Samoa","id":"3957492891","title":"Ernesto","accuracy":16,"date_taken":"2009-09-26 23:52:50","date_granularity":"0"},"geometry":{"type":"Point","coordinates":[-170.673981,-14.25307]}},{"type":"Feature","properties":{"park":"National_Park_of_American_Samoa","id":"3958268708","title":"Fale in Vatia","accuracy":16,"date_taken":"2009-09-26 23:19:37","date_granularity":"0"},"geometry":{"type":"Point","coordinates":[-170.673981,-14.25307]}},{"type":"Feature","properties":{"park":"National_Park_of_American_Samoa","id":"3958268494","title":"Walking the shoreline","accuracy":16,"date_taken":"2009-09-26 23:13:11","date_granularity":"0"},"geometry":{"type":"Point","coordinates":[-170.673981,-14.25307]}},{"type":"Feature","properties":{"park":"National_Park_of_American_Samoa","id":"3958268106","title":"A clear view","accuracy":16,"date_taken":"2009-09-26 23:03:41","date_granularity":"0"},"geometry":{"type":"Point","coordinates":[-170.673981,-14.25307]}},{"type":"Feature","properties":{"park":"National_Park_of_American_Samoa","id":"3958267774","title":"Traditional Samoan activities","accuracy":16,"date_taken":"2009-09-26 23:02:51","date_granularity":"0"},"geometry":{"type":"Point","coordinates":[-170.673981,-14.25307]}},{"type":"Feature","properties":{"park":"National_Park_of_American_Samoa","id":"3957491033","title":"From Yellowstone to Samoa","accuracy":16,"date_taken":"2009-09-26 22:53:28","date_granularity":"0"},"geometry":{"type":"Point","coordinates":[-170.673981,-14.25307]}},{"type":"Feature","properties":{"park":"National_Park_of_American_Samoa","id":"3958267114","title":"Blueskymobile","accuracy":16,"date_taken":"2009-09-26 22:51:38","date_granularity":"0"},"geometry":{"type":"Point","coordinates":[-170.673981,-14.25307]}},{"type":"Feature","properties":{"park":"National_Park_of_American_Samoa","id":"3957490569","title":"\"The Heart of Polynesia\"","accuracy":16,"date_taken":"2009-09-26 22:51:22","date_granularity":"0"},"geometry":{"type":"Point","coordinates":[-170.673981,-14.25307]}},{"type":"Feature","properties":{"park":"National_Park_of_American_Samoa","id":"3957490351","title":"Pago Pago","accuracy":16,"date_taken":"2009-09-26 22:40:18","date_granularity":"0"},"geometry":{"type":"Point","coordinates":[-170.673981,-14.25307]}},{"type":"Feature","properties":{"park":"National_Park_of_American_Samoa","id":"3957490207","title":"The canneries","accuracy":16,"date_taken":"2009-09-26 22:29:34","date_granularity":"0"},"geometry":{"type":"Point","coordinates":[-170.673981,-14.25307]}},{"type":"Feature","properties":{"park":"National_Park_of_American_Samoa","id":"3957490015","title":"Boats moored in Pago Pago harbor","accuracy":16,"date_taken":"2009-09-26 22:28:47","date_granularity":"0"},"geometry":{"type":"Point","coordinates":[-170.673981,-14.25307]}},{"type":"Feature","properties":{"park":"National_Park_of_American_Samoa","id":"3958266088","title":"Where we get our sustenance","accuracy":16,"date_taken":"2009-09-26 22:24:06","date_granularity":"0"},"geometry":{"type":"Point","coordinates":[-170.673981,-14.25307]}},{"type":"Feature","properties":{"park":"National_Park_of_American_Samoa","id":"3957489375","title":"Most depressing PSA EVER","accuracy":16,"date_taken":"2009-09-26 22:17:27","date_granularity":"0"},"geometry":{"type":"Point","coordinates":[-170.673981,-14.25307]}},{"type":"Feature","properties":{"park":"National_Park_of_American_Samoa","id":"3957489161","title":"Fruit stand","accuracy":16,"date_taken":"2009-09-26 22:13:32","date_granularity":"0"},"geometry":{"type":"Point","coordinates":[-170.673981,-14.25307]}},{"type":"Feature","properties":{"park":"National_Park_of_American_Samoa","id":"3958265264","title":"Driving by my office in Lafou","accuracy":16,"date_taken":"2009-09-26 22:11:00","date_granularity":"0"},"geometry":{"type":"Point","coordinates":[-170.673981,-14.25307]}},{"type":"Feature","properties":{"park":"National_Park_of_American_Samoa","id":"3321762028","title":"Pago Pago Cemetary","accuracy":16,"date_taken":"2009-02-19 15:55:58","date_granularity":"0"},"geometry":{"type":"Point","coordinates":[-170.694975,-14.270789]}},{"type":"Feature","properties":{"park":"National_Park_of_American_Samoa","id":"3321760534","title":"Pago Pago Resort","accuracy":16,"date_taken":"2009-02-19 17:26:30","date_granularity":"0"},"geometry":{"type":"Point","coordinates":[-170.68175,-14.278211]}},{"type":"Feature","properties":{"park":"National_Park_of_American_Samoa","id":"3321743472","title":"Pago Pago Beach","accuracy":16,"date_taken":"2009-02-19 17:25:59","date_granularity":"0"},"geometry":{"type":"Point","coordinates":[-170.681725,-14.278228]}},{"type":"Feature","properties":{"park":"National_Park_of_American_Samoa","id":"3321734858","title":"Pago Pago Ruins","accuracy":16,"date_taken":"2009-02-19 14:47:35","date_granularity":"0"},"geometry":{"type":"Point","coordinates":[-170.697436,-14.273975]}},{"type":"Feature","properties":{"park":"National_Park_of_American_Samoa","id":"3321729834","title":"Pago Pago Hotel","accuracy":16,"date_taken":"2009-02-19 17:37:14","date_granularity":"0"},"geometry":{"type":"Point","coordinates":[-170.682456,-14.276819]}},{"type":"Feature","properties":{"park":"National_Park_of_American_Samoa","id":"3321725554","title":"Pago Pago Hut","accuracy":16,"date_taken":"2009-02-19 15:04:21","date_granularity":"0"},"geometry":{"type":"Point","coordinates":[-170.703589,-14.272103]}},{"type":"Feature","properties":{"park":"National_Park_of_American_Samoa","id":"3321714044","title":"Pago Pago Market","accuracy":16,"date_taken":"2009-02-19 15:14:14","date_granularity":"0"},"geometry":{"type":"Point","coordinates":[-170.699275,-14.270686]}},{"type":"Feature","properties":{"park":"National_Park_of_American_Samoa","id":"3321712602","title":"American Samoa Town","accuracy":16,"date_taken":"2009-02-19 14:31:44","date_granularity":"0"},"geometry":{"type":"Point","coordinates":[-170.690547,-14.278306]}},{"type":"Feature","properties":{"park":"National_Park_of_American_Samoa","id":"3321700562","title":"20090219QM2_D09_PagoPago095","accuracy":16,"date_taken":"2009-02-19 17:58:00","date_granularity":"0"},"geometry":{"type":"Point","coordinates":[-170.686503,-14.276947]}},{"type":"Feature","properties":{"park":"National_Park_of_American_Samoa","id":"3321699094","title":"20090219QM2_D09_PagoPago015","accuracy":16,"date_taken":"2009-02-19 15:00:30","date_granularity":"0"},"geometry":{"type":"Point","coordinates":[-170.702986,-14.273131]}},{"type":"Feature","properties":{"park":"National_Park_of_American_Samoa","id":"3321685160","title":"20090219QM2_D09_PagoPago051","accuracy":16,"date_taken":"2009-02-19 16:09:57","date_granularity":"0"},"geometry":{"type":"Point","coordinates":[-170.702156,-14.271186]}},{"type":"Feature","properties":{"park":"National_Park_of_American_Samoa","id":"3320851131","title":"20090219QM2_D09_PagoPago060","accuracy":16,"date_taken":"2009-02-19 16:46:15","date_granularity":"0"},"geometry":{"type":"Point","coordinates":[-170.689511,-14.277453]}},{"type":"Feature","properties":{"park":"National_Park_of_American_Samoa","id":"3321675428","title":"20090219QM2_D09_PagoPago050","accuracy":16,"date_taken":"2009-02-19 16:09:02","date_granularity":"0"},"geometry":{"type":"Point","coordinates":[-170.701569,-14.271058]}},{"type":"Feature","properties":{"park":"National_Park_of_American_Samoa","id":"3320831969","title":"20090219QM2_D09_PagoPago092","accuracy":16,"date_taken":"2009-02-19 17:32:32","date_granularity":"0"},"geometry":{"type":"Point","coordinates":[-170.681797,-14.277947]}},{"type":"Feature","properties":{"park":"National_Park_of_American_Samoa","id":"3320821449","title":"20090219QM2_D09_PagoPago011","accuracy":16,"date_taken":"2009-02-19 14:43:02","date_granularity":"0"},"geometry":{"type":"Point","coordinates":[-170.695228,-14.274747]}},{"type":"Feature","properties":{"park":"National_Park_of_American_Samoa","id":"3321648334","title":"20090219QM2_D09_PagoPago061","accuracy":16,"date_taken":"2009-02-19 16:46:51","date_granularity":"0"},"geometry":{"type":"Point","coordinates":[-170.689622,-14.277781]}},{"type":"Feature","properties":{"park":"National_Park_of_American_Samoa","id":"3320817837","title":"20090219QM2_D09_PagoPago001","accuracy":16,"date_taken":"2009-02-19 14:21:19","date_granularity":"0"},"geometry":{"type":"Point","coordinates":[-170.687978,-14.277964]}},{"type":"Feature","properties":{"park":"National_Park_of_American_Samoa","id":"3321646316","title":"20090219QM2_D09_PagoPago084","accuracy":16,"date_taken":"2009-02-19 17:28:47","date_granularity":"0"},"geometry":{"type":"Point","coordinates":[-170.681786,-14.278206]}},{"type":"Feature","properties":{"park":"National_Park_of_American_Samoa","id":"3320815787","title":"20090219QM2_D09_PagoPago053","accuracy":16,"date_taken":"2009-02-19 16:20:32","date_granularity":"0"},"geometry":{"type":"Point","coordinates":[-170.702236,-14.273769]}},{"type":"Feature","properties":{"park":"National_Park_of_American_Samoa","id":"3320798921","title":"20090219QM2_D09_PagoPago020","accuracy":16,"date_taken":"2009-02-19 15:12:29","date_granularity":"0"},"geometry":{"type":"Point","coordinates":[-170.699464,-14.271161]}},{"type":"Feature","properties":{"park":"National_Park_of_American_Samoa","id":"2847313651","title":"American-Samoa","accuracy":16,"date_taken":"2008-08-15 01:55:43","date_granularity":"0"},"geometry":{"type":"Point","coordinates":[-170.132217,-14.270972]}},{"type":"Feature","properties":{"park":"National_Park_of_American_Samoa","id":"2312904757","title":"American Samoa","accuracy":16,"date_taken":"2007-07-22 20:58:33","date_granularity":"0"},"geometry":{"type":"Point","coordinates":[-170.68016,-14.269207]}},{"type":"Feature","properties":{"park":"National_Park_of_American_Samoa","id":"298942972","title":"Rainmaker from the yacht club","accuracy":16,"date_taken":"2006-11-13 20:59:06","date_granularity":"0"},"geometry":{"type":"Point","coordinates":[-170.681705,-14.281502]}},{"type":"Feature","properties":{"park":"National_Park_of_American_Samoa","id":"298942039","title":"Lunch at Pago Pago Yacht Club","accuracy":16,"date_taken":"2006-11-13 19:21:35","date_granularity":"0"},"geometry":{"type":"Point","coordinates":[-170.681705,-14.281502]}},{"type":"Feature","properties":{"park":"National_Park_of_American_Samoa","id":"5447526269","title":"Fruit Bats (68)","accuracy":16,"date_taken":"2010-02-16 08:14:01","date_granularity":"0"},"geometry":{"type":"Point","coordinates":[-170.683781,-14.277494]}},{"type":"Feature","properties":{"park":"National_Park_of_American_Samoa","id":"5448130602","title":".","accuracy":16,"date_taken":"2011-01-06 19:54:04","date_granularity":"0"},"geometry":{"type":"Point","coordinates":[-170.683781,-14.277494]}},{"type":"Feature","properties":{"park":"National_Park_of_American_Samoa","id":"5448130292","title":".","accuracy":16,"date_taken":"2011-01-06 19:53:38","date_granularity":"0"},"geometry":{"type":"Point","coordinates":[-170.683781,-14.277494]}},{"type":"Feature","properties":{"park":"National_Park_of_American_Samoa","id":"5448129694","title":".","accuracy":16,"date_taken":"2011-01-06 19:53:17","date_granularity":"0"},"geometry":{"type":"Point","coordinates":[-170.683781,-14.277494]}},{"type":"Feature","properties":{"park":"National_Park_of_American_Samoa","id":"5447524553","title":".","accuracy":16,"date_taken":"2011-01-06 19:52:56","date_granularity":"0"},"geometry":{"type":"Point","coordinates":[-170.683781,-14.277494]}},{"type":"Feature","properties":{"park":"National_Park_of_American_Samoa","id":"5447524005","title":".","accuracy":16,"date_taken":"2011-01-06 19:52:44","date_granularity":"0"},"geometry":{"type":"Point","coordinates":[-170.683781,-14.277494]}},{"type":"Feature","properties":{"park":"National_Park_of_American_Samoa","id":"5447523711","title":".","accuracy":16,"date_taken":"2011-01-06 19:51:43","date_granularity":"0"},"geometry":{"type":"Point","coordinates":[-170.683781,-14.277494]}},{"type":"Feature","properties":{"park":"National_Park_of_American_Samoa","id":"5447523225","title":".","accuracy":16,"date_taken":"2011-01-06 19:51:22","date_granularity":"0"},"geometry":{"type":"Point","coordinates":[-170.683781,-14.277494]}},{"type":"Feature","properties":{"park":"National_Park_of_American_Samoa","id":"5447522747","title":".","accuracy":16,"date_taken":"2011-01-06 19:51:19","date_granularity":"0"},"geometry":{"type":"Point","coordinates":[-170.683781,-14.277494]}},{"type":"Feature","properties":{"park":"National_Park_of_American_Samoa","id":"5448126696","title":".","accuracy":16,"date_taken":"2011-01-06 19:44:59","date_granularity":"0"},"geometry":{"type":"Point","coordinates":[-170.683781,-14.277494]}},{"type":"Feature","properties":{"park":"National_Park_of_American_Samoa","id":"5448126344","title":"Fruit Bats (19)","accuracy":16,"date_taken":"2011-01-06 19:44:42","date_granularity":"0"},"geometry":{"type":"Point","coordinates":[-170.683781,-14.277494]}},{"type":"Feature","properties":{"park":"National_Park_of_American_Samoa","id":"5447521115","title":".","accuracy":16,"date_taken":"2011-01-06 19:44:18","date_granularity":"0"},"geometry":{"type":"Point","coordinates":[-170.683781,-14.277494]}},{"type":"Feature","properties":{"park":"National_Park_of_American_Samoa","id":"5447520289","title":".","accuracy":16,"date_taken":"2011-01-06 19:43:47","date_granularity":"0"},"geometry":{"type":"Point","coordinates":[-170.683781,-14.277494]}},{"type":"Feature","properties":{"park":"National_Park_of_American_Samoa","id":"5447519963","title":".","accuracy":16,"date_taken":"2011-01-06 19:43:33","date_granularity":"0"},"geometry":{"type":"Point","coordinates":[-170.683781,-14.277494]}},{"type":"Feature","properties":{"park":"National_Park_of_American_Samoa","id":"5448123894","title":".","accuracy":16,"date_taken":"2011-01-06 19:43:24","date_granularity":"0"},"geometry":{"type":"Point","coordinates":[-170.683781,-14.277494]}},{"type":"Feature","properties":{"park":"National_Park_of_American_Samoa","id":"5447518841","title":".","accuracy":16,"date_taken":"2011-01-06 19:43:21","date_granularity":"0"},"geometry":{"type":"Point","coordinates":[-170.683781,-14.277494]}},{"type":"Feature","properties":{"park":"National_Park_of_American_Samoa","id":"5447518337","title":"Fruit Bats (7)","accuracy":16,"date_taken":"2011-01-06 19:35:25","date_granularity":"0"},"geometry":{"type":"Point","coordinates":[-170.683781,-14.277494]}},{"type":"Feature","properties":{"park":"National_Park_of_American_Samoa","id":"5447518045","title":".","accuracy":16,"date_taken":"2011-01-06 19:35:09","date_granularity":"0"},"geometry":{"type":"Point","coordinates":[-170.683781,-14.277494]}},{"type":"Feature","properties":{"park":"National_Park_of_American_Samoa","id":"5447516595","title":".","accuracy":16,"date_taken":"2010-12-29 20:13:21","date_granularity":"0"},"geometry":{"type":"Point","coordinates":[-170.683781,-14.277494]}},{"type":"Feature","properties":{"park":"National_Park_of_American_Samoa","id":"5448080698","title":"Fruit Bats 5","accuracy":16,"date_taken":"2011-02-15 05:03:43","date_granularity":"0"},"geometry":{"type":"Point","coordinates":[-170.683781,-14.277494]}},{"type":"Feature","properties":{"park":"National_Park_of_American_Samoa","id":"5448077856","title":"Fruit Bats 4","accuracy":16,"date_taken":"2011-02-15 05:02:03","date_granularity":"0"},"geometry":{"type":"Point","coordinates":[-170.683781,-14.277494]}},{"type":"Feature","properties":{"park":"National_Park_of_American_Samoa","id":"5447452197","title":"Fruit Bats 3","accuracy":16,"date_taken":"2011-02-15 04:49:44","date_granularity":"0"},"geometry":{"type":"Point","coordinates":[-170.683781,-14.277494]}},{"type":"Feature","properties":{"park":"National_Park_of_American_Samoa","id":"5448036464","title":"Fruit Bats 2","accuracy":16,"date_taken":"2011-02-15 04:38:03","date_granularity":"0"},"geometry":{"type":"Point","coordinates":[-170.683781,-14.277494]}},{"type":"Feature","properties":{"park":"National_Park_of_American_Samoa","id":"5447408419","title":"Fruit Bats","accuracy":16,"date_taken":"2011-02-15 04:23:29","date_granularity":"0"},"geometry":{"type":"Point","coordinates":[-170.683781,-14.277494]}},{"type":"Feature","properties":{"park":"National_Park_of_American_Samoa","id":"4606409613","title":"Sadie Thompson's Inn","accuracy":16,"date_taken":"1991-07-22 18:15:00","date_granularity":"0"},"geometry":{"type":"Point","coordinates":[-170.692777,-14.276422]}},{"type":"Feature","properties":{"park":"National_Park_of_American_Samoa","id":"4606343203","title":"910722 Sadie Thompson's in Pago Pago","accuracy":16,"date_taken":"1991-07-22 21:00:00","date_granularity":"0"},"geometry":{"type":"Point","coordinates":[-170.692777,-14.276422]}},{"type":"Feature","properties":{"park":"National_Park_of_American_Samoa","id":"4083054969","title":"Marching downhill","accuracy":16,"date_taken":"2009-11-01 22:56:08","date_granularity":"0"},"geometry":{"type":"Point","coordinates":[-170.689423,-14.26405]}},{"type":"Feature","properties":{"park":"National_Park_of_American_Samoa","id":"4083053629","title":"Back on the trail","accuracy":16,"date_taken":"2009-11-01 22:04:08","date_granularity":"0"},"geometry":{"type":"Point","coordinates":[-170.689423,-14.26405]}},{"type":"Feature","properties":{"park":"National_Park_of_American_Samoa","id":"4083052343","title":"","accuracy":16,"date_taken":"2009-11-01 21:54:25","date_granularity":"0"},"geometry":{"type":"Point","coordinates":[-170.689423,-14.26405]}},{"type":"Feature","properties":{"park":"National_Park_of_American_Samoa","id":"4083051073","title":"Map of Tutuila","accuracy":16,"date_taken":"2009-11-01 21:52:36","date_granularity":"0"},"geometry":{"type":"Point","coordinates":[-170.689423,-14.26405]}},{"type":"Feature","properties":{"park":"National_Park_of_American_Samoa","id":"4083050109","title":"Ken with hybiscus","accuracy":16,"date_taken":"2009-11-01 21:23:01","date_granularity":"0"},"geometry":{"type":"Point","coordinates":[-170.689423,-14.26405]}},{"type":"Feature","properties":{"park":"National_Park_of_American_Samoa","id":"4083808744","title":"Ken","accuracy":16,"date_taken":"2009-11-01 21:20:03","date_granularity":"0"},"geometry":{"type":"Point","coordinates":[-170.689423,-14.26405]}},{"type":"Feature","properties":{"park":"National_Park_of_American_Samoa","id":"4083046467","title":"Where we get out TV","accuracy":16,"date_taken":"2009-11-01 21:19:54","date_granularity":"0"},"geometry":{"type":"Point","coordinates":[-170.689423,-14.26405]}},{"type":"Feature","properties":{"park":"National_Park_of_American_Samoa","id":"4083808046","title":"View of the Manua islands, 60 miles to the east","accuracy":16,"date_taken":"2009-11-01 21:19:48","date_granularity":"0"},"geometry":{"type":"Point","coordinates":[-170.689423,-14.26405]}},{"type":"Feature","properties":{"park":"National_Park_of_American_Samoa","id":"4083045781","title":"View of Upolu, Western Samoa, 60 miles to the west","accuracy":16,"date_taken":"2009-11-01 21:19:41","date_granularity":"0"},"geometry":{"type":"Point","coordinates":[-170.689423,-14.26405]}},{"type":"Feature","properties":{"park":"National_Park_of_American_Samoa","id":"4083807242","title":"","accuracy":16,"date_taken":"2009-11-01 21:18:20","date_granularity":"0"},"geometry":{"type":"Point","coordinates":[-170.689423,-14.26405]}},{"type":"Feature","properties":{"park":"National_Park_of_American_Samoa","id":"4083806072","title":"","accuracy":16,"date_taken":"2009-11-01 21:17:46","date_granularity":"0"},"geometry":{"type":"Point","coordinates":[-170.689423,-14.26405]}},{"type":"Feature","properties":{"park":"National_Park_of_American_Samoa","id":"4083043773","title":"Eastern side of the harbor","accuracy":16,"date_taken":"2009-11-01 21:16:11","date_granularity":"0"},"geometry":{"type":"Point","coordinates":[-170.689423,-14.26405]}},{"type":"Feature","properties":{"park":"National_Park_of_American_Samoa","id":"4083805266","title":"Cable car equipment","accuracy":16,"date_taken":"2009-11-01 20:42:52","date_granularity":"0"},"geometry":{"type":"Point","coordinates":[-170.689423,-14.26405]}},{"type":"Feature","properties":{"park":"National_Park_of_American_Samoa","id":"4083043015","title":"Breakers Point","accuracy":16,"date_taken":"2009-11-01 20:42:32","date_granularity":"0"},"geometry":{"type":"Point","coordinates":[-170.689423,-14.26405]}},{"type":"Feature","properties":{"park":"National_Park_of_American_Samoa","id":"4083042047","title":"Boats lifted onto land by the Sept. 29th tsunami","accuracy":16,"date_taken":"2009-11-01 20:41:03","date_granularity":"0"},"geometry":{"type":"Point","coordinates":[-170.689423,-14.26405]}},{"type":"Feature","properties":{"park":"National_Park_of_American_Samoa","id":"4083801858","title":"Remnants of the cable car system","accuracy":16,"date_taken":"2009-11-01 20:39:48","date_granularity":"0"},"geometry":{"type":"Point","coordinates":[-170.689423,-14.26405]}},{"type":"Feature","properties":{"park":"National_Park_of_American_Samoa","id":"4083039661","title":"Clear afternoon on the Pacific","accuracy":16,"date_taken":"2009-11-01 20:39:37","date_granularity":"0"},"geometry":{"type":"Point","coordinates":[-170.689423,-14.26405]}},{"type":"Feature","properties":{"park":"National_Park_of_American_Samoa","id":"4083039311","title":"The bottom of Pago harbor","accuracy":16,"date_taken":"2009-11-01 20:39:31","date_granularity":"0"},"geometry":{"type":"Point","coordinates":[-170.689423,-14.26405]}},{"type":"Feature","properties":{"park":"National_Park_of_American_Samoa","id":"4083799988","title":"Norfolk Island Pine","accuracy":16,"date_taken":"2009-11-01 20:17:49","date_granularity":"0"},"geometry":{"type":"Point","coordinates":[-170.689423,-14.26405]}},{"type":"Feature","properties":{"park":"National_Park_of_American_Samoa","id":"4083798794","title":"Gross (with flower)","accuracy":16,"date_taken":"2009-11-01 20:07:25","date_granularity":"0"},"geometry":{"type":"Point","coordinates":[-170.689423,-14.26405]}},{"type":"Feature","properties":{"park":"National_Park_of_American_Samoa","id":"4057146508","title":"DAZ_5975","accuracy":16,"date_taken":"2009-10-24 16:50:36","date_granularity":"0"},"geometry":{"type":"Point","coordinates":[-170.638929,-14.281076]}},{"type":"Feature","properties":{"park":"National_Park_of_American_Samoa","id":"4056407817","title":"DAZ_5974","accuracy":16,"date_taken":"2009-10-24 16:50:04","date_granularity":"0"},"geometry":{"type":"Point","coordinates":[-170.638929,-14.281076]}},{"type":"Feature","properties":{"park":"National_Park_of_American_Samoa","id":"4057144940","title":"DAZ_5964","accuracy":16,"date_taken":"2009-10-24 16:47:59","date_granularity":"0"},"geometry":{"type":"Point","coordinates":[-170.638929,-14.281076]}},{"type":"Feature","properties":{"park":"National_Park_of_American_Samoa","id":"4057120926","title":"DAZ_5962","accuracy":16,"date_taken":"2009-10-24 16:46:55","date_granularity":"0"},"geometry":{"type":"Point","coordinates":[-170.638929,-14.281076]}},{"type":"Feature","properties":{"park":"National_Park_of_American_Samoa","id":"4056380733","title":"DAZ_5958","accuracy":16,"date_taken":"2009-10-24 15:06:25","date_granularity":"0"},"geometry":{"type":"Point","coordinates":[-170.638929,-14.281076]}},{"type":"Feature","properties":{"park":"National_Park_of_American_Samoa","id":"4056378177","title":"DAZ_5954","accuracy":16,"date_taken":"2009-10-24 13:52:48","date_granularity":"0"},"geometry":{"type":"Point","coordinates":[-170.638929,-14.281076]}},{"type":"Feature","properties":{"park":"National_Park_of_American_Samoa","id":"4056376845","title":"IMGP0370","accuracy":16,"date_taken":"2009-10-29 16:57:11","date_granularity":"0"},"geometry":{"type":"Point","coordinates":[-170.638929,-14.281076]}},{"type":"Feature","properties":{"park":"National_Park_of_American_Samoa","id":"4057112616","title":"IMGP0369","accuracy":16,"date_taken":"2009-10-29 16:55:38","date_granularity":"0"},"geometry":{"type":"Point","coordinates":[-170.638929,-14.281076]}},{"type":"Feature","properties":{"park":"National_Park_of_American_Samoa","id":"4057098658","title":"DAZ_5947","accuracy":16,"date_taken":"2009-10-24 13:17:30","date_granularity":"0"},"geometry":{"type":"Point","coordinates":[-170.71563,-14.270465]}},{"type":"Feature","properties":{"park":"National_Park_of_American_Samoa","id":"4056358181","title":"DAZ_5944","accuracy":16,"date_taken":"2009-10-24 13:11:11","date_granularity":"0"},"geometry":{"type":"Point","coordinates":[-170.71563,-14.270465]}},{"type":"Feature","properties":{"park":"National_Park_of_American_Samoa","id":"4057095414","title":"DAZ_5942","accuracy":16,"date_taken":"2009-10-24 13:10:19","date_granularity":"0"},"geometry":{"type":"Point","coordinates":[-170.71563,-14.270465]}},{"type":"Feature","properties":{"park":"National_Park_of_American_Samoa","id":"4054506536","title":"AlegaBayFromTisa'sBarefootBar","accuracy":16,"date_taken":"2009-10-28 17:42:05","date_granularity":"0"},"geometry":{"type":"Point","coordinates":[-170.638929,-14.281076]}},{"type":"Feature","properties":{"park":"National_Park_of_American_Samoa","id":"4039227594","title":"DAZ_5924","accuracy":16,"date_taken":"2009-10-23 14:20:13","date_granularity":"0"},"geometry":{"type":"Point","coordinates":[-170.663455,-14.249102]}},{"type":"Feature","properties":{"park":"National_Park_of_American_Samoa","id":"4039227012","title":"DAZ_5925","accuracy":16,"date_taken":"2009-10-23 14:16:25","date_granularity":"0"},"geometry":{"type":"Point","coordinates":[-170.661621,-14.248577]}},{"type":"Feature","properties":{"park":"National_Park_of_American_Samoa","id":"4038476087","title":"DAZ_5911","accuracy":16,"date_taken":"2009-10-23 14:08:15","date_granularity":"0"},"geometry":{"type":"Point","coordinates":[-170.661706,-14.248582]}},{"type":"Feature","properties":{"park":"National_Park_of_American_Samoa","id":"4039223990","title":"DAZ_5922","accuracy":16,"date_taken":"2009-10-23 14:26:32","date_granularity":"0"},"geometry":{"type":"Point","coordinates":[-170.669935,-14.250532]}},{"type":"Feature","properties":{"park":"National_Park_of_American_Samoa","id":"4038471517","title":"DAZ_5919","accuracy":16,"date_taken":"2009-10-23 14:49:56","date_granularity":"0"},"geometry":{"type":"Point","coordinates":[-170.652844,-14.262225]}},{"type":"Feature","properties":{"park":"National_Park_of_American_Samoa","id":"4038470785","title":"DAZ_5914","accuracy":16,"date_taken":"2009-10-23 13:34:51","date_granularity":"0"},"geometry":{"type":"Point","coordinates":[-170.65573,-14.266753]}},{"type":"Feature","properties":{"park":"National_Park_of_American_Samoa","id":"4039218610","title":"DAZ_5915","accuracy":16,"date_taken":"2009-10-23 13:27:41","date_granularity":"0"},"geometry":{"type":"Point","coordinates":[-170.662479,-14.268926]}},{"type":"Feature","properties":{"park":"National_Park_of_American_Samoa","id":"4038464945","title":"DAZ_5921","accuracy":16,"date_taken":"2009-10-23 14:28:40","date_granularity":"0"},"geometry":{"type":"Point","coordinates":[-170.669935,-14.250532]}},{"type":"Feature","properties":{"park":"National_Park_of_American_Samoa","id":"4038463299","title":"DAZ_5913","accuracy":16,"date_taken":"2009-10-23 13:52:42","date_granularity":"0"},"geometry":{"type":"Point","coordinates":[-170.65573,-14.266753]}},{"type":"Feature","properties":{"park":"National_Park_of_American_Samoa","id":"4038461295","title":"DAZ_5910","accuracy":16,"date_taken":"2009-10-23 14:10:12","date_granularity":"0"},"geometry":{"type":"Point","coordinates":[-170.661621,-14.248577]}},{"type":"Feature","properties":{"park":"National_Park_of_American_Samoa","id":"4028295748","title":"IMGP0159","accuracy":16,"date_taken":"2009-10-04 22:23:20","date_granularity":"0"},"geometry":{"type":"Point","coordinates":[-170.687327,-14.264975]}},{"type":"Feature","properties":{"park":"National_Park_of_American_Samoa","id":"4028109234","title":"IMGP0158","accuracy":16,"date_taken":"2009-10-04 22:14:53","date_granularity":"0"},"geometry":{"type":"Point","coordinates":[-170.687327,-14.264975]}},{"type":"Feature","properties":{"park":"National_Park_of_American_Samoa","id":"4027351575","title":"IMGP0157","accuracy":16,"date_taken":"2009-10-04 22:14:34","date_granularity":"0"},"geometry":{"type":"Point","coordinates":[-170.687327,-14.264975]}},{"type":"Feature","properties":{"park":"National_Park_of_American_Samoa","id":"4028102332","title":"IMGP0125","accuracy":16,"date_taken":"2009-10-04 20:39:05","date_granularity":"0"},"geometry":{"type":"Point","coordinates":[-170.687327,-14.264975]}},{"type":"Feature","properties":{"park":"National_Park_of_American_Samoa","id":"4027343013","title":"IMGP0107","accuracy":16,"date_taken":"2009-10-04 19:36:31","date_granularity":"0"},"geometry":{"type":"Point","coordinates":[-170.687756,-14.265324]}},{"type":"Feature","properties":{"park":"National_Park_of_American_Samoa","id":"4024630827","title":"Tsunami Disaster in American Samoa Sept. 2009 (249)","accuracy":16,"date_taken":"2009-09-30 00:15:10","date_granularity":"0"},"geometry":{"type":"Point","coordinates":[-170.682397,-14.280733]}},{"type":"Feature","properties":{"park":"National_Park_of_American_Samoa","id":"4025383076","title":"Tsunami Disaster in American Samoa Sept. 2009 (246)","accuracy":16,"date_taken":"2009-09-30 00:14:46","date_granularity":"0"},"geometry":{"type":"Point","coordinates":[-170.682397,-14.280733]}},{"type":"Feature","properties":{"park":"National_Park_of_American_Samoa","id":"4025381868","title":"Tsunami Disaster in American Samoa Sept. 2009 (253)","accuracy":16,"date_taken":"2009-09-29 23:39:21","date_granularity":"0"},"geometry":{"type":"Point","coordinates":[-170.682397,-14.280733]}},{"type":"Feature","properties":{"park":"National_Park_of_American_Samoa","id":"4025381536","title":"Tsunami Disaster in American Samoa Sept. 2009 (252)","accuracy":16,"date_taken":"2009-09-30 00:15:27","date_granularity":"0"},"geometry":{"type":"Point","coordinates":[-170.682397,-14.280733]}},{"type":"Feature","properties":{"park":"National_Park_of_American_Samoa","id":"4025381230","title":"Tsunami Disaster in American Samoa Sept. 2009 (251)","accuracy":16,"date_taken":"2009-09-30 00:15:24","date_granularity":"0"},"geometry":{"type":"Point","coordinates":[-170.682397,-14.280733]}},{"type":"Feature","properties":{"park":"National_Park_of_American_Samoa","id":"4024627585","title":"Tsunami Disaster in American Samoa Sept. 2009 (244)","accuracy":16,"date_taken":"2009-09-30 00:14:34","date_granularity":"0"},"geometry":{"type":"Point","coordinates":[-170.682397,-14.280733]}},{"type":"Feature","properties":{"park":"National_Park_of_American_Samoa","id":"4024627303","title":"Tsunami Disaster in American Samoa Sept. 2009 (243)","accuracy":16,"date_taken":"2009-09-30 00:14:31","date_granularity":"0"},"geometry":{"type":"Point","coordinates":[-170.682397,-14.280733]}},{"type":"Feature","properties":{"park":"National_Park_of_American_Samoa","id":"4024626967","title":"Tsunami Disaster in American Samoa Sept. 2009 (242)","accuracy":16,"date_taken":"2009-09-30 00:12:51","date_granularity":"0"},"geometry":{"type":"Point","coordinates":[-170.682397,-14.280733]}},{"type":"Feature","properties":{"park":"National_Park_of_American_Samoa","id":"4024625465","title":"Tsunami Disaster in American Samoa Sept. 2009 (241)","accuracy":16,"date_taken":"2009-09-30 00:12:15","date_granularity":"0"},"geometry":{"type":"Point","coordinates":[-170.682397,-14.280733]}},{"type":"Feature","properties":{"park":"National_Park_of_American_Samoa","id":"4024624805","title":"Tsunami Disaster in American Samoa Sept. 2009 (240)","accuracy":16,"date_taken":"2009-09-30 00:11:46","date_granularity":"0"},"geometry":{"type":"Point","coordinates":[-170.682397,-14.280733]}},{"type":"Feature","properties":{"park":"National_Park_of_American_Samoa","id":"4024623813","title":"Tsunami Disaster in American Samoa Sept. 2009 (237)","accuracy":16,"date_taken":"2009-09-30 00:11:13","date_granularity":"0"},"geometry":{"type":"Point","coordinates":[-170.682397,-14.280733]}},{"type":"Feature","properties":{"park":"National_Park_of_American_Samoa","id":"4024622579","title":"Tsunami Disaster in American Samoa Sept. 2009 (234)","accuracy":16,"date_taken":"2009-09-30 00:10:48","date_granularity":"0"},"geometry":{"type":"Point","coordinates":[-170.682397,-14.280733]}},{"type":"Feature","properties":{"park":"National_Park_of_American_Samoa","id":"4025375536","title":"Tsunami Disaster in American Samoa Sept. 2009 (233)","accuracy":16,"date_taken":"2009-09-30 00:10:43","date_granularity":"0"},"geometry":{"type":"Point","coordinates":[-170.682397,-14.280733]}},{"type":"Feature","properties":{"park":"National_Park_of_American_Samoa","id":"4024621751","title":"Tsunami Disaster in American Samoa Sept. 2009 (232)","accuracy":16,"date_taken":"2009-09-30 00:10:38","date_granularity":"0"},"geometry":{"type":"Point","coordinates":[-170.682397,-14.280733]}},{"type":"Feature","properties":{"park":"National_Park_of_American_Samoa","id":"4024621255","title":"Tsunami Disaster in American Samoa Sept. 2009 (231)","accuracy":16,"date_taken":"2009-09-30 00:10:34","date_granularity":"0"},"geometry":{"type":"Point","coordinates":[-170.682397,-14.280733]}},{"type":"Feature","properties":{"park":"National_Park_of_American_Samoa","id":"4025374108","title":"Tsunami Disaster in American Samoa Sept. 2009 (230)","accuracy":16,"date_taken":"2009-09-30 00:10:19","date_granularity":"0"},"geometry":{"type":"Point","coordinates":[-170.682397,-14.280733]}},{"type":"Feature","properties":{"park":"National_Park_of_American_Samoa","id":"4024620229","title":"Tsunami Disaster in American Samoa Sept. 2009 (229)","accuracy":16,"date_taken":"2009-09-30 00:10:13","date_granularity":"0"},"geometry":{"type":"Point","coordinates":[-170.682397,-14.280733]}},{"type":"Feature","properties":{"park":"National_Park_of_American_Samoa","id":"4025372524","title":"Tsunami Disaster in American Samoa Sept. 2009 (228)","accuracy":16,"date_taken":"2009-09-30 00:09:59","date_granularity":"0"},"geometry":{"type":"Point","coordinates":[-170.682397,-14.280733]}},{"type":"Feature","properties":{"park":"National_Park_of_American_Samoa","id":"4024618425","title":"Tsunami Disaster in American Samoa Sept. 2009 (226)","accuracy":16,"date_taken":"2009-09-30 00:09:25","date_granularity":"0"},"geometry":{"type":"Point","coordinates":[-170.682397,-14.280733]}},{"type":"Feature","properties":{"park":"National_Park_of_American_Samoa","id":"4025370302","title":"Tsunami Disaster in American Samoa Sept. 2009 (225)","accuracy":16,"date_taken":"2009-09-30 00:09:03","date_granularity":"0"},"geometry":{"type":"Point","coordinates":[-170.682397,-14.280733]}},{"type":"Feature","properties":{"park":"National_Park_of_American_Samoa","id":"4025369592","title":"Tsunami Disaster in American Samoa Sept. 2009 (223)","accuracy":16,"date_taken":"2009-09-30 00:08:53","date_granularity":"0"},"geometry":{"type":"Point","coordinates":[-170.682397,-14.280733]}},{"type":"Feature","properties":{"park":"National_Park_of_American_Samoa","id":"4024615041","title":"Tsunami Disaster in American Samoa Sept. 2009 (221)","accuracy":16,"date_taken":"2009-09-30 00:08:27","date_granularity":"0"},"geometry":{"type":"Point","coordinates":[-170.682397,-14.280733]}},{"type":"Feature","properties":{"park":"National_Park_of_American_Samoa","id":"4024614811","title":"Tsunami Disaster in American Samoa Sept. 2009 (220)","accuracy":16,"date_taken":"2009-09-30 00:08:23","date_granularity":"0"},"geometry":{"type":"Point","coordinates":[-170.682397,-14.280733]}},{"type":"Feature","properties":{"park":"National_Park_of_American_Samoa","id":"4025366964","title":"Tsunami Disaster in American Samoa Sept. 2009 (216)","accuracy":16,"date_taken":"2009-09-30 00:07:53","date_granularity":"0"},"geometry":{"type":"Point","coordinates":[-170.682397,-14.280733]}},{"type":"Feature","properties":{"park":"National_Park_of_American_Samoa","id":"4025366588","title":"Tsunami Disaster in American Samoa Sept. 2009 (215)","accuracy":16,"date_taken":"2009-09-30 00:07:50","date_granularity":"0"},"geometry":{"type":"Point","coordinates":[-170.682397,-14.280733]}},{"type":"Feature","properties":{"park":"National_Park_of_American_Samoa","id":"4025365800","title":"Tsunami Disaster in American Samoa Sept. 2009 (214)","accuracy":16,"date_taken":"2009-09-30 00:07:45","date_granularity":"0"},"geometry":{"type":"Point","coordinates":[-170.682397,-14.280733]}},{"type":"Feature","properties":{"park":"National_Park_of_American_Samoa","id":"4024612015","title":"Tsunami Disaster in American Samoa Sept. 2009 (213)","accuracy":16,"date_taken":"2009-09-30 00:07:34","date_granularity":"0"},"geometry":{"type":"Point","coordinates":[-170.682397,-14.280733]}},{"type":"Feature","properties":{"park":"National_Park_of_American_Samoa","id":"4024610407","title":"Tsunami Disaster in American Samoa Sept. 2009 (210)","accuracy":16,"date_taken":"2009-09-30 00:07:15","date_granularity":"0"},"geometry":{"type":"Point","coordinates":[-170.682397,-14.280733]}},{"type":"Feature","properties":{"park":"National_Park_of_American_Samoa","id":"4025362688","title":"Tsunami Disaster in American Samoa Sept. 2009 (208)","accuracy":16,"date_taken":"2009-09-30 00:06:57","date_granularity":"0"},"geometry":{"type":"Point","coordinates":[-170.682397,-14.280733]}},{"type":"Feature","properties":{"park":"National_Park_of_American_Samoa","id":"4024606781","title":"Tsunami Disaster in American Samoa Sept. 2009 (204)","accuracy":16,"date_taken":"2009-09-30 00:05:50","date_granularity":"0"},"geometry":{"type":"Point","coordinates":[-170.682397,-14.280733]}},{"type":"Feature","properties":{"park":"National_Park_of_American_Samoa","id":"4025359252","title":"Tsunami Disaster in American Samoa Sept. 2009 (202)","accuracy":16,"date_taken":"2009-09-30 00:04:33","date_granularity":"0"},"geometry":{"type":"Point","coordinates":[-170.682397,-14.280733]}},{"type":"Feature","properties":{"park":"National_Park_of_American_Samoa","id":"4025358166","title":"Tsunami Disaster in American Samoa Sept. 2009 (201)","accuracy":16,"date_taken":"2009-09-30 00:04:28","date_granularity":"0"},"geometry":{"type":"Point","coordinates":[-170.682397,-14.280733]}},{"type":"Feature","properties":{"park":"National_Park_of_American_Samoa","id":"4025357450","title":"Tsunami Disaster in American Samoa Sept. 2009 (200)","accuracy":16,"date_taken":"2009-09-30 00:03:55","date_granularity":"0"},"geometry":{"type":"Point","coordinates":[-170.682397,-14.280733]}},{"type":"Feature","properties":{"park":"National_Park_of_American_Samoa","id":"4025356934","title":"Tsunami Disaster in American Samoa Sept. 2009 (199)","accuracy":16,"date_taken":"2009-09-30 00:03:47","date_granularity":"0"},"geometry":{"type":"Point","coordinates":[-170.682397,-14.280733]}},{"type":"Feature","properties":{"park":"National_Park_of_American_Samoa","id":"4024603109","title":"Tsunami Disaster in American Samoa Sept. 2009 (198)","accuracy":16,"date_taken":"2009-09-30 00:03:35","date_granularity":"0"},"geometry":{"type":"Point","coordinates":[-170.682397,-14.280733]}},{"type":"Feature","properties":{"park":"National_Park_of_American_Samoa","id":"4024602013","title":"Tsunami Disaster in American Samoa Sept. 2009 (197)","accuracy":16,"date_taken":"2009-09-30 00:02:45","date_granularity":"0"},"geometry":{"type":"Point","coordinates":[-170.682397,-14.280733]}},{"type":"Feature","properties":{"park":"National_Park_of_American_Samoa","id":"4024601635","title":"Tsunami Disaster in American Samoa Sept. 2009 (196)","accuracy":16,"date_taken":"2009-09-29 23:59:57","date_granularity":"0"},"geometry":{"type":"Point","coordinates":[-170.682397,-14.280733]}},{"type":"Feature","properties":{"park":"National_Park_of_American_Samoa","id":"4025354064","title":"Tsunami Disaster in American Samoa Sept. 2009 (194)","accuracy":16,"date_taken":"2009-09-29 23:58:55","date_granularity":"0"},"geometry":{"type":"Point","coordinates":[-170.682397,-14.280733]}},{"type":"Feature","properties":{"park":"National_Park_of_American_Samoa","id":"4024600111","title":"Tsunami Disaster in American Samoa Sept. 2009 (192)","accuracy":16,"date_taken":"2009-09-29 23:57:22","date_granularity":"0"},"geometry":{"type":"Point","coordinates":[-170.682397,-14.280733]}},{"type":"Feature","properties":{"park":"National_Park_of_American_Samoa","id":"4025352834","title":"Tsunami Disaster in American Samoa Sept. 2009 (191)","accuracy":16,"date_taken":"2009-09-29 23:57:13","date_granularity":"0"},"geometry":{"type":"Point","coordinates":[-170.682397,-14.280733]}},{"type":"Feature","properties":{"park":"National_Park_of_American_Samoa","id":"4024598381","title":"Tsunami Disaster in American Samoa Sept. 2009 (185)","accuracy":16,"date_taken":"2009-09-29 23:55:52","date_granularity":"0"},"geometry":{"type":"Point","coordinates":[-170.682397,-14.280733]}},{"type":"Feature","properties":{"park":"National_Park_of_American_Samoa","id":"4025350790","title":"Tsunami Disaster in American Samoa Sept. 2009 (184)","accuracy":16,"date_taken":"2009-09-29 23:55:38","date_granularity":"0"},"geometry":{"type":"Point","coordinates":[-170.682397,-14.280733]}},{"type":"Feature","properties":{"park":"National_Park_of_American_Samoa","id":"4025348438","title":"Tsunami Disaster in American Samoa Sept. 2009 (181)","accuracy":16,"date_taken":"2009-09-29 23:43:43","date_granularity":"0"},"geometry":{"type":"Point","coordinates":[-170.682397,-14.280733]}},{"type":"Feature","properties":{"park":"National_Park_of_American_Samoa","id":"4024594481","title":"Tsunami Disaster in American Samoa Sept. 2009 (175)","accuracy":16,"date_taken":"2009-09-29 23:40:00","date_granularity":"0"},"geometry":{"type":"Point","coordinates":[-170.682397,-14.280733]}},{"type":"Feature","properties":{"park":"National_Park_of_American_Samoa","id":"4025346206","title":"Tsunami Disaster in American Samoa Sept. 2009 (173)","accuracy":16,"date_taken":"2009-09-29 23:39:46","date_granularity":"0"},"geometry":{"type":"Point","coordinates":[-170.682397,-14.280733]}},{"type":"Feature","properties":{"park":"National_Park_of_American_Samoa","id":"4024591793","title":"Tsunami Disaster in American Samoa Sept. 2009 (179)","accuracy":16,"date_taken":"2009-09-29 23:42:49","date_granularity":"0"},"geometry":{"type":"Point","coordinates":[-170.682397,-14.280733]}},{"type":"Feature","properties":{"park":"National_Park_of_American_Samoa","id":"4025344178","title":"Tsunami Disaster in American Samoa Sept. 2009 (178)","accuracy":16,"date_taken":"2009-09-29 23:42:37","date_granularity":"0"},"geometry":{"type":"Point","coordinates":[-170.682397,-14.280733]}},{"type":"Feature","properties":{"park":"National_Park_of_American_Samoa","id":"4024590681","title":"Tsunami Disaster in American Samoa Sept. 2009 (172)","accuracy":16,"date_taken":"2009-09-30 00:22:36","date_granularity":"0"},"geometry":{"type":"Point","coordinates":[-170.682397,-14.280733]}},{"type":"Feature","properties":{"park":"National_Park_of_American_Samoa","id":"4025343044","title":"Tsunami Disaster in American Samoa Sept. 2009 (171)","accuracy":16,"date_taken":"2009-09-30 00:22:34","date_granularity":"0"},"geometry":{"type":"Point","coordinates":[-170.682397,-14.280733]}},{"type":"Feature","properties":{"park":"National_Park_of_American_Samoa","id":"4025340646","title":"Tsunami Disaster in American Samoa Sept. 2009 (167)","accuracy":16,"date_taken":"2009-09-30 00:22:10","date_granularity":"0"},"geometry":{"type":"Point","coordinates":[-170.682397,-14.280733]}},{"type":"Feature","properties":{"park":"National_Park_of_American_Samoa","id":"4025339742","title":"Tsunami Disaster in American Samoa Sept. 2009 (166)","accuracy":16,"date_taken":"2009-09-30 00:22:08","date_granularity":"0"},"geometry":{"type":"Point","coordinates":[-170.682397,-14.280733]}},{"type":"Feature","properties":{"park":"National_Park_of_American_Samoa","id":"4025338960","title":"Tsunami Disaster in American Samoa Sept. 2009 (165)","accuracy":16,"date_taken":"2009-09-30 00:22:05","date_granularity":"0"},"geometry":{"type":"Point","coordinates":[-170.682397,-14.280733]}},{"type":"Feature","properties":{"park":"National_Park_of_American_Samoa","id":"4025338274","title":"Tsunami Disaster in American Samoa Sept. 2009 (164)","accuracy":16,"date_taken":"2009-09-30 00:22:02","date_granularity":"0"},"geometry":{"type":"Point","coordinates":[-170.682397,-14.280733]}},{"type":"Feature","properties":{"park":"National_Park_of_American_Samoa","id":"4025337740","title":"Tsunami Disaster in American Samoa Sept. 2009 (163)","accuracy":16,"date_taken":"2009-09-30 00:21:42","date_granularity":"0"},"geometry":{"type":"Point","coordinates":[-170.682397,-14.280733]}},{"type":"Feature","properties":{"park":"National_Park_of_American_Samoa","id":"4025337200","title":"Tsunami Disaster in American Samoa Sept. 2009 (162)","accuracy":16,"date_taken":"2009-09-30 00:21:40","date_granularity":"0"},"geometry":{"type":"Point","coordinates":[-170.682397,-14.280733]}},{"type":"Feature","properties":{"park":"National_Park_of_American_Samoa","id":"4025336690","title":"Tsunami Disaster in American Samoa Sept. 2009 (161)","accuracy":16,"date_taken":"2009-09-30 00:21:38","date_granularity":"0"},"geometry":{"type":"Point","coordinates":[-170.682397,-14.280733]}},{"type":"Feature","properties":{"park":"National_Park_of_American_Samoa","id":"4025335906","title":"Tsunami Disaster in American Samoa Sept. 2009 (160)","accuracy":16,"date_taken":"2009-09-30 00:21:36","date_granularity":"0"},"geometry":{"type":"Point","coordinates":[-170.682397,-14.280733]}},{"type":"Feature","properties":{"park":"National_Park_of_American_Samoa","id":"4024582203","title":"Tsunami Disaster in American Samoa Sept. 2009 (159)","accuracy":16,"date_taken":"2009-09-30 00:21:34","date_granularity":"0"},"geometry":{"type":"Point","coordinates":[-170.682397,-14.280733]}},{"type":"Feature","properties":{"park":"National_Park_of_American_Samoa","id":"4024581681","title":"Tsunami Disaster in American Samoa Sept. 2009 (153)","accuracy":16,"date_taken":"2009-09-30 00:21:09","date_granularity":"0"},"geometry":{"type":"Point","coordinates":[-170.682397,-14.280733]}},{"type":"Feature","properties":{"park":"National_Park_of_American_Samoa","id":"4025334516","title":"Tsunami Disaster in American Samoa Sept. 2009 (152)","accuracy":16,"date_taken":"2009-09-30 00:21:07","date_granularity":"0"},"geometry":{"type":"Point","coordinates":[-170.682397,-14.280733]}},{"type":"Feature","properties":{"park":"National_Park_of_American_Samoa","id":"4024581085","title":"Tsunami Disaster in American Samoa Sept. 2009 (158)","accuracy":16,"date_taken":"2009-09-30 00:21:33","date_granularity":"0"},"geometry":{"type":"Point","coordinates":[-170.682397,-14.280733]}},{"type":"Feature","properties":{"park":"National_Park_of_American_Samoa","id":"4024580291","title":"Tsunami Disaster in American Samoa Sept. 2009 (157)","accuracy":16,"date_taken":"2009-09-30 00:21:24","date_granularity":"0"},"geometry":{"type":"Point","coordinates":[-170.682397,-14.280733]}},{"type":"Feature","properties":{"park":"National_Park_of_American_Samoa","id":"4024579837","title":"Tsunami Disaster in American Samoa Sept. 2009 (156)","accuracy":16,"date_taken":"2009-09-30 00:21:18","date_granularity":"0"},"geometry":{"type":"Point","coordinates":[-170.682397,-14.280733]}},{"type":"Feature","properties":{"park":"National_Park_of_American_Samoa","id":"4024579405","title":"Tsunami Disaster in American Samoa Sept. 2009 (155)","accuracy":16,"date_taken":"2009-09-30 00:21:14","date_granularity":"0"},"geometry":{"type":"Point","coordinates":[-170.682397,-14.280733]}},{"type":"Feature","properties":{"park":"National_Park_of_American_Samoa","id":"4025331796","title":"Tsunami Disaster in American Samoa Sept. 2009 (154)","accuracy":16,"date_taken":"2009-09-30 00:21:10","date_granularity":"0"},"geometry":{"type":"Point","coordinates":[-170.682397,-14.280733]}},{"type":"Feature","properties":{"park":"National_Park_of_American_Samoa","id":"4025331028","title":"Tsunami Disaster in American Samoa Sept. 2009 (151)","accuracy":16,"date_taken":"2009-09-30 00:20:58","date_granularity":"0"},"geometry":{"type":"Point","coordinates":[-170.682397,-14.280733]}},{"type":"Feature","properties":{"park":"National_Park_of_American_Samoa","id":"4025329510","title":"Tsunami Disaster in American Samoa Sept. 2009 (149)","accuracy":16,"date_taken":"2009-09-30 00:20:52","date_granularity":"0"},"geometry":{"type":"Point","coordinates":[-170.682397,-14.280733]}},{"type":"Feature","properties":{"park":"National_Park_of_American_Samoa","id":"4024575969","title":"Tsunami Disaster in American Samoa Sept. 2009 (146)","accuracy":16,"date_taken":"2009-09-30 00:20:13","date_granularity":"0"},"geometry":{"type":"Point","coordinates":[-170.682397,-14.280733]}},{"type":"Feature","properties":{"park":"National_Park_of_American_Samoa","id":"4025327302","title":"Tsunami Disaster in American Samoa Sept. 2009 (142)","accuracy":16,"date_taken":"2009-09-30 00:19:54","date_granularity":"0"},"geometry":{"type":"Point","coordinates":[-170.682397,-14.280733]}},{"type":"Feature","properties":{"park":"National_Park_of_American_Samoa","id":"4025326852","title":"Tsunami Disaster in American Samoa Sept. 2009 (141)","accuracy":16,"date_taken":"2009-09-30 00:19:52","date_granularity":"0"},"geometry":{"type":"Point","coordinates":[-170.682397,-14.280733]}},{"type":"Feature","properties":{"park":"National_Park_of_American_Samoa","id":"4025326452","title":"Tsunami Disaster in American Samoa Sept. 2009 (140)","accuracy":16,"date_taken":"2009-09-30 00:19:48","date_granularity":"0"},"geometry":{"type":"Point","coordinates":[-170.682397,-14.280733]}},{"type":"Feature","properties":{"park":"National_Park_of_American_Samoa","id":"4024572745","title":"Tsunami Disaster in American Samoa Sept. 2009 (139)","accuracy":16,"date_taken":"2009-09-30 00:19:46","date_granularity":"0"},"geometry":{"type":"Point","coordinates":[-170.682397,-14.280733]}},{"type":"Feature","properties":{"park":"National_Park_of_American_Samoa","id":"4024572265","title":"Tsunami Disaster in American Samoa Sept. 2009 (138)","accuracy":16,"date_taken":"2009-09-30 00:19:39","date_granularity":"0"},"geometry":{"type":"Point","coordinates":[-170.682397,-14.280733]}},{"type":"Feature","properties":{"park":"National_Park_of_American_Samoa","id":"4025324948","title":"Tsunami Disaster in American Samoa Sept. 2009 (135)","accuracy":16,"date_taken":"2009-09-30 00:19:18","date_granularity":"0"},"geometry":{"type":"Point","coordinates":[-170.682397,-14.280733]}},{"type":"Feature","properties":{"park":"National_Park_of_American_Samoa","id":"4025324444","title":"Tsunami Disaster in American Samoa Sept. 2009 (133)","accuracy":16,"date_taken":"2009-09-30 00:19:03","date_granularity":"0"},"geometry":{"type":"Point","coordinates":[-170.682397,-14.280733]}},{"type":"Feature","properties":{"park":"National_Park_of_American_Samoa","id":"4025323662","title":"Tsunami Disaster in American Samoa Sept. 2009 (132)","accuracy":16,"date_taken":"2009-09-30 00:18:54","date_granularity":"0"},"geometry":{"type":"Point","coordinates":[-170.682397,-14.280733]}},{"type":"Feature","properties":{"park":"National_Park_of_American_Samoa","id":"4025322874","title":"Tsunami Disaster in American Samoa Sept. 2009 (137)","accuracy":16,"date_taken":"2009-09-30 00:19:37","date_granularity":"0"},"geometry":{"type":"Point","coordinates":[-170.682397,-14.280733]}},{"type":"Feature","properties":{"park":"National_Park_of_American_Samoa","id":"4025322128","title":"Tsunami Disaster in American Samoa Sept. 2009 (136)","accuracy":16,"date_taken":"2009-09-30 00:19:32","date_granularity":"0"},"geometry":{"type":"Point","coordinates":[-170.682397,-14.280733]}},{"type":"Feature","properties":{"park":"National_Park_of_American_Samoa","id":"4025321294","title":"Tsunami Disaster in American Samoa Sept. 2009 (134)","accuracy":16,"date_taken":"2009-09-30 00:19:05","date_granularity":"0"},"geometry":{"type":"Point","coordinates":[-170.682397,-14.280733]}},{"type":"Feature","properties":{"park":"National_Park_of_American_Samoa","id":"4025320838","title":"Tsunami Disaster in American Samoa Sept. 2009 (131)","accuracy":16,"date_taken":"2009-09-30 00:18:30","date_granularity":"0"},"geometry":{"type":"Point","coordinates":[-170.682397,-14.280733]}},{"type":"Feature","properties":{"park":"National_Park_of_American_Samoa","id":"4025319712","title":"Tsunami Disaster in American Samoa Sept. 2009 (129)","accuracy":16,"date_taken":"2009-09-30 00:18:24","date_granularity":"0"},"geometry":{"type":"Point","coordinates":[-170.682397,-14.280733]}},{"type":"Feature","properties":{"park":"National_Park_of_American_Samoa","id":"4024565667","title":"Tsunami Disaster in American Samoa Sept. 2009 (128)","accuracy":16,"date_taken":"2009-09-30 00:18:19","date_granularity":"0"},"geometry":{"type":"Point","coordinates":[-170.682397,-14.280733]}},{"type":"Feature","properties":{"park":"National_Park_of_American_Samoa","id":"4024565055","title":"Tsunami Disaster in American Samoa Sept. 2009 (127)","accuracy":16,"date_taken":"2009-09-30 00:18:11","date_granularity":"0"},"geometry":{"type":"Point","coordinates":[-170.682397,-14.280733]}},{"type":"Feature","properties":{"park":"National_Park_of_American_Samoa","id":"4025317674","title":"Tsunami Disaster in American Samoa Sept. 2009 (125)","accuracy":16,"date_taken":"2009-09-30 00:18:05","date_granularity":"0"},"geometry":{"type":"Point","coordinates":[-170.682397,-14.280733]}},{"type":"Feature","properties":{"park":"National_Park_of_American_Samoa","id":"4024562685","title":"Tsunami Disaster in American Samoa Sept. 2009 (124)","accuracy":16,"date_taken":"2009-09-30 00:17:38","date_granularity":"0"},"geometry":{"type":"Point","coordinates":[-170.682397,-14.280733]}},{"type":"Feature","properties":{"park":"National_Park_of_American_Samoa","id":"4025315614","title":"Tsunami Disaster in American Samoa Sept. 2009 (122)","accuracy":16,"date_taken":"2009-09-30 00:17:14","date_granularity":"0"},"geometry":{"type":"Point","coordinates":[-170.682397,-14.280733]}},{"type":"Feature","properties":{"park":"National_Park_of_American_Samoa","id":"4024561367","title":"Tsunami Disaster in American Samoa Sept. 2009 (121)","accuracy":16,"date_taken":"2009-09-30 00:17:08","date_granularity":"0"},"geometry":{"type":"Point","coordinates":[-170.682397,-14.280733]}},{"type":"Feature","properties":{"park":"National_Park_of_American_Samoa","id":"4025314494","title":"Tsunami Disaster in American Samoa Sept. 2009 (120)","accuracy":16,"date_taken":"2009-09-30 00:17:04","date_granularity":"0"},"geometry":{"type":"Point","coordinates":[-170.682397,-14.280733]}},{"type":"Feature","properties":{"park":"National_Park_of_American_Samoa","id":"4025313824","title":"Tsunami Disaster in American Samoa Sept. 2009 (119)","accuracy":16,"date_taken":"2009-09-30 00:16:58","date_granularity":"0"},"geometry":{"type":"Point","coordinates":[-170.682397,-14.280733]}},{"type":"Feature","properties":{"park":"National_Park_of_American_Samoa","id":"4025313402","title":"Tsunami Disaster in American Samoa Sept. 2009 (118)","accuracy":16,"date_taken":"2009-09-30 00:16:51","date_granularity":"0"},"geometry":{"type":"Point","coordinates":[-170.682397,-14.280733]}},{"type":"Feature","properties":{"park":"National_Park_of_American_Samoa","id":"4025313026","title":"Tsunami Disaster in American Samoa Sept. 2009 (117)","accuracy":16,"date_taken":"2009-09-30 00:16:05","date_granularity":"0"},"geometry":{"type":"Point","coordinates":[-170.682397,-14.280733]}},{"type":"Feature","properties":{"park":"National_Park_of_American_Samoa","id":"4024557525","title":"Tsunami Disaster in American Samoa Sept. 2009 (114)","accuracy":16,"date_taken":"2009-09-30 00:15:36","date_granularity":"0"},"geometry":{"type":"Point","coordinates":[-170.682397,-14.280733]}},{"type":"Feature","properties":{"park":"National_Park_of_American_Samoa","id":"4025310470","title":"Tsunami Disaster in American Samoa Sept. 2009 (113)","accuracy":16,"date_taken":"2009-09-30 00:15:34","date_granularity":"0"},"geometry":{"type":"Point","coordinates":[-170.682397,-14.280733]}},{"type":"Feature","properties":{"park":"National_Park_of_American_Samoa","id":"4025308866","title":"Tsunami Disaster in American Samoa Sept. 2009 (110)","accuracy":16,"date_taken":"2009-09-30 00:33:25","date_granularity":"0"},"geometry":{"type":"Point","coordinates":[-170.682397,-14.280733]}},{"type":"Feature","properties":{"park":"National_Park_of_American_Samoa","id":"4024554677","title":"Tsunami Disaster in American Samoa Sept. 2009 (109)","accuracy":16,"date_taken":"2009-09-30 00:33:03","date_granularity":"0"},"geometry":{"type":"Point","coordinates":[-170.682397,-14.280733]}},{"type":"Feature","properties":{"park":"National_Park_of_American_Samoa","id":"4025305840","title":"Tsunami Disaster in American Samoa Sept. 2009 (105)","accuracy":16,"date_taken":"2009-09-30 00:32:33","date_granularity":"0"},"geometry":{"type":"Point","coordinates":[-170.682397,-14.280733]}},{"type":"Feature","properties":{"park":"National_Park_of_American_Samoa","id":"4025303820","title":"Tsunami Disaster in American Samoa Sept. 2009 (101)","accuracy":16,"date_taken":"2009-09-30 00:32:20","date_granularity":"0"},"geometry":{"type":"Point","coordinates":[-170.682397,-14.280733]}},{"type":"Feature","properties":{"park":"National_Park_of_American_Samoa","id":"4025302518","title":"Tsunami Disaster in American Samoa Sept. 2009 (99)","accuracy":16,"date_taken":"2009-09-30 00:32:14","date_granularity":"0"},"geometry":{"type":"Point","coordinates":[-170.682397,-14.280733]}},{"type":"Feature","properties":{"park":"National_Park_of_American_Samoa","id":"4025301536","title":"Tsunami Disaster in American Samoa Sept. 2009 (98)","accuracy":16,"date_taken":"2009-09-30 00:32:09","date_granularity":"0"},"geometry":{"type":"Point","coordinates":[-170.682397,-14.280733]}},{"type":"Feature","properties":{"park":"National_Park_of_American_Samoa","id":"4024547359","title":"Tsunami Disaster in American Samoa Sept. 2009 (97)","accuracy":16,"date_taken":"2009-09-30 00:32:03","date_granularity":"0"},"geometry":{"type":"Point","coordinates":[-170.682397,-14.280733]}},{"type":"Feature","properties":{"park":"National_Park_of_American_Samoa","id":"4024546453","title":"Tsunami Disaster in American Samoa Sept. 2009 (94)","accuracy":16,"date_taken":"2009-09-30 00:31:28","date_granularity":"0"},"geometry":{"type":"Point","coordinates":[-170.682397,-14.280733]}},{"type":"Feature","properties":{"park":"National_Park_of_American_Samoa","id":"4025298712","title":"Tsunami Disaster in American Samoa Sept. 2009 (91)","accuracy":16,"date_taken":"2009-09-30 00:31:01","date_granularity":"0"},"geometry":{"type":"Point","coordinates":[-170.682397,-14.280733]}},{"type":"Feature","properties":{"park":"National_Park_of_American_Samoa","id":"4024544071","title":"Tsunami Disaster in American Samoa Sept. 2009 (90)","accuracy":16,"date_taken":"2009-09-30 00:30:52","date_granularity":"0"},"geometry":{"type":"Point","coordinates":[-170.682397,-14.280733]}},{"type":"Feature","properties":{"park":"National_Park_of_American_Samoa","id":"4024542871","title":"Tsunami Disaster in American Samoa Sept. 2009 (88)","accuracy":16,"date_taken":"2009-09-30 00:30:34","date_granularity":"0"},"geometry":{"type":"Point","coordinates":[-170.682397,-14.280733]}},{"type":"Feature","properties":{"park":"National_Park_of_American_Samoa","id":"4025296018","title":"Tsunami Disaster in American Samoa Sept. 2009 (87)","accuracy":16,"date_taken":"2009-09-30 00:30:31","date_granularity":"0"},"geometry":{"type":"Point","coordinates":[-170.682397,-14.280733]}},{"type":"Feature","properties":{"park":"National_Park_of_American_Samoa","id":"4025295328","title":"Tsunami Disaster in American Samoa Sept. 2009 (86)","accuracy":16,"date_taken":"2009-09-30 00:30:28","date_granularity":"0"},"geometry":{"type":"Point","coordinates":[-170.682397,-14.280733]}},{"type":"Feature","properties":{"park":"National_Park_of_American_Samoa","id":"4025294696","title":"Tsunami Disaster in American Samoa Sept. 2009 (85)","accuracy":16,"date_taken":"2009-09-30 00:30:25","date_granularity":"0"},"geometry":{"type":"Point","coordinates":[-170.682397,-14.280733]}},{"type":"Feature","properties":{"park":"National_Park_of_American_Samoa","id":"4024540385","title":"Tsunami Disaster in American Samoa Sept. 2009 (84)","accuracy":16,"date_taken":"2009-09-30 00:30:23","date_granularity":"0"},"geometry":{"type":"Point","coordinates":[-170.682397,-14.280733]}},{"type":"Feature","properties":{"park":"National_Park_of_American_Samoa","id":"4025293548","title":"Tsunami Disaster in American Samoa Sept. 2009 (83)","accuracy":16,"date_taken":"2009-09-30 00:30:18","date_granularity":"0"},"geometry":{"type":"Point","coordinates":[-170.682397,-14.280733]}},{"type":"Feature","properties":{"park":"National_Park_of_American_Samoa","id":"4025292894","title":"Tsunami Disaster in American Samoa Sept. 2009 (82)","accuracy":16,"date_taken":"2009-09-30 00:30:16","date_granularity":"0"},"geometry":{"type":"Point","coordinates":[-170.682397,-14.280733]}},{"type":"Feature","properties":{"park":"National_Park_of_American_Samoa","id":"4024538507","title":"Tsunami Disaster in American Samoa Sept. 2009 (81)","accuracy":16,"date_taken":"2009-09-30 00:30:08","date_granularity":"0"},"geometry":{"type":"Point","coordinates":[-170.682397,-14.280733]}},{"type":"Feature","properties":{"park":"National_Park_of_American_Samoa","id":"4025290524","title":"Tsunami Disaster in American Samoa Sept. 2009 (79)","accuracy":16,"date_taken":"2009-09-30 00:29:59","date_granularity":"0"},"geometry":{"type":"Point","coordinates":[-170.682397,-14.280733]}},{"type":"Feature","properties":{"park":"National_Park_of_American_Samoa","id":"4024536143","title":"Tsunami Disaster in American Samoa Sept. 2009 (77)","accuracy":16,"date_taken":"2009-09-30 00:29:53","date_granularity":"0"},"geometry":{"type":"Point","coordinates":[-170.682397,-14.280733]}},{"type":"Feature","properties":{"park":"National_Park_of_American_Samoa","id":"4024535925","title":"Tsunami Disaster in American Samoa Sept. 2009 (76)","accuracy":16,"date_taken":"2009-09-30 00:29:48","date_granularity":"0"},"geometry":{"type":"Point","coordinates":[-170.682397,-14.280733]}},{"type":"Feature","properties":{"park":"National_Park_of_American_Samoa","id":"4024535489","title":"Tsunami Disaster in American Samoa Sept. 2009 (75)","accuracy":16,"date_taken":"2009-09-30 00:29:44","date_granularity":"0"},"geometry":{"type":"Point","coordinates":[-170.682397,-14.280733]}},{"type":"Feature","properties":{"park":"National_Park_of_American_Samoa","id":"4025288616","title":"Tsunami Disaster in American Samoa Sept. 2009 (72)","accuracy":16,"date_taken":"2009-09-30 00:29:17","date_granularity":"0"},"geometry":{"type":"Point","coordinates":[-170.682397,-14.280733]}},{"type":"Feature","properties":{"park":"National_Park_of_American_Samoa","id":"4024534637","title":"Tsunami Disaster in American Samoa Sept. 2009 (74)","accuracy":16,"date_taken":"2009-09-30 00:29:35","date_granularity":"0"},"geometry":{"type":"Point","coordinates":[-170.682397,-14.280733]}},{"type":"Feature","properties":{"park":"National_Park_of_American_Samoa","id":"4025287574","title":"Tsunami Disaster in American Samoa Sept. 2009 (73)","accuracy":16,"date_taken":"2009-09-30 00:29:29","date_granularity":"0"},"geometry":{"type":"Point","coordinates":[-170.682397,-14.280733]}},{"type":"Feature","properties":{"park":"National_Park_of_American_Samoa","id":"4025287010","title":"Tsunami Disaster in American Samoa Sept. 2009 (70)","accuracy":16,"date_taken":"2009-09-30 00:29:04","date_granularity":"0"},"geometry":{"type":"Point","coordinates":[-170.682397,-14.280733]}},{"type":"Feature","properties":{"park":"National_Park_of_American_Samoa","id":"4025286554","title":"Tsunami Disaster in American Samoa Sept. 2009 (69)","accuracy":16,"date_taken":"2009-09-30 00:28:37","date_granularity":"0"},"geometry":{"type":"Point","coordinates":[-170.682397,-14.280733]}},{"type":"Feature","properties":{"park":"National_Park_of_American_Samoa","id":"4025286022","title":"Tsunami Disaster in American Samoa Sept. 2009 (68)","accuracy":16,"date_taken":"2009-09-30 00:28:36","date_granularity":"0"},"geometry":{"type":"Point","coordinates":[-170.682397,-14.280733]}},{"type":"Feature","properties":{"park":"National_Park_of_American_Samoa","id":"4024532075","title":"Tsunami Disaster in American Samoa Sept. 2009 (67)","accuracy":16,"date_taken":"2009-09-30 00:28:32","date_granularity":"0"},"geometry":{"type":"Point","coordinates":[-170.682397,-14.280733]}},{"type":"Feature","properties":{"park":"National_Park_of_American_Samoa","id":"4024531381","title":"Tsunami Disaster in American Samoa Sept. 2009 (65)","accuracy":16,"date_taken":"2009-09-30 00:28:22","date_granularity":"0"},"geometry":{"type":"Point","coordinates":[-170.682397,-14.280733]}},{"type":"Feature","properties":{"park":"National_Park_of_American_Samoa","id":"4024530977","title":"Tsunami Disaster in American Samoa Sept. 2009 (64)","accuracy":16,"date_taken":"2009-09-30 00:28:20","date_granularity":"0"},"geometry":{"type":"Point","coordinates":[-170.682397,-14.280733]}},{"type":"Feature","properties":{"park":"National_Park_of_American_Samoa","id":"4024530679","title":"Tsunami Disaster in American Samoa Sept. 2009 (63)","accuracy":16,"date_taken":"2009-09-30 00:28:14","date_granularity":"0"},"geometry":{"type":"Point","coordinates":[-170.682397,-14.280733]}},{"type":"Feature","properties":{"park":"National_Park_of_American_Samoa","id":"4025283780","title":"Tsunami Disaster in American Samoa Sept. 2009 (52)","accuracy":16,"date_taken":"2009-09-30 00:26:31","date_granularity":"0"},"geometry":{"type":"Point","coordinates":[-170.682397,-14.280733]}},{"type":"Feature","properties":{"park":"National_Park_of_American_Samoa","id":"4025283326","title":"Tsunami Disaster in American Samoa Sept. 2009 (50)","accuracy":16,"date_taken":"2009-09-30 00:26:10","date_granularity":"0"},"geometry":{"type":"Point","coordinates":[-170.682397,-14.280733]}},{"type":"Feature","properties":{"park":"National_Park_of_American_Samoa","id":"4025282086","title":"Tsunami Disaster in American Samoa Sept. 2009 (48)","accuracy":16,"date_taken":"2009-09-30 00:25:02","date_granularity":"0"},"geometry":{"type":"Point","coordinates":[-170.682397,-14.280733]}},{"type":"Feature","properties":{"park":"National_Park_of_American_Samoa","id":"4024527299","title":"Tsunami Disaster in American Samoa Sept. 2009 (46)","accuracy":16,"date_taken":"2009-09-30 00:24:20","date_granularity":"0"},"geometry":{"type":"Point","coordinates":[-170.682397,-14.280733]}},{"type":"Feature","properties":{"park":"National_Park_of_American_Samoa","id":"4024526713","title":"Tsunami Disaster in American Samoa Sept. 2009 (45)","accuracy":16,"date_taken":"2009-09-30 00:23:59","date_granularity":"0"},"geometry":{"type":"Point","coordinates":[-170.682397,-14.280733]}},{"type":"Feature","properties":{"park":"National_Park_of_American_Samoa","id":"4024525239","title":"Tsunami Disaster in American Samoa Sept. 2009 (43)","accuracy":16,"date_taken":"2009-09-30 00:23:20","date_granularity":"0"},"geometry":{"type":"Point","coordinates":[-170.682397,-14.280733]}},{"type":"Feature","properties":{"park":"National_Park_of_American_Samoa","id":"4025278064","title":"Tsunami Disaster in American Samoa Sept. 2009 (42)","accuracy":16,"date_taken":"2009-09-30 00:23:14","date_granularity":"0"},"geometry":{"type":"Point","coordinates":[-170.682397,-14.280733]}},{"type":"Feature","properties":{"park":"National_Park_of_American_Samoa","id":"4024523407","title":"Tsunami Disaster in American Samoa Sept. 2009 (62)","accuracy":16,"date_taken":"2009-09-30 00:28:11","date_granularity":"0"},"geometry":{"type":"Point","coordinates":[-170.682397,-14.280733]}},{"type":"Feature","properties":{"park":"National_Park_of_American_Samoa","id":"4025276356","title":"Tsunami Disaster in American Samoa Sept. 2009 (61)","accuracy":16,"date_taken":"2009-09-30 00:27:57","date_granularity":"0"},"geometry":{"type":"Point","coordinates":[-170.682397,-14.280733]}},{"type":"Feature","properties":{"park":"National_Park_of_American_Samoa","id":"4024522179","title":"Tsunami Disaster in American Samoa Sept. 2009 (60)","accuracy":16,"date_taken":"2009-09-30 00:27:53","date_granularity":"0"},"geometry":{"type":"Point","coordinates":[-170.682397,-14.280733]}},{"type":"Feature","properties":{"park":"National_Park_of_American_Samoa","id":"4024521393","title":"Tsunami Disaster in American Samoa Sept. 2009 (59)","accuracy":16,"date_taken":"2009-09-30 00:27:47","date_granularity":"0"},"geometry":{"type":"Point","coordinates":[-170.682397,-14.280733]}},{"type":"Feature","properties":{"park":"National_Park_of_American_Samoa","id":"4024520173","title":"Tsunami Disaster in American Samoa Sept. 2009 (57)","accuracy":16,"date_taken":"2009-09-30 00:27:40","date_granularity":"0"},"geometry":{"type":"Point","coordinates":[-170.682397,-14.280733]}},{"type":"Feature","properties":{"park":"National_Park_of_American_Samoa","id":"4025273028","title":"Tsunami Disaster in American Samoa Sept. 2009 (55)","accuracy":16,"date_taken":"2009-09-30 00:26:44","date_granularity":"0"},"geometry":{"type":"Point","coordinates":[-170.682397,-14.280733]}},{"type":"Feature","properties":{"park":"National_Park_of_American_Samoa","id":"4024517993","title":"Tsunami Disaster in American Samoa Sept. 2009 (53)","accuracy":16,"date_taken":"2009-09-30 00:26:36","date_granularity":"0"},"geometry":{"type":"Point","coordinates":[-170.682397,-14.280733]}},{"type":"Feature","properties":{"park":"National_Park_of_American_Samoa","id":"4025271008","title":"Tsunami Disaster in American Samoa Sept. 2009 (51)","accuracy":16,"date_taken":"2009-09-30 00:26:24","date_granularity":"0"},"geometry":{"type":"Point","coordinates":[-170.682397,-14.280733]}},{"type":"Feature","properties":{"park":"National_Park_of_American_Samoa","id":"4025270422","title":"Tsunami Disaster in American Samoa Sept. 2009 (40)","accuracy":16,"date_taken":"2009-09-30 00:23:02","date_granularity":"0"},"geometry":{"type":"Point","coordinates":[-170.682397,-14.280733]}},{"type":"Feature","properties":{"park":"National_Park_of_American_Samoa","id":"4024516305","title":"Tsunami Disaster in American Samoa Sept. 2009 (39)","accuracy":16,"date_taken":"2009-09-30 00:23:00","date_granularity":"0"},"geometry":{"type":"Point","coordinates":[-170.682397,-14.280733]}},{"type":"Feature","properties":{"park":"National_Park_of_American_Samoa","id":"4024515645","title":"Tsunami Disaster in American Samoa Sept. 2009 (38)","accuracy":16,"date_taken":"2009-09-30 00:22:55","date_granularity":"0"},"geometry":{"type":"Point","coordinates":[-170.682397,-14.280733]}},{"type":"Feature","properties":{"park":"National_Park_of_American_Samoa","id":"4024515025","title":"Tsunami Disaster in American Samoa Sept. 2009 (37)","accuracy":16,"date_taken":"2009-09-30 00:22:49","date_granularity":"0"},"geometry":{"type":"Point","coordinates":[-170.682397,-14.280733]}},{"type":"Feature","properties":{"park":"National_Park_of_American_Samoa","id":"4025268066","title":"Tsunami Disaster in American Samoa Sept. 2009 (36)","accuracy":16,"date_taken":"2009-09-30 00:22:42","date_granularity":"0"},"geometry":{"type":"Point","coordinates":[-170.682397,-14.280733]}},{"type":"Feature","properties":{"park":"National_Park_of_American_Samoa","id":"4024512595","title":"Tsunami Disaster in American Samoa Sept. 2009 (33)","accuracy":16,"date_taken":"2009-09-30 03:24:03","date_granularity":"0"},"geometry":{"type":"Point","coordinates":[-170.682397,-14.280733]}},{"type":"Feature","properties":{"park":"National_Park_of_American_Samoa","id":"4025265876","title":"Tsunami Disaster in American Samoa Sept. 2009 (28)","accuracy":16,"date_taken":"2009-09-30 03:22:34","date_granularity":"0"},"geometry":{"type":"Point","coordinates":[-170.682397,-14.280733]}},{"type":"Feature","properties":{"park":"National_Park_of_American_Samoa","id":"4024511927","title":"Tsunami Disaster in American Samoa Sept. 2009 (32)","accuracy":16,"date_taken":"2009-09-30 03:23:57","date_granularity":"0"},"geometry":{"type":"Point","coordinates":[-170.682397,-14.280733]}},{"type":"Feature","properties":{"park":"National_Park_of_American_Samoa","id":"4025264666","title":"Tsunami Disaster in American Samoa Sept. 2009 (29)","accuracy":16,"date_taken":"2009-09-30 03:23:01","date_granularity":"0"},"geometry":{"type":"Point","coordinates":[-170.682397,-14.280733]}},{"type":"Feature","properties":{"park":"National_Park_of_American_Samoa","id":"4025264210","title":"Tsunami Disaster in American Samoa Sept. 2009 (31)","accuracy":16,"date_taken":"2009-09-30 03:23:23","date_granularity":"0"},"geometry":{"type":"Point","coordinates":[-170.682397,-14.280733]}},{"type":"Feature","properties":{"park":"National_Park_of_American_Samoa","id":"4025263848","title":"Tsunami Disaster in American Samoa Sept. 2009 (30)","accuracy":16,"date_taken":"2009-09-30 03:23:04","date_granularity":"0"},"geometry":{"type":"Point","coordinates":[-170.682397,-14.280733]}},{"type":"Feature","properties":{"park":"National_Park_of_American_Samoa","id":"4025263352","title":"Tsunami Disaster in American Samoa Sept. 2009 (27)","accuracy":16,"date_taken":"2009-09-30 03:22:24","date_granularity":"0"},"geometry":{"type":"Point","coordinates":[-170.682397,-14.280733]}},{"type":"Feature","properties":{"park":"National_Park_of_American_Samoa","id":"4025262864","title":"Tsunami Disaster in American Samoa Sept. 2009 (26)","accuracy":16,"date_taken":"2009-09-30 03:22:00","date_granularity":"0"},"geometry":{"type":"Point","coordinates":[-170.682397,-14.280733]}},{"type":"Feature","properties":{"park":"National_Park_of_American_Samoa","id":"4025262470","title":"Tsunami Disaster in American Samoa Sept. 2009 (25)","accuracy":16,"date_taken":"2009-09-30 03:21:20","date_granularity":"0"},"geometry":{"type":"Point","coordinates":[-170.682397,-14.280733]}},{"type":"Feature","properties":{"park":"National_Park_of_American_Samoa","id":"4024508243","title":"Tsunami Disaster in American Samoa Sept. 2009 (24)","accuracy":16,"date_taken":"2009-09-30 03:21:14","date_granularity":"0"},"geometry":{"type":"Point","coordinates":[-170.682397,-14.280733]}},{"type":"Feature","properties":{"park":"National_Park_of_American_Samoa","id":"4024507703","title":"Tsunami Disaster in American Samoa Sept. 2009 (23)","accuracy":16,"date_taken":"2009-09-30 03:21:00","date_granularity":"0"},"geometry":{"type":"Point","coordinates":[-170.682397,-14.280733]}},{"type":"Feature","properties":{"park":"National_Park_of_American_Samoa","id":"4024506659","title":"Tsunami Disaster in American Samoa Sept. 2009 (21)","accuracy":16,"date_taken":"2009-09-30 03:20:52","date_granularity":"0"},"geometry":{"type":"Point","coordinates":[-170.682397,-14.280733]}},{"type":"Feature","properties":{"park":"National_Park_of_American_Samoa","id":"4024506053","title":"Tsunami Disaster in American Samoa Sept. 2009 (20)","accuracy":16,"date_taken":"2009-09-30 03:20:33","date_granularity":"0"},"geometry":{"type":"Point","coordinates":[-170.682397,-14.280733]}},{"type":"Feature","properties":{"park":"National_Park_of_American_Samoa","id":"4024505095","title":"Tsunami Disaster in American Samoa Sept. 2009 (3)","accuracy":16,"date_taken":"2009-09-30 00:34:23","date_granularity":"0"},"geometry":{"type":"Point","coordinates":[-170.682397,-14.280733]}},{"type":"Feature","properties":{"park":"National_Park_of_American_Samoa","id":"4024504479","title":"Tsunami Disaster in American Samoa Sept. 2009 (4)","accuracy":16,"date_taken":"2009-09-30 00:34:34","date_granularity":"0"},"geometry":{"type":"Point","coordinates":[-170.682397,-14.280733]}},{"type":"Feature","properties":{"park":"National_Park_of_American_Samoa","id":"4025257684","title":"Tsunami Disaster in American Samoa Sept. 2009 (5)","accuracy":16,"date_taken":"2009-09-30 00:35:11","date_granularity":"0"},"geometry":{"type":"Point","coordinates":[-170.682397,-14.280733]}},{"type":"Feature","properties":{"park":"National_Park_of_American_Samoa","id":"4025257162","title":"Tsunami Disaster in American Samoa Sept. 2009 (18)","accuracy":16,"date_taken":"2009-09-30 00:40:01","date_granularity":"0"},"geometry":{"type":"Point","coordinates":[-170.682397,-14.280733]}},{"type":"Feature","properties":{"park":"National_Park_of_American_Samoa","id":"4025255240","title":"Tsunami Disaster in American Samoa Sept. 2009 (17)","accuracy":16,"date_taken":"2009-09-30 00:39:55","date_granularity":"0"},"geometry":{"type":"Point","coordinates":[-170.682397,-14.280733]}},{"type":"Feature","properties":{"park":"National_Park_of_American_Samoa","id":"4024500921","title":"Tsunami Disaster in American Samoa Sept. 2009 (16)","accuracy":16,"date_taken":"2009-09-30 00:39:49","date_granularity":"0"},"geometry":{"type":"Point","coordinates":[-170.682397,-14.280733]}},{"type":"Feature","properties":{"park":"National_Park_of_American_Samoa","id":"4024500491","title":"Tsunami Disaster in American Samoa Sept. 2009 (15)","accuracy":16,"date_taken":"2009-09-30 00:37:46","date_granularity":"0"},"geometry":{"type":"Point","coordinates":[-170.682397,-14.280733]}},{"type":"Feature","properties":{"park":"National_Park_of_American_Samoa","id":"4025253910","title":"Tsunami Disaster in American Samoa Sept. 2009 (8)","accuracy":16,"date_taken":"2009-09-30 00:35:39","date_granularity":"0"},"geometry":{"type":"Point","coordinates":[-170.682397,-14.280733]}},{"type":"Feature","properties":{"park":"National_Park_of_American_Samoa","id":"4024498713","title":"Tsunami Disaster in American Samoa Sept. 2009 (9)","accuracy":16,"date_taken":"2009-09-30 00:35:42","date_granularity":"0"},"geometry":{"type":"Point","coordinates":[-170.682397,-14.280733]}},{"type":"Feature","properties":{"park":"National_Park_of_American_Samoa","id":"4025251938","title":"Tsunami Disaster in American Samoa Sept. 2009 (13)","accuracy":16,"date_taken":"2009-09-30 00:37:01","date_granularity":"0"},"geometry":{"type":"Point","coordinates":[-170.682397,-14.280733]}},{"type":"Feature","properties":{"park":"National_Park_of_American_Samoa","id":"4024497723","title":"Tsunami Disaster in American Samoa Sept. 2009 (12)","accuracy":16,"date_taken":"2009-09-30 00:36:16","date_granularity":"0"},"geometry":{"type":"Point","coordinates":[-170.682397,-14.280733]}},{"type":"Feature","properties":{"park":"National_Park_of_American_Samoa","id":"4025250754","title":"Tsunami Disaster in American Samoa Sept. 2009 (11)","accuracy":16,"date_taken":"2009-09-30 00:35:52","date_granularity":"0"},"geometry":{"type":"Point","coordinates":[-170.682397,-14.280733]}},{"type":"Feature","properties":{"park":"National_Park_of_American_Samoa","id":"4025250310","title":"Tsunami Disaster in American Samoa Sept. 2009","accuracy":16,"date_taken":"2009-09-30 00:33:34","date_granularity":"0"},"geometry":{"type":"Point","coordinates":[-170.682397,-14.280733]}},{"type":"Feature","properties":{"park":"National_Park_of_American_Samoa","id":"4020633280","title":"DAZ_5371","accuracy":16,"date_taken":"2009-10-16 14:39:38","date_granularity":"0"},"geometry":{"type":"Point","coordinates":[-170.606667,-14.264102]}},{"type":"Feature","properties":{"park":"National_Park_of_American_Samoa","id":"4019863161","title":"DAZ_5369","accuracy":16,"date_taken":"2009-10-16 13:53:56","date_granularity":"0"},"geometry":{"type":"Point","coordinates":[-170.624037,-14.273881]}},{"type":"Feature","properties":{"park":"National_Park_of_American_Samoa","id":"4012850235","title":"Church in the mist_DAZ_5271","accuracy":16,"date_taken":"2009-10-14 14:12:47","date_granularity":"0"},"geometry":{"type":"Point","coordinates":[-170.66456,-14.271796]}},{"type":"Feature","properties":{"park":"National_Park_of_American_Samoa","id":"4002195389","title":"IMGP0335","accuracy":16,"date_taken":"2009-10-11 16:04:36","date_granularity":"0"},"geometry":{"type":"Point","coordinates":[-170.699815,-14.27072]}},{"type":"Feature","properties":{"park":"National_Park_of_American_Samoa","id":"4002884824","title":"IMGP0337","accuracy":16,"date_taken":"2009-10-11 15:41:31","date_granularity":"0"},"geometry":{"type":"Point","coordinates":[-170.676566,-14.267892]}},{"type":"Feature","properties":{"park":"National_Park_of_American_Samoa","id":"4002576930","title":"IMGP0336","accuracy":16,"date_taken":"2009-10-11 14:03:03","date_granularity":"0"},"geometry":{"type":"Point","coordinates":[-170.699805,-14.270658]}},{"type":"Feature","properties":{"park":"National_Park_of_American_Samoa","id":"45867474975","title":"ww96","accuracy":16,"date_taken":"2008-04-12 14:10:17","date_granularity":"0"},"geometry":{"type":"Point","coordinates":[-170.683518,-14.281715]}},{"type":"Feature","properties":{"park":"National_Park_of_American_Samoa","id":"45583298975","title":"American Samoa","accuracy":16,"date_taken":"2017-10-11 10:48:06","date_granularity":"0"},"geometry":{"type":"Point","coordinates":[-170.688345,-14.27657]}},{"type":"Feature","properties":{"park":"National_Park_of_American_Samoa","id":"45741536164","title":"","accuracy":16,"date_taken":"2018-12-04 10:48:39","date_granularity":"0"},"geometry":{"type":"Point","coordinates":[-170.671448,-14.242487]}},{"type":"Feature","properties":{"park":"National_Park_of_American_Samoa","id":"32592263188","title":"","accuracy":16,"date_taken":"2018-12-05 11:03:45","date_granularity":"0"},"geometry":{"type":"Point","coordinates":[-170.618637,-14.255964]}},{"type":"Feature","properties":{"park":"National_Park_of_American_Samoa","id":"44635724840","title":"","accuracy":16,"date_taken":"2018-12-05 11:12:29","date_granularity":"0"},"geometry":{"type":"Point","coordinates":[-170.625856,-14.258412]}},{"type":"Feature","properties":{"park":"National_Park_of_American_Samoa","id":"31512841517","title":"","accuracy":16,"date_taken":"2018-12-04 10:48:39","date_granularity":"0"},"geometry":{"type":"Point","coordinates":[-170.671448,-14.242487]}},{"type":"Feature","properties":{"park":"National_Park_of_American_Samoa","id":"45539929245","title":"","accuracy":16,"date_taken":"2018-12-05 12:08:53","date_granularity":"0"},"geometry":{"type":"Point","coordinates":[-170.68225,-14.280039]}},{"type":"Feature","properties":{"park":"National_Park_of_American_Samoa","id":"46452678641","title":"","accuracy":16,"date_taken":"2018-12-03 16:19:04","date_granularity":"0"},"geometry":{"type":"Point","coordinates":[-170.664553,-14.272114]}},{"type":"Feature","properties":{"park":"National_Park_of_American_Samoa","id":"46452678501","title":"","accuracy":16,"date_taken":"2018-12-05 11:03:45","date_granularity":"0"},"geometry":{"type":"Point","coordinates":[-170.618637,-14.255964]}},{"type":"Feature","properties":{"park":"National_Park_of_American_Samoa","id":"44635717260","title":"","accuracy":16,"date_taken":"2018-12-04 09:51:42","date_granularity":"0"},"geometry":{"type":"Point","coordinates":[-170.6557,-14.266759]}},{"type":"Feature","properties":{"park":"National_Park_of_American_Samoa","id":"31498954507","title":"","accuracy":16,"date_taken":"2018-12-04 11:16:12","date_granularity":"0"},"geometry":{"type":"Point","coordinates":[-170.671037,-14.240789]}},{"type":"Feature","properties":{"park":"National_Park_of_American_Samoa","id":"45525756785","title":"","accuracy":16,"date_taken":"2018-12-05 11:18:49","date_granularity":"0"},"geometry":{"type":"Point","coordinates":[-170.628448,-14.257945]}},{"type":"Feature","properties":{"park":"National_Park_of_American_Samoa","id":"44621804870","title":"","accuracy":16,"date_taken":"2018-12-03 17:24:24","date_granularity":"0"},"geometry":{"type":"Point","coordinates":[-170.580428,-14.250631]}},{"type":"Feature","properties":{"park":"National_Park_of_American_Samoa","id":"45525756555","title":"","accuracy":16,"date_taken":"2018-12-04 10:29:58","date_granularity":"0"},"geometry":{"type":"Point","coordinates":[-170.662445,-14.248692]}},{"type":"Feature","properties":{"park":"National_Park_of_American_Samoa","id":"45525755865","title":"","accuracy":16,"date_taken":"2018-12-04 19:58:05","date_granularity":"0"},"geometry":{"type":"Point","coordinates":[-170.681625,-14.277637]}},{"type":"Feature","properties":{"park":"National_Park_of_American_Samoa","id":"46426524171","title":"","accuracy":16,"date_taken":"2018-12-04 10:48:39","date_granularity":"0"},"geometry":{"type":"Point","coordinates":[-170.671448,-14.242487]}},{"type":"Feature","properties":{"park":"National_Park_of_American_Samoa","id":"46426522881","title":"","accuracy":16,"date_taken":"2018-12-05 11:12:29","date_granularity":"0"},"geometry":{"type":"Point","coordinates":[-170.625856,-14.258412]}},{"type":"Feature","properties":{"park":"National_Park_of_American_Samoa","id":"46376151902","title":"","accuracy":16,"date_taken":"2018-12-05 12:08:53","date_granularity":"0"},"geometry":{"type":"Point","coordinates":[-170.68225,-14.280039]}},{"type":"Feature","properties":{"park":"National_Park_of_American_Samoa","id":"32554741888","title":"","accuracy":16,"date_taken":"2018-12-03 16:19:04","date_granularity":"0"},"geometry":{"type":"Point","coordinates":[-170.664553,-14.272114]}},{"type":"Feature","properties":{"park":"National_Park_of_American_Samoa","id":"32554738378","title":"","accuracy":16,"date_taken":"2018-12-04 09:51:42","date_granularity":"0"},"geometry":{"type":"Point","coordinates":[-170.6557,-14.266759]}},{"type":"Feature","properties":{"park":"National_Park_of_American_Samoa","id":"31485474407","title":"","accuracy":16,"date_taken":"2018-12-04 10:10:39","date_granularity":"0"},"geometry":{"type":"Point","coordinates":[-170.655014,-14.251714]}},{"type":"Feature","properties":{"park":"National_Park_of_American_Samoa","id":"46374546592","title":"","accuracy":16,"date_taken":"2018-12-04 11:11:15","date_granularity":"0"},"geometry":{"type":"Point","coordinates":[-170.671142,-14.240862]}},{"type":"Feature","properties":{"park":"National_Park_of_American_Samoa","id":"46374546182","title":"","accuracy":16,"date_taken":"2018-12-04 10:49:00","date_granularity":"0"},"geometry":{"type":"Point","coordinates":[-170.671548,-14.242656]}},{"type":"Feature","properties":{"park":"National_Park_of_American_Samoa","id":"46374543812","title":"","accuracy":16,"date_taken":"2018-12-03 16:59:55","date_granularity":"0"},"geometry":{"type":"Point","coordinates":[-170.603364,-14.281817]}},{"type":"Feature","properties":{"park":"National_Park_of_American_Samoa","id":"46424876981","title":"","accuracy":16,"date_taken":"2018-12-05 11:14:27","date_granularity":"0"},"geometry":{"type":"Point","coordinates":[-170.629334,-14.257684]}},{"type":"Feature","properties":{"park":"National_Park_of_American_Samoa","id":"45512365495","title":"","accuracy":16,"date_taken":"2018-12-03 18:41:27","date_granularity":"0"},"geometry":{"type":"Point","coordinates":[-170.639162,-14.281217]}},{"type":"Feature","properties":{"park":"National_Park_of_American_Samoa","id":"45512365225","title":"","accuracy":16,"date_taken":"2018-12-04 10:33:59","date_granularity":"0"},"geometry":{"type":"Point","coordinates":[-170.670395,-14.250862]}},{"type":"Feature","properties":{"park":"National_Park_of_American_Samoa","id":"45702024084","title":"","accuracy":16,"date_taken":"2018-12-05 11:05:55","date_granularity":"0"},"geometry":{"type":"Point","coordinates":[-170.621109,-14.258373]}},{"type":"Feature","properties":{"park":"National_Park_of_American_Samoa","id":"45702023624","title":"","accuracy":16,"date_taken":"2018-12-03 16:22:05","date_granularity":"0"},"geometry":{"type":"Point","coordinates":[-170.665117,-14.277709]}},{"type":"Feature","properties":{"park":"National_Park_of_American_Samoa","id":"46374476062","title":"","accuracy":16,"date_taken":"2018-12-05 12:09:12","date_granularity":"0"},"geometry":{"type":"Point","coordinates":[-170.68225,-14.280039]}},{"type":"Feature","properties":{"park":"National_Park_of_American_Samoa","id":"44608371610","title":"","accuracy":16,"date_taken":"2018-12-04 10:03:36","date_granularity":"0"},"geometry":{"type":"Point","coordinates":[-170.654228,-14.254628]}},{"type":"Feature","properties":{"park":"National_Park_of_American_Samoa","id":"44608314400","title":"","accuracy":16,"date_taken":"2018-12-05 10:49:16","date_granularity":"0"},"geometry":{"type":"Point","coordinates":[-170.63437,-14.281092]}},{"type":"Feature","properties":{"park":"National_Park_of_American_Samoa","id":"45512308465","title":"","accuracy":16,"date_taken":"2018-12-04 11:11:28","date_granularity":"0"},"geometry":{"type":"Point","coordinates":[-170.671142,-14.240862]}},{"type":"Feature","properties":{"park":"National_Park_of_American_Samoa","id":"45701964044","title":"","accuracy":16,"date_taken":"2018-12-05 11:19:04","date_granularity":"0"},"geometry":{"type":"Point","coordinates":[-170.628448,-14.257945]}},{"type":"Feature","properties":{"park":"National_Park_of_American_Samoa","id":"45701963834","title":"","accuracy":16,"date_taken":"2018-12-03 13:56:00","date_granularity":"0"},"geometry":{"type":"Point","coordinates":[-170.697053,-14.274237]}},{"type":"Feature","properties":{"park":"National_Park_of_American_Samoa","id":"44608309440","title":"","accuracy":16,"date_taken":"2018-12-04 10:17:30","date_granularity":"0"},"geometry":{"type":"Point","coordinates":[-170.662506,-14.248753]}},{"type":"Feature","properties":{"park":"National_Park_of_American_Samoa","id":"46374417152","title":"","accuracy":16,"date_taken":"2018-12-03 17:05:09","date_granularity":"0"},"geometry":{"type":"Point","coordinates":[-170.590231,-14.278245]}},{"type":"Feature","properties":{"park":"National_Park_of_American_Samoa","id":"44608306940","title":"","accuracy":16,"date_taken":"2018-12-04 10:04:48","date_granularity":"0"},"geometry":{"type":"Point","coordinates":[-170.654281,-14.254517]}},{"type":"Feature","properties":{"park":"National_Park_of_American_Samoa","id":"46424755671","title":"","accuracy":16,"date_taken":"2018-12-05 11:14:30","date_granularity":"0"},"geometry":{"type":"Point","coordinates":[-170.6295,-14.257617]}},{"type":"Feature","properties":{"park":"National_Park_of_American_Samoa","id":"46424754451","title":"","accuracy":16,"date_taken":"2018-12-04 13:07:37","date_granularity":"0"},"geometry":{"type":"Point","coordinates":[-170.681603,-14.281506]}},{"type":"Feature","properties":{"park":"National_Park_of_American_Samoa","id":"45512296625","title":"","accuracy":16,"date_taken":"2018-12-04 10:51:01","date_granularity":"0"},"geometry":{"type":"Point","coordinates":[-170.671234,-14.242231]}},{"type":"Feature","properties":{"park":"National_Park_of_American_Samoa","id":"46374413922","title":"","accuracy":16,"date_taken":"2018-12-05 12:10:53","date_granularity":"0"},"geometry":{"type":"Point","coordinates":[-170.682189,-14.2801]}},{"type":"Feature","properties":{"park":"National_Park_of_American_Samoa","id":"31485337777","title":"","accuracy":16,"date_taken":"2018-12-03 14:25:35","date_granularity":"0"},"geometry":{"type":"Point","coordinates":[-170.697195,-14.273956]}},{"type":"Feature","properties":{"park":"National_Park_of_American_Samoa","id":"46374411942","title":"","accuracy":16,"date_taken":"2018-12-05 11:07:35","date_granularity":"0"},"geometry":{"type":"Point","coordinates":[-170.621034,-14.258362]}},{"type":"Feature","properties":{"park":"National_Park_of_American_Samoa","id":"31485337367","title":"","accuracy":16,"date_taken":"2018-12-04 10:36:41","date_granularity":"0"},"geometry":{"type":"Point","coordinates":[-170.672731,-14.25127]}},